var maplatlng = {"latlng":[{"lat":"23.4497","lng":"72.4272","name":"ABYSABYSESR001","address":"Sap : I-GJ-ABYS-ENB-6000<br\/>Loopback : 172.22.234.119<br\/>Up-Time : 41 days, 3:06:30.23","type":"ESR","status":"1","hoto":"1"},{"lat":"21.9158","lng":"69.594","name":"ADNAADNAESR001","address":"Sap : I-GJ-ADNA-ENB-6000<br\/>Loopback : 172.22.232.111<br\/>Up-Time : 22 days, 13:44:59.85","type":"ESR","status":"1","hoto":"1"},{"lat":"20.7583","lng":"73.6862","name":"AHWAAHWAESR001","address":"Sap : I-GJ-AHWA-ENB-I001<br\/>Loopback : 172.22.182.109<br\/>Up-Time : 16 days, 15:00:40.63","type":"ESR","status":"1","hoto":"1"},{"lat":"21.5531","lng":"72.9893","name":"AKLVPNLIESR002","address":"Sap : I-GJ-AKLV-ENB-0002<br\/>Loopback : 172.22.182.53<br\/>Up-Time : 7:40:56.75","type":"ESR","status":"1","hoto":"1"},{"lat":"21.6137","lng":"72.9669","name":"AKLVAKLVESR014","address":"Sap : I-GJ-AKLV-ENB-0004<br\/>Loopback : 172.22.179.2<br\/>Up-Time : 12 days, 12:34:14.07","type":"ESR","status":"1","hoto":"1"},{"lat":"21.6232","lng":"72.9832","name":"AKLVHSBDESR001","address":"Sap : I-GJ-AKLV-ENB-0007<br\/>Loopback : 172.22.178.245<br\/>Up-Time : 42 days, 11:48:35.56","type":"ESR","status":"1","hoto":"1"},{"lat":"21.6341","lng":"72.9966","name":"AKLVAKLRESR002","address":"Sap : I-GJ-AKLV-ENB-0012<br\/>Loopback : 172.22.178.186<br\/>Up-Time : 6 days, 15:56:46.69","type":"ESR","status":"1","hoto":"1"},{"lat":"21.5539","lng":"72.9983","name":"AKLVPNLIESR003","address":"Sap : I-GJ-AKLV-ENB-0013<br\/>Loopback : 172.22.179.244<br\/>Up-Time : 29 days, 17:12:59.14","type":"ESR","status":"1","hoto":"1"},{"lat":"21.6042","lng":"72.9994","name":"AKLVAKLVESR023","address":"Sap : I-GJ-AKLV-ENB-0016<br\/>Loopback : 172.22.178.254<br\/>Up-Time : 12:55:06.85","type":"ESR","status":"1","hoto":"1"},{"lat":"21.5717","lng":"72.992","name":"AKLVPNLIESR004","address":"Sap : I-GJ-AKLV-ENB-0017<br\/>Loopback : 172.22.179.245<br\/>Up-Time : 14 days, 15:04:03.93","type":"ESR","status":"1","hoto":"1"},{"lat":"21.5799","lng":"72.9732","name":"AKLVAKLVESR010","address":"Sap : I-GJ-AKLV-ENB-0018<br\/>Loopback : 172.22.178.224<br\/>Up-Time : 18 days, 11:38:23.73","type":"ESR","status":"1","hoto":"1"},{"lat":"21.56","lng":"72.9946","name":"AKLVAKLVESR022","address":"Sap : I-GJ-AKLV-ENB-0019<br\/>Loopback : 172.22.182.52<br\/>Up-Time : 30 days, 16:35:36.83","type":"ESR","status":"1","hoto":"1"},{"lat":"21.534","lng":"72.976","name":"PNLIPNLIESR001","address":"Sap : I-GJ-AKLV-ENB-0020<br\/>Loopback : 172.22.178.235<br\/>Up-Time : 18 days, 15:44:46.47","type":"ESR","status":"1","hoto":"1"},{"lat":"21.5427","lng":"73.0036","name":"AKLVAKLVESR025","address":"Sap : I-GJ-AKLV-ENB-0021<br\/>Loopback : 172.22.178.230<br\/>Up-Time : 20:49:03.99","type":"ESR","status":"1","hoto":"1"},{"lat":"21.5436","lng":"72.9785","name":"AKLVAKLVESR011","address":"Sap : I-GJ-AKLV-ENB-0022<br\/>Loopback : 172.22.178.237<br\/>Up-Time : 17:59:23.27","type":"ESR","status":"1","hoto":"1"},{"lat":"21.637","lng":"73.0695","name":"AKLVAKLVESR021","address":"Sap : I-GJ-AKLV-ENB-0023<br\/>Loopback : 172.22.178.227<br\/>Up-Time : 3:20:51.46","type":"ESR","status":"1","hoto":"1"},{"lat":"21.6367","lng":"73.0501","name":"AKLVPDMTESR002","address":"Sap : I-GJ-AKLV-ENB-0024<br\/>Loopback : 172.22.179.44<br\/>Up-Time : 9 days, 12:55:34.52","type":"ESR","status":"1","hoto":"1"},{"lat":"21.6153","lng":"72.9978","name":"AKLVAKLVESR030","address":"Sap : I-GJ-AKLV-ENB-0027<br\/>Loopback : 172.22.179.45<br\/>Up-Time : 1 day, 12:52:50.18","type":"ESR","status":"1","hoto":"1"},{"lat":"21.6121","lng":"73.0288","name":"AKLVAINPESR001","address":"Sap : I-GJ-AKLV-ENB-0030<br\/>Loopback : 172.22.182.60<br\/>Up-Time : 20:40:26.09","type":"ESR","status":"1","hoto":"1"},{"lat":"21.6216","lng":"73.0084","name":"AKLVAKLVESR029","address":"Sap : I-GJ-AKLV-ENB-0032<br\/>Loopback : 172.22.178.172<br\/>Up-Time : 2 days, 14:02:27.55","type":"ESR","status":"1","hoto":"1"},{"lat":"21.628","lng":"73.0141","name":"AKLVGDKLESR002","address":"Sap : I-GJ-AKLV-ENB-0033<br\/>Loopback : 172.22.178.105<br\/>Up-Time : 31 days, 7:47:14.00","type":"ESR","status":"1","hoto":"1"},{"lat":"21.621","lng":"73.0632","name":"AKLVAKLVESR012","address":"Sap : I-GJ-AKLV-ENB-0036<br\/>Loopback : 172.22.178.126<br\/> ","type":"ESR","status":"0","hoto":"1"},{"lat":"21.6447","lng":"73.0051","name":"AKLVNVBTESR001","address":"Sap : I-GJ-AKLV-ENB-0037<br\/>Loopback : 172.22.178.146<br\/>Up-Time : 2 days, 14:21:10.28","type":"ESR","status":"1","hoto":"1"},{"lat":"21.6209","lng":"73.0229","name":"AKLVAKLVESR006","address":"Sap : I-GJ-AKLV-ENB-0038<br\/>Loopback : 172.22.182.59<br\/>Up-Time : 2 days, 11:45:46.66","type":"ESR","status":"1","hoto":"1"},{"lat":"21.6151","lng":"73.011","name":"AKLVULCYESR001","address":"Sap : I-GJ-AKLV-ENB-0039<br\/>Loopback : 172.22.182.66<br\/>Up-Time : 3 days, 15:15:54.98","type":"ESR","status":"1","hoto":"1"},{"lat":"21.6136","lng":"73.0368","name":"AKLVGDCLESR002","address":"Sap : I-GJ-AKLV-ENB-0040<br\/>Loopback : 172.22.179.246<br\/>Up-Time : 30 days, 4:25:32.83","type":"ESR","status":"1","hoto":"1"},{"lat":"21.6149","lng":"73.0486","name":"AKLVGDCLESR001","address":"Sap : I-GJ-AKLV-ENB-0041<br\/>Loopback : 172.22.179.211<br\/>Up-Time : 52 days, 5:53:06.13","type":"ESR","status":"1","hoto":"1"},{"lat":"21.6056","lng":"73.0124","name":"AKLVUDYCESR001","address":"Sap : I-GJ-AKLV-ENB-0043<br\/>Loopback : 172.22.179.13<br\/>Up-Time : 6 days, 15:39:00.22","type":"ESR","status":"1","hoto":"1"},{"lat":"21.5986","lng":"73.0225","name":"AKLVAKLVESR007","address":"Sap : I-GJ-AKLV-ENB-0044<br\/>Loopback : 172.22.178.201<br\/>Up-Time : 7 days, 12:24:28.58","type":"ESR","status":"1","hoto":"1"},{"lat":"21.5942","lng":"73.0277","name":"AKLVKSMIESR001","address":"Sap : I-GJ-AKLV-ENB-0045<br\/>Loopback : 172.22.182.56<br\/>Up-Time : 1 day, 13:19:21.83","type":"ESR","status":"1","hoto":"1"},{"lat":"21.5839","lng":"73.0347","name":"AKLVAKLVESR027","address":"Sap : I-GJ-AKLV-ENB-0046<br\/>Loopback : 172.22.182.57<br\/>Up-Time : 15 days, 22:10:54.52","type":"ESR","status":"1","hoto":"1"},{"lat":"21.5792","lng":"73.0607","name":"VALAVALAESR004","address":"Sap : I-GJ-AKLV-ENB-0047<br\/>Loopback : 172.22.178.251<br\/>Up-Time : 2 days, 6:05:50.50","type":"ESR","status":"1","hoto":"1"},{"lat":"21.5771","lng":"73.0743","name":"VALAVALAESR003","address":"Sap : I-GJ-AKLV-ENB-0048<br\/>Loopback : 172.22.179.7<br\/>Up-Time : 29 days, 14:48:51.19","type":"ESR","status":"1","hoto":"1"},{"lat":"21.5942","lng":"73.0103","name":"AKLVKPDRESR001","address":"Sap : I-GJ-AKLV-ENB-0049<br\/>Loopback : 172.22.182.58<br\/>Up-Time : 14 days, 14:54:05.98","type":"ESR","status":"1","hoto":"1"},{"lat":"21.5925","lng":"72.995","name":"AKLVPNLIESR005","address":"Sap : I-GJ-AKLV-ENB-0050<br\/>Loopback : 172.22.179.213<br\/>Up-Time : 18 days, 20:49:11.91","type":"ESR","status":"1","hoto":"1"},{"lat":"21.5722","lng":"73.0103","name":"AKLVAKLVESR020","address":"Sap : I-GJ-AKLV-ENB-0051<br\/>Loopback : 172.22.182.67<br\/>Up-Time : 29 days, 14:00:45.06","type":"ESR","status":"1","hoto":"1"},{"lat":"21.6313","lng":"72.993","name":"AKLVAKLRESR003","address":"Sap : I-GJ-AKLV-ENB-0053<br\/>Loopback : 172.22.178.195<br\/>Up-Time : 41 days, 16:16:42.66","type":"ESR","status":"1","hoto":"1"},{"lat":"21.6352","lng":"73.0133","name":"AKLVOGTWESR001","address":"Sap : I-GJ-AKLV-ENB-0057<br\/>Loopback : 172.22.178.145<br\/>Up-Time : 14:49:05.86","type":"ESR","status":"1","hoto":"1"},{"lat":"21.6544","lng":"73.0233","name":"AKLVAKLVESR019","address":"Sap : I-GJ-AKLV-ENB-0065<br\/>Loopback : 172.22.178.246<br\/>Up-Time : 6:44:45.56","type":"ESR","status":"1","hoto":"1"},{"lat":"21.6251","lng":"73.0362","name":"AKLVAKLVESR026","address":"Sap : I-GJ-AKLV-ENB-0069<br\/>Loopback : 172.22.178.106<br\/>Up-Time : 2 days, 15:44:52.82","type":"ESR","status":"1","hoto":"1"},{"lat":"21.6344","lng":"73.0584","name":"AKLVAKLVESR001","address":"Sap : I-GJ-AKLV-ENB-6000<br\/>Loopback : 172.22.178.223<br\/>Up-Time : 3:20:34.20","type":"ESR","status":"1","hoto":"1"},{"lat":"21.6343","lng":"73.0234","name":"AKLVGDKLESR001","address":"Sap : I-GJ-AKLV-ENB-6001<br\/>Loopback : 172.22.178.187<br\/>Up-Time : 5 days, 11:35:53.57","type":"ESR","status":"1","hoto":"1"},{"lat":"21.6339","lng":"72.9897","name":"AKLVGYBZESR001","address":"Sap : I-GJ-AKLV-ENB-6002<br\/>Loopback : 172.22.182.50<br\/>Up-Time : 2 days, 19:29:22.03","type":"ESR","status":"1","hoto":"1"},{"lat":"21.6194","lng":"73.0336","name":"AKLVNCHMESR001","address":"Sap : I-GJ-AKLV-ENB-6003<br\/>Loopback : 172.22.178.108<br\/>Up-Time : 9:43:51.86","type":"ESR","status":"1","hoto":"1"},{"lat":"21.6295","lng":"72.9963","name":"AKLVAKLRESR001","address":"Sap : I-GJ-AKLV-ENB-6004<br\/>Loopback : 172.22.178.110<br\/>Up-Time : 55 days, 5:19:00.35","type":"ESR","status":"1","hoto":"1"},{"lat":"21.6113","lng":"73.0185","name":"AKLVAKLVESR002","address":"Sap : I-GJ-AKLV-ENB-6005<br\/>Loopback : 172.22.182.61<br\/>Up-Time : 19:46:58.97","type":"ESR","status":"1","hoto":"1"},{"lat":"21.6263","lng":"73.0032","name":"AKLVKRJNESR001","address":"Sap : I-GJ-AKLV-ENB-6006<br\/>Loopback : 172.22.182.51<br\/>Up-Time : 58 days, 16:57:51.09","type":"ESR","status":"1","hoto":"1"},{"lat":"21.64","lng":"73.0006","name":"AKLVNVBRESR001","address":"Sap : I-GJ-AKLV-ENB-6007<br\/>Loopback : 172.22.178.156<br\/>Up-Time : 4 days, 22:14:15.59","type":"ESR","status":"1","hoto":"1"},{"lat":"21.6346","lng":"73.0424","name":"AKLVMRNGESR001","address":"Sap : I-GJ-AKLV-ENB-6009<br\/>Loopback : 172.22.179.130<br\/>Up-Time : 14:48:38.17","type":"ESR","status":"1","hoto":"1"},{"lat":"21.6485","lng":"72.9761","name":"AKLVAKLVESR003","address":"Sap : I-GJ-AKLV-ENB-6012<br\/>Loopback : 172.22.179.72<br\/>Up-Time : 16:15:18.26","type":"ESR","status":"1","hoto":"1"},{"lat":"21.5467","lng":"73.0098","name":"AKLVAKLVESR015","address":"Sap : I-GJ-AKLV-ENB-6013<br\/>Loopback : 172.22.182.190<br\/>Up-Time : 28 days, 12:21:57.08","type":"ESR","status":"1","hoto":"1"},{"lat":"21.6784","lng":"73.0668","name":"AKLVAKLVESR004","address":"Sap : I-GJ-AKLV-ENB-6014<br\/>Loopback : 172.22.179.59<br\/>Up-Time : 29 days, 21:11:45.71","type":"ESR","status":"1","hoto":"1"},{"lat":"21.5637","lng":"72.9895","name":"AKLVPNLIESR001","address":"Sap : I-GJ-AKLV-ENB-6015<br\/>Loopback : 172.22.182.54<br\/>Up-Time : 61 days, 7:25:02.41","type":"ESR","status":"1","hoto":"1"},{"lat":"21.6016","lng":"73.0199","name":"AKLVAKLVESR028","address":"Sap : I-GJ-AKLV-ENB-I002<br\/>Loopback : 172.22.178.221<br\/>Up-Time : 5 days, 16:29:47.14","type":"ESR","status":"1","hoto":"1"},{"lat":"21.6574","lng":"73.0305","name":"AKLVAKLVESR016","address":"Sap : I-GJ-AKLV-ENB-V001<br\/>Loopback : 172.22.179.104<br\/>Up-Time : 52 days, 5:57:06.52","type":"ESR","status":"1","hoto":"1"},{"lat":"21.624","lng":"73.0216","name":"AKLVAKLVESR017","address":"Sap : I-GJ-AKLV-ENB-V003<br\/>Loopback : 172.22.178.107<br\/>Up-Time : 5 days, 15:51:38.31","type":"ESR","status":"1","hoto":"1"},{"lat":"21.6374","lng":"72.9838","name":"AKLVSRKTESR001","address":"Sap : I-GJ-AKLV-ENB-V005<br\/>Loopback : 172.22.179.71<br\/>Up-Time : 45 days, 5:46:15.32","type":"ESR","status":"1","hoto":"1"},{"lat":"23.0468","lng":"72.5268","name":"AMBDJSBWPAR003","address":"Sap : I-GJ-AMBD-AG2-0001<br\/>Loopback : 172.16.34.2<br\/>Up-Time : ","type":"PAR","status":"1","hoto":"1"},{"lat":"22.9919","lng":"72.6308","name":"AMBDNNSLAAR001","address":"Sap : I-GJ-AMBD-AG2-0002<br\/>Loopback : 49.44.1.208<br\/>Up-Time : 72 days, 5:04:46.54","type":"AAR","status":"1","hoto":"0"},{"lat":"23.1195","lng":"72.5814","name":"AMBDAJVEAAR001","address":"Sap : I-GJ-AMBD-AG2-0003<br\/>Loopback : 49.44.1.206<br\/>Up-Time : 34 days, 21:59:55.93","type":"AAR","status":"1","hoto":"0"},{"lat":"23.2016","lng":"72.6146","name":"GDGRVSNHAAR001","address":"Sap : I-GJ-AMBD-AG2-0006<br\/>Loopback : 49.44.3.67<br\/>Up-Time : 39 days, 12:45:12.10","type":"AAR","status":"1","hoto":"0"},{"lat":"23.2322","lng":"72.6687","name":"GDGRAVPSAAR001","address":"Sap : I-GJ-AMBD-AG2-0007<br\/>Loopback : 49.44.3.66<br\/>Up-Time : 69 days, 3:29:25.64","type":"AAR","status":"1","hoto":"0"},{"lat":"23.0452","lng":"72.5877","name":"AMBDOANNAAR001","address":"Sap : I-GJ-AMBD-AG2-0008<br\/>Loopback : 49.44.1.209<br\/>Up-Time : 70 days, 4:59:50.62","type":"AAR","status":"1","hoto":"0"},{"lat":"23.0589","lng":"72.5911","name":"AMBDPLARESR001","address":"Sap : I-GJ-AMBD-ENB-0004<br\/>Loopback : 172.22.224.80<br\/>Up-Time : 19 days, 17:02:17.16","type":"ESR","status":"1","hoto":"1"},{"lat":"23.0713","lng":"72.5771","name":"AMBDGYTKESR001","address":"Sap : I-GJ-AMBD-ENB-0005<br\/>Loopback : 172.22.232.196<br\/>Up-Time : 38 days, 7:38:47.51","type":"ESR","status":"1","hoto":"1"},{"lat":"22.9461","lng":"72.6274","name":"AMBDVTVAESR007","address":"Sap : I-GJ-AMBD-ENB-0011<br\/>Loopback : 172.22.230.26<br\/>Up-Time : 46 days, 13:55:14.67","type":"ESR","status":"1","hoto":"1"},{"lat":"22.9517","lng":"72.6282","name":"AMBDVTVAESR002","address":"Sap : I-GJ-AMBD-ENB-0014<br\/>Loopback : 172.22.224.127<br\/>Up-Time : 63 days, 3:34:47.92","type":"ESR","status":"1","hoto":"1"},{"lat":"22.9711","lng":"72.6054","name":"AMBDPRSRESR001","address":"Sap : I-GJ-AMBD-ENB-0018<br\/>Loopback : 172.22.225.155<br\/>Up-Time : 62 days, 2:52:24.37","type":"ESR","status":"1","hoto":"1"},{"lat":"23.092","lng":"72.5391","name":"AMBDJGTPESR002","address":"Sap : I-GJ-AMBD-ENB-0021<br\/>Loopback : 172.22.224.207<br\/>Up-Time : 6 days, 19:06:30.24","type":"ESR","status":"1","hoto":"1"},{"lat":"23.0853","lng":"72.5852","name":"AMBDPRWLESR001","address":"Sap : I-GJ-AMBD-ENB-0024<br\/>Loopback : 172.22.224.161<br\/>Up-Time : 34 days, 15:27:35.76","type":"ESR","status":"1","hoto":"1"},{"lat":"23.08","lng":"72.5892","name":"AMBDSDCHESR002","address":"Sap : I-GJ-AMBD-ENB-0026<br\/>Loopback : 172.22.236.103<br\/>Up-Time : 41 days, 4:58:35.43","type":"ESR","status":"1","hoto":"1"},{"lat":"23.042","lng":"72.5794","name":"AMBDSKTRESR001","address":"Sap : I-GJ-AMBD-ENB-0028<br\/>Loopback : 172.22.225.28<br\/>Up-Time : 45 days, 3:21:46.36","type":"ESR","status":"1","hoto":"1"},{"lat":"23.101","lng":"72.5918","name":"AMBDRCHDESR002","address":"Sap : I-GJ-AMBD-ENB-0032<br\/>Loopback : 172.22.224.156<br\/>Up-Time : 9 days, 20:33:00.77","type":"ESR","status":"1","hoto":"1"},{"lat":"23.0199","lng":"72.6192","name":"AMBDSHDHESR001","address":"Sap : I-GJ-AMBD-ENB-0035<br\/>Loopback : 172.22.225.68<br\/>Up-Time : 45 days, 7:07:10.43","type":"ESR","status":"1","hoto":"1"},{"lat":"23.0149","lng":"72.6193","name":"AMBDSNTGESR001","address":"Sap : I-GJ-AMBD-ENB-0036<br\/>Loopback : 172.22.224.236<br\/>Up-Time : 62 days, 4:30:13.40","type":"ESR","status":"1","hoto":"1"},{"lat":"23.0801","lng":"72.6182","name":"AMBDHNSLESR003","address":"Sap : I-GJ-AMBD-ENB-0039<br\/>Loopback : 172.22.234.88<br\/>Up-Time : 41 days, 5:38:38.13","type":"ESR","status":"1","hoto":"1"},{"lat":"23.0855","lng":"72.6248","name":"AMBDHNSLESR004","address":"Sap : I-GJ-AMBD-ENB-0040<br\/>Loopback : 172.22.234.146<br\/>Up-Time : 41 days, 5:35:08.71","type":"ESR","status":"1","hoto":"1"},{"lat":"23.0817","lng":"72.6241","name":"AMBDHNSLESR002","address":"Sap : I-GJ-AMBD-ENB-0041<br\/>Loopback : 172.22.233.38<br\/>Up-Time : 41 days, 6:06:25.76","type":"ESR","status":"1","hoto":"1"},{"lat":"22.9549","lng":"72.6112","name":"AMBDASLLESR003","address":"Sap : I-GJ-AMBD-ENB-0042<br\/>Loopback : 172.22.224.136<br\/>Up-Time : 63 days, 2:02:09.96","type":"ESR","status":"1","hoto":"1"},{"lat":"23.0026","lng":"72.5125","name":"AMBDMKRBESR004","address":"Sap : I-GJ-AMBD-ENB-0044<br\/>Loopback : 172.22.236.102<br\/>Up-Time : 41 days, 4:59:41.05","type":"ESR","status":"1","hoto":"1"},{"lat":"23.0868","lng":"72.6509","name":"AMBDNBLNESR004","address":"Sap : I-GJ-AMBD-ENB-0047<br\/>Loopback : 172.22.232.163<br\/>Up-Time : 5 days, 22:16:15.26","type":"ESR","status":"1","hoto":"1"},{"lat":"23.0222","lng":"72.6123","name":"AMBDSHRZESR001","address":"Sap : I-GJ-AMBD-ENB-0049<br\/>Loopback : 172.22.225.67<br\/>Up-Time : 6 days, 9:41:36.28","type":"ESR","status":"1","hoto":"1"},{"lat":"23.084","lng":"72.5954","name":"AMBDSRPDESR001","address":"Sap : I-GJ-AMBD-ENB-0052<br\/>Loopback : 172.22.224.150<br\/>Up-Time : 45 days, 6:21:09.28","type":"ESR","status":"1","hoto":"1"},{"lat":"23.0449","lng":"72.5033","name":"AMBDPRLCESR004","address":"Sap : I-GJ-AMBD-ENB-0094<br\/>Loopback : 172.22.229.77<br\/>Up-Time : 63 days, 4:27:53.11","type":"ESR","status":"1","hoto":"1"},{"lat":"23.0578","lng":"72.5107","name":"AMBDHBTPESR002","address":"Sap : I-GJ-AMBD-ENB-0096<br\/>Loopback : 172.22.224.182<br\/>Up-Time : 45 days, 5:22:05.74","type":"ESR","status":"1","hoto":"1"},{"lat":"23.0625","lng":"72.5179","name":"AMBDHBTPESR003","address":"Sap : I-GJ-AMBD-ENB-0098<br\/>Loopback : 172.22.224.181<br\/>Up-Time : 45 days, 5:22:31.49","type":"ESR","status":"1","hoto":"1"},{"lat":"23.0677","lng":"72.5119","name":"AMBDSOLAESR001","address":"Sap : I-GJ-AMBD-ENB-0099<br\/>Loopback : 172.22.224.211<br\/>Up-Time : 63 days, 2:46:55.01","type":"ESR","status":"1","hoto":"1"},{"lat":"23.0479","lng":"72.4952","name":"AMBDPRLCESR001","address":"Sap : I-GJ-AMBD-ENB-0100<br\/>Loopback : 172.22.224.184<br\/>Up-Time : 45 days, 5:21:55.77","type":"ESR","status":"1","hoto":"1"},{"lat":"23.0841","lng":"72.5193","name":"AMBDGOTAESR004","address":"Sap : I-GJ-AMBD-ENB-0105<br\/>Loopback : 172.22.224.206<br\/>Up-Time : 59 days, 11:04:33.76","type":"ESR","status":"1","hoto":"1"},{"lat":"23.0834","lng":"72.4926","name":"AMBDAMBDESR007","address":"Sap : I-GJ-AMBD-ENB-0106<br\/>Loopback : 172.22.227.96<br\/>Up-Time : 45 days, 7:06:19.16","type":"ESR","status":"1","hoto":"1"},{"lat":"23.081","lng":"72.4982","name":"AMBDGOTAESR002","address":"Sap : I-GJ-AMBD-ENB-0107<br\/>Loopback : 172.22.224.210<br\/>Up-Time : 52 days, 14:59:17.92","type":"ESR","status":"1","hoto":"1"},{"lat":"23.0258","lng":"72.4692","name":"AMBDBPPLESR003","address":"Sap : I-GJ-AMBD-ENB-0110<br\/>Loopback : 172.22.224.179<br\/>Up-Time : 45 days, 5:17:33.60","type":"ESR","status":"1","hoto":"1"},{"lat":"23.0398","lng":"72.4684","name":"AMBDBPPLESR006","address":"Sap : I-GJ-AMBD-ENB-0114<br\/>Loopback : 172.22.224.186<br\/>Up-Time : 37 days, 17:38:05.70","type":"ESR","status":"1","hoto":"1"},{"lat":"23.025","lng":"72.4544","name":"AMBDBPPLESR007","address":"Sap : I-GJ-AMBD-ENB-0115<br\/>Loopback : 172.22.224.197<br\/>Up-Time : 45 days, 5:37:57.63","type":"ESR","status":"1","hoto":"1"},{"lat":"23.1162","lng":"72.601","name":"AMBDSBRMESR001","address":"Sap : I-GJ-AMBD-ENB-0120<br\/>Loopback : 172.22.224.155<br\/>Up-Time : 45 days, 6:18:26.64","type":"ESR","status":"1","hoto":"1"},{"lat":"23.1058","lng":"72.6072","name":"AMBDCDHDESR001","address":"Sap : I-GJ-AMBD-ENB-0122<br\/>Loopback : 172.22.224.154<br\/>Up-Time : 45 days, 6:19:32.00","type":"ESR","status":"1","hoto":"1"},{"lat":"23.117","lng":"72.6308","name":"AMBDAMYRESR002","address":"Sap : I-GJ-AMBD-ENB-0127<br\/>Loopback : 172.22.226.136<br\/>Up-Time : 45 days, 4:04:47.25","type":"ESR","status":"1","hoto":"1"},{"lat":"23.0374","lng":"72.5486","name":"AMBDUNVTESR001","address":"Sap : I-GJ-AMBD-ENB-0129<br\/>Loopback : 172.22.225.207<br\/>Up-Time : 45 days, 6:41:46.90","type":"ESR","status":"1","hoto":"1"},{"lat":"23.0644","lng":"72.5961","name":"AMBDNRMCESR001","address":"Sap : I-GJ-AMBD-ENB-0133<br\/>Loopback : 172.22.235.202<br\/>Up-Time : 41 days, 5:45:50.99","type":"ESR","status":"1","hoto":"1"},{"lat":"23.0411","lng":"72.665","name":"AMBDNKOLESR007","address":"Sap : I-GJ-AMBD-ENB-0134<br\/>Loopback : 172.22.230.56<br\/>Up-Time : 45 days, 4:43:50.73","type":"ESR","status":"1","hoto":"1"},{"lat":"23.0576","lng":"72.665","name":"AMBDNRDAESR003","address":"Sap : I-GJ-AMBD-ENB-0136<br\/>Loopback : 172.22.230.49<br\/>Up-Time : 45 days, 4:54:56.28","type":"ESR","status":"1","hoto":"1"},{"lat":"22.9864","lng":"72.6491","name":"AMBDVSTRESR003","address":"Sap : I-GJ-AMBD-ENB-0139<br\/>Loopback : 172.22.224.255<br\/>Up-Time : 40 days, 5:12:56.50","type":"ESR","status":"1","hoto":"1"},{"lat":"23.1699","lng":"72.6397","name":"AMBDURJNESR001","address":"Sap : I-GJ-AMBD-ENB-0142<br\/>Loopback : 172.22.224.69<br\/>Up-Time : 30 days, 16:55:38.97","type":"ESR","status":"1","hoto":"1"},{"lat":"23.1805","lng":"72.6461","name":"AMBDURJNESR002","address":"Sap : I-GJ-AMBD-ENB-0144<br\/>Loopback : 172.22.224.227<br\/>Up-Time : 13:26:03.50","type":"ESR","status":"1","hoto":"1"},{"lat":"23.0951","lng":"72.5595","name":"AMBDHRSNESR001","address":"Sap : I-GJ-AMBD-ENB-0147<br\/>Loopback : 172.22.224.107<br\/>Up-Time : 62 days, 2:50:04.01","type":"ESR","status":"1","hoto":"1"},{"lat":"23.039","lng":"72.6088","name":"AMBDBKTNESR001","address":"Sap : I-GJ-AMBD-ENB-0150<br\/>Loopback : 172.22.225.62<br\/>Up-Time : 62 days, 4:29:02.53","type":"ESR","status":"1","hoto":"1"},{"lat":"23.0819","lng":"72.532","name":"AMBDAVDPESR001","address":"Sap : I-GJ-AMBD-ENB-0151<br\/>Loopback : 172.22.224.204<br\/>Up-Time : 59 days, 17:42:54.29","type":"ESR","status":"1","hoto":"1"},{"lat":"23.0909","lng":"72.5449","name":"AMBDGJRJESR001","address":"Sap : I-GJ-AMBD-ENB-0153<br\/>Loopback : 172.22.224.203<br\/>Up-Time : 6 days, 18:38:25.68","type":"ESR","status":"1","hoto":"1"},{"lat":"23.1021","lng":"72.6628","name":"AMBDKTWRESR002","address":"Sap : I-GJ-AMBD-ENB-0156<br\/>Loopback : 172.22.234.28<br\/>Up-Time : 30 days, 19:00:43.89","type":"ESR","status":"1","hoto":"1"},{"lat":"23.0088","lng":"72.5115","name":"AMBDRNGDESR001","address":"Sap : I-GJ-AMBD-ENB-0160<br\/>Loopback : 172.22.226.133<br\/>Up-Time : 22 days, 3:21:14.31","type":"ESR","status":"1","hoto":"1"},{"lat":"22.9724","lng":"72.4977","name":"AMBDNMNNESR006","address":"Sap : I-GJ-AMBD-ENB-0165<br\/>Loopback : 172.22.225.80<br\/>Up-Time : 27 days, 20:23:25.78","type":"ESR","status":"1","hoto":"1"},{"lat":"23.0951","lng":"72.5857","name":"AMBDRMNAESR001","address":"Sap : I-GJ-AMBD-ENB-0167<br\/>Loopback : 172.22.224.159<br\/>Up-Time : 34 days, 0:28:16.05","type":"ESR","status":"1","hoto":"1"},{"lat":"23.0802","lng":"72.5814","name":"AMBDPLCAESR001","address":"Sap : I-GJ-AMBD-ENB-0175<br\/>Loopback : 172.22.227.95<br\/>Up-Time : 45 days, 6:47:25.79","type":"ESR","status":"1","hoto":"1"},{"lat":"23.1194","lng":"72.6133","name":"AMBDCDHDESR002","address":"Sap : I-GJ-AMBD-ENB-0179<br\/>Loopback : 172.22.224.224<br\/>Up-Time : 9 days, 1:48:02.62","type":"ESR","status":"1","hoto":"1"},{"lat":"23.0709","lng":"72.6771","name":"AMBDBLSYESR002","address":"Sap : I-GJ-AMBD-ENB-0183<br\/>Loopback : 172.22.226.160<br\/>Up-Time : 52 days, 21:37:15.29","type":"ESR","status":"1","hoto":"1"},{"lat":"22.9629","lng":"72.5915","name":"AMBDASLLESR004","address":"Sap : I-GJ-AMBD-ENB-0189<br\/>Loopback : 172.22.224.133<br\/>Up-Time : 27 days, 16:24:50.22","type":"ESR","status":"1","hoto":"1"},{"lat":"22.9538","lng":"72.589","name":"AMBDLMBHESR001","address":"Sap : I-GJ-AMBD-ENB-0191<br\/>Loopback : 172.22.224.132<br\/>Up-Time : 14 days, 21:13:36.80","type":"ESR","status":"1","hoto":"1"},{"lat":"22.9678","lng":"72.5715","name":"AMBDNROLESR003","address":"Sap : I-GJ-AMBD-ENB-0194<br\/>Loopback : 172.22.224.129<br\/>Up-Time : 45 days, 4:49:39.66","type":"ESR","status":"1","hoto":"1"},{"lat":"22.9894","lng":"72.5731","name":"AMBDCHNLESR004","address":"Sap : I-GJ-AMBD-ENB-0196<br\/>Loopback : 172.22.226.29<br\/>Up-Time : 62 days, 5:33:10.08","type":"ESR","status":"1","hoto":"1"},{"lat":"22.9981","lng":"72.5729","name":"AMBDSWGFESR001","address":"Sap : I-GJ-AMBD-ENB-0197<br\/>Loopback : 172.22.224.7<br\/>Up-Time : 30 days, 18:53:36.41","type":"ESR","status":"1","hoto":"1"},{"lat":"22.9634","lng":"72.6501","name":"AMBDVTVAESR005","address":"Sap : I-GJ-AMBD-ENB-0199<br\/>Loopback : 172.22.224.114<br\/>Up-Time : 61 days, 4:42:40.29","type":"ESR","status":"1","hoto":"1"},{"lat":"23.0203","lng":"72.631","name":"AMBDRKHLESR002","address":"Sap : I-GJ-AMBD-ENB-0206<br\/>Loopback : 172.22.225.5<br\/>Up-Time : 45 days, 2:44:34.31","type":"ESR","status":"1","hoto":"1"},{"lat":"23.0369","lng":"72.6847","name":"AMBDKTWDESR002","address":"Sap : I-GJ-AMBD-ENB-0215<br\/>Loopback : 172.22.230.168<br\/>Up-Time : 58 days, 8:26:45.77","type":"ESR","status":"1","hoto":"1"},{"lat":"22.975","lng":"72.4921","name":"AMBDNMNNESR002","address":"Sap : I-GJ-AMBD-ENB-0221<br\/>Loopback : 172.22.225.79<br\/>Up-Time : 20 days, 15:44:38.50","type":"ESR","status":"1","hoto":"1"},{"lat":"22.9143","lng":"72.6002","name":"AMBDASLIESR003","address":"Sap : I-GJ-AMBD-ENB-0223<br\/>Loopback : 172.22.224.146<br\/>Up-Time : 16 days, 14:00:05.61","type":"ESR","status":"1","hoto":"1"},{"lat":"22.9065","lng":"72.5935","name":"AMBDAMBDESR008","address":"Sap : I-GJ-AMBD-ENB-0224<br\/>Loopback : 172.22.234.20<br\/>Up-Time : 21:07:22.04","type":"ESR","status":"1","hoto":"1"},{"lat":"22.9208","lng":"72.5946","name":"AMBDASLIESR002","address":"Sap : I-GJ-AMBD-ENB-0225<br\/>Loopback : 172.22.224.144<br\/>Up-Time : 58 days, 5:26:57.28","type":"ESR","status":"1","hoto":"1"},{"lat":"23.045","lng":"72.5894","name":"AMBDOANNESR002","address":"Sap : I-GJ-AMBD-ENB-0226<br\/>Loopback : 172.22.224.60<br\/>Up-Time : 25 days, 23:50:01.16","type":"ESR","status":"1","hoto":"1"},{"lat":"22.9481","lng":"72.5844","name":"AMBDLMBHESR002","address":"Sap : I-GJ-AMBD-ENB-0228<br\/>Loopback : 172.22.224.131<br\/>Up-Time : 45 days, 5:59:35.25","type":"ESR","status":"1","hoto":"1"},{"lat":"23.0399","lng":"72.6171","name":"AMBDAMDPESR002","address":"Sap : I-GJ-AMBD-ENB-0232<br\/>Loopback : 172.22.225.192<br\/>Up-Time : 60 days, 7:24:50.20","type":"ESR","status":"1","hoto":"1"},{"lat":"23.0733","lng":"72.5921","name":"AMBDKSHRESR001","address":"Sap : I-GJ-AMBD-ENB-0235<br\/>Loopback : 172.22.226.182<br\/>Up-Time : 38 days, 7:42:35.05","type":"ESR","status":"1","hoto":"1"},{"lat":"23.0345","lng":"72.4997","name":"AMBDPRLCESR002","address":"Sap : I-GJ-AMBD-ENB-0237<br\/>Loopback : 172.22.224.194<br\/>Up-Time : 29 days, 17:07:32.48","type":"ESR","status":"1","hoto":"1"},{"lat":"22.9299","lng":"72.5958","name":"AMBDASLLESR001","address":"Sap : I-GJ-AMBD-ENB-0238<br\/>Loopback : 172.22.224.143<br\/>Up-Time : 41 days, 18:38:38.76","type":"ESR","status":"1","hoto":"1"},{"lat":"22.9472","lng":"72.6491","name":"AMBDVNBBESR001","address":"Sap : I-GJ-AMBD-ENB-0244<br\/>Loopback : 172.22.229.68<br\/>Up-Time : 12 days, 19:59:11.37","type":"ESR","status":"1","hoto":"1"},{"lat":"23.0198","lng":"72.5903","name":"AMBDRPRCESR002","address":"Sap : I-GJ-AMBD-ENB-0252<br\/>Loopback : 172.22.233.216<br\/>Up-Time : 58 days, 6:55:33.86","type":"ESR","status":"1","hoto":"1"},{"lat":"23.1983","lng":"72.5792","name":"GDGRGDGRESR004","address":"Sap : I-GJ-AMBD-ENB-0254<br\/>Loopback : 172.22.227.42<br\/>Up-Time : 45 days, 5:11:25.95","type":"ESR","status":"1","hoto":"1"},{"lat":"23.0265","lng":"72.5793","name":"AMBDLDWJESR001","address":"Sap : I-GJ-AMBD-ENB-0255<br\/>Loopback : 172.22.225.32<br\/>Up-Time : 34 days, 18:10:53.85","type":"ESR","status":"1","hoto":"1"},{"lat":"23.0303","lng":"72.5851","name":"AMBDGKNTESR003","address":"Sap : I-GJ-AMBD-ENB-0256<br\/>Loopback : 172.22.233.119<br\/>Up-Time : 39 days, 5:50:25.87","type":"ESR","status":"1","hoto":"1"},{"lat":"23.031","lng":"72.5769","name":"AMBDSHPUESR002","address":"Sap : I-GJ-AMBD-ENB-0266<br\/>Loopback : 172.22.225.34<br\/>Up-Time : 45 days, 3:54:17.70","type":"ESR","status":"1","hoto":"1"},{"lat":"23.0351","lng":"72.5768","name":"AMBDSHPUESR003","address":"Sap : I-GJ-AMBD-ENB-0271<br\/>Loopback : 172.22.225.26<br\/>Up-Time : 28 days, 15:32:22.33","type":"ESR","status":"1","hoto":"1"},{"lat":"23.0379","lng":"72.5772","name":"AMBDSHPUESR001","address":"Sap : I-GJ-AMBD-ENB-0272<br\/>Loopback : 172.22.225.27<br\/>Up-Time : 2 days, 16:44:23.35","type":"ESR","status":"1","hoto":"1"},{"lat":"23.0566","lng":"72.6316","name":"AMBDMNKNESR001","address":"Sap : I-GJ-AMBD-ENB-0273<br\/>Loopback : 172.22.232.164<br\/>Up-Time : 41 days, 4:34:00.35","type":"ESR","status":"1","hoto":"1"},{"lat":"23.0596","lng":"72.635","name":"AMBDSHTCESR001","address":"Sap : I-GJ-AMBD-ENB-0274<br\/>Loopback : 172.22.236.101<br\/>Up-Time : 41 days, 4:54:15.62","type":"ESR","status":"1","hoto":"1"},{"lat":"23.0569","lng":"72.6278","name":"AMBDMNKNESR002","address":"Sap : I-GJ-AMBD-ENB-0275<br\/>Loopback : 172.22.232.165<br\/>Up-Time : 41 days, 4:32:35.48","type":"ESR","status":"1","hoto":"1"},{"lat":"23.0639","lng":"72.6308","name":"AMBDGYTCESR002","address":"Sap : I-GJ-AMBD-ENB-0277<br\/>Loopback : 172.22.233.34<br\/>Up-Time : 14 days, 13:43:05.63","type":"ESR","status":"1","hoto":"1"},{"lat":"23.0157","lng":"72.609","name":"AMBDSRWCESR001","address":"Sap : I-GJ-AMBD-ENB-0278<br\/>Loopback : 172.22.230.28<br\/>Up-Time : 33 days, 16:50:17.90","type":"ESR","status":"1","hoto":"1"},{"lat":"23.0131","lng":"72.6127","name":"AMBDAMDSESR001","address":"Sap : I-GJ-AMBD-ENB-0280<br\/>Loopback : 172.22.224.230<br\/>Up-Time : 62 days, 2:01:06.27","type":"ESR","status":"1","hoto":"1"},{"lat":"23.0184","lng":"72.6069","name":"AMBDGMTRESR001","address":"Sap : I-GJ-AMBD-ENB-0281<br\/>Loopback : 172.22.224.239<br\/>Up-Time : 8 days, 17:04:03.93","type":"ESR","status":"1","hoto":"1"},{"lat":"22.9832","lng":"72.5999","name":"AMBDASHAESR001","address":"Sap : I-GJ-AMBD-ENB-0282<br\/>Loopback : 172.22.226.25<br\/>Up-Time : 60 days, 6:07:03.56","type":"ESR","status":"1","hoto":"1"},{"lat":"22.9805","lng":"72.5055","name":"AMBDNMNNESR003","address":"Sap : I-GJ-AMBD-ENB-0286<br\/>Loopback : 172.22.225.81<br\/>Up-Time : 52 days, 11:37:03.98","type":"ESR","status":"1","hoto":"1"},{"lat":"22.9707","lng":"72.6099","name":"AMBDSMRDESR001","address":"Sap : I-GJ-AMBD-ENB-0288<br\/>Loopback : 172.22.225.154<br\/>Up-Time : 19 days, 1:44:12.34","type":"ESR","status":"1","hoto":"1"},{"lat":"23.0818","lng":"72.5479","name":"AMBDPKSNESR001","address":"Sap : I-GJ-AMBD-ENB-0290<br\/>Loopback : 172.22.224.215<br\/>Up-Time : 45 days, 4:12:24.00","type":"ESR","status":"1","hoto":"1"},{"lat":"23.0813","lng":"72.5434","name":"AMBDSYNVESR001","address":"Sap : I-GJ-AMBD-ENB-0291<br\/>Loopback : 172.22.224.214<br\/>Up-Time : 4 days, 16:09:37.56","type":"ESR","status":"1","hoto":"1"},{"lat":"23.0734","lng":"72.6411","name":"AMBDKBERESR006","address":"Sap : I-GJ-AMBD-ENB-0292<br\/>Loopback : 172.22.235.142<br\/>Up-Time : 1 day, 19:06:11.83","type":"ESR","status":"1","hoto":"1"},{"lat":"23.0345","lng":"72.6089","name":"AMBDJGVNESR001","address":"Sap : I-GJ-AMBD-ENB-0296<br\/>Loopback : 172.22.228.202<br\/>Up-Time : 62 days, 4:27:58.25","type":"ESR","status":"1","hoto":"1"},{"lat":"23.0276","lng":"72.6105","name":"AMBDSRNPESR001","address":"Sap : I-GJ-AMBD-ENB-0297<br\/>Loopback : 172.22.225.65<br\/>Up-Time : 19 days, 11:07:35.85","type":"ESR","status":"1","hoto":"1"},{"lat":"23.071","lng":"72.6564","name":"AMBDNVNRESR006","address":"Sap : I-GJ-AMBD-ENB-0300<br\/>Loopback : 172.22.226.157<br\/>Up-Time : 61 days, 7:22:26.69","type":"ESR","status":"1","hoto":"1"},{"lat":"23.0368","lng":"72.6123","name":"AMBDBKTNESR002","address":"Sap : I-GJ-AMBD-ENB-0301<br\/>Loopback : 172.22.225.57<br\/>Up-Time : 61 days, 7:20:25.12","type":"ESR","status":"1","hoto":"1"},{"lat":"23.095","lng":"72.5956","name":"AMBDNRTGESR001","address":"Sap : I-GJ-AMBD-ENB-0303<br\/>Loopback : 172.22.224.147<br\/>Up-Time : 45 days, 6:08:59.53","type":"ESR","status":"1","hoto":"1"},{"lat":"23.0578","lng":"72.6421","name":"AMBDKUIAESR002","address":"Sap : I-GJ-AMBD-ENB-0306<br\/>Loopback : 172.22.232.75<br\/>Up-Time : 58 days, 7:03:16.70","type":"ESR","status":"1","hoto":"1"},{"lat":"22.9814","lng":"72.5944","name":"AMBDCHNLESR005","address":"Sap : I-GJ-AMBD-ENB-0307<br\/>Loopback : 172.22.226.22<br\/>Up-Time : 60 days, 1:34:59.21","type":"ESR","status":"1","hoto":"1"},{"lat":"23.0935","lng":"72.5984","name":"AMBDNRTGESR002","address":"Sap : I-GJ-AMBD-ENB-0308<br\/>Loopback : 172.22.224.152<br\/>Up-Time : 45 days, 6:19:37.90","type":"ESR","status":"1","hoto":"1"},{"lat":"23.0379","lng":"72.4604","name":"AMBDAMBDESR001","address":"Sap : I-GJ-AMBD-ENB-0309<br\/>Loopback : 172.22.224.187<br\/>Up-Time : 45 days, 5:25:24.08","type":"ESR","status":"1","hoto":"1"},{"lat":"23.0841","lng":"72.5803","name":"AMBDKMDNESR001","address":"Sap : I-GJ-AMBD-ENB-0310<br\/>Loopback : 172.22.224.101<br\/>Up-Time : 45 days, 4:29:30.58","type":"ESR","status":"1","hoto":"1"},{"lat":"23.0028","lng":"72.5748","name":"AMBDSWGFESR003","address":"Sap : I-GJ-AMBD-ENB-0311<br\/>Loopback : 172.22.225.244<br\/>Up-Time : 28 days, 18:35:30.35","type":"ESR","status":"1","hoto":"1"},{"lat":"23.0656","lng":"72.5582","name":"AMBDGYTAESR001","address":"Sap : I-GJ-AMBD-ENB-0314<br\/>Loopback : 172.22.225.126<br\/>Up-Time : 61 days, 5:13:11.19","type":"ESR","status":"1","hoto":"1"},{"lat":"23.0159","lng":"72.5627","name":"AMBDSHICESR001","address":"Sap : I-GJ-AMBD-ENB-0316<br\/>Loopback : 172.22.225.255<br\/>Up-Time : 40 days, 5:13:20.65","type":"ESR","status":"1","hoto":"1"},{"lat":"23.0167","lng":"72.5394","name":"AMBDSJNTESR001","address":"Sap : I-GJ-AMBD-ENB-0317<br\/>Loopback : 172.22.225.211<br\/>Up-Time : 45 days, 6:21:45.93","type":"ESR","status":"1","hoto":"1"},{"lat":"23.0227","lng":"72.5502","name":"AMBDPKVWESR001","address":"Sap : I-GJ-AMBD-ENB-0318<br\/>Loopback : 172.22.226.4<br\/>Up-Time : 45 days, 5:08:25.39","type":"ESR","status":"1","hoto":"1"},{"lat":"23.1096","lng":"72.5723","name":"AMBDYGINESR002","address":"Sap : I-GJ-AMBD-ENB-0323<br\/>Loopback : 172.22.226.142<br\/>Up-Time : 45 days, 3:55:53.89","type":"ESR","status":"1","hoto":"1"},{"lat":"22.9861","lng":"72.5948","name":"AMBDBGWGESR001","address":"Sap : I-GJ-AMBD-ENB-0324<br\/>Loopback : 172.22.226.23<br\/>Up-Time : 60 days, 6:07:04.49","type":"ESR","status":"1","hoto":"1"},{"lat":"23.0528","lng":"72.651","name":"AMBDNRDAESR001","address":"Sap : I-GJ-AMBD-ENB-0326<br\/>Loopback : 172.22.225.234<br\/>Up-Time : 63 days, 4:32:57.90","type":"ESR","status":"1","hoto":"1"},{"lat":"23.066","lng":"72.5336","name":"AMBDSRJBESR001","address":"Sap : I-GJ-AMBD-ENB-0331<br\/>Loopback : 172.22.226.184<br\/>Up-Time : 38 days, 7:43:17.80","type":"ESR","status":"1","hoto":"1"},{"lat":"23.07","lng":"72.538","name":"AMBDBGYDESR001","address":"Sap : I-GJ-AMBD-ENB-0332<br\/>Loopback : 172.22.229.80<br\/>Up-Time : 33 days, 17:16:14.90","type":"ESR","status":"1","hoto":"1"},{"lat":"23.1076","lng":"72.5655","name":"AMBDSDRNESR002","address":"Sap : I-GJ-AMBD-ENB-0339<br\/>Loopback : 172.22.224.30<br\/>Up-Time : 45 days, 3:25:59.62","type":"ESR","status":"1","hoto":"1"},{"lat":"23.0094","lng":"72.5299","name":"AMBDALKSESR001","address":"Sap : I-GJ-AMBD-ENB-0344<br\/>Loopback : 172.22.226.173<br\/>Up-Time : 45 days, 3:26:17.72","type":"ESR","status":"1","hoto":"1"},{"lat":"23.1081","lng":"72.5757","name":"AMBDSDRNESR001","address":"Sap : I-GJ-AMBD-ENB-0345<br\/>Loopback : 172.22.225.143<br\/>Up-Time : 45 days, 6:04:00.36","type":"ESR","status":"1","hoto":"1"},{"lat":"22.9651","lng":"72.6075","name":"AMBDVTVPESR001","address":"Sap : I-GJ-AMBD-ENB-0348<br\/>Loopback : 172.22.225.156<br\/>Up-Time : 61 days, 6:51:03.22","type":"ESR","status":"1","hoto":"1"},{"lat":"23.0611","lng":"72.5485","name":"AMBDKMCRESR001","address":"Sap : I-GJ-AMBD-ENB-0353<br\/>Loopback : 172.22.225.138<br\/>Up-Time : 45 days, 5:59:36.41","type":"ESR","status":"1","hoto":"1"},{"lat":"23.0672","lng":"72.5462","name":"AMBDURMSESR001","address":"Sap : I-GJ-AMBD-ENB-0354<br\/>Loopback : 172.22.225.135<br\/>Up-Time : 3 days, 17:03:38.26","type":"ESR","status":"1","hoto":"1"},{"lat":"23.028","lng":"72.5521","name":"AMBDVSUDESR001","address":"Sap : I-GJ-AMBD-ENB-0358<br\/>Loopback : 172.22.225.87<br\/>Up-Time : 38 days, 13:40:36.08","type":"ESR","status":"1","hoto":"1"},{"lat":"23.0177","lng":"72.5445","name":"AMBDNYJNESR001","address":"Sap : I-GJ-AMBD-ENB-0359<br\/>Loopback : 172.22.226.134<br\/>Up-Time : 30 days, 15:30:34.74","type":"ESR","status":"1","hoto":"1"},{"lat":"23.021","lng":"72.5135","name":"AMBDATRKESR001","address":"Sap : I-GJ-AMBD-ENB-0363<br\/>Loopback : 172.22.225.110<br\/>Up-Time : 38 days, 17:05:47.38","type":"ESR","status":"1","hoto":"1"},{"lat":"23.0229","lng":"72.5235","name":"AMBDJDPVESR002","address":"Sap : I-GJ-AMBD-ENB-0364<br\/>Loopback : 172.22.230.167<br\/>Up-Time : 38 days, 17:46:00.02","type":"ESR","status":"1","hoto":"1"},{"lat":"23.0457","lng":"72.6541","name":"AMBDNRDAESR004","address":"Sap : I-GJ-AMBD-ENB-0368<br\/>Loopback : 172.22.225.235<br\/> ","type":"ESR","status":"0","hoto":"1"},{"lat":"23.0745","lng":"72.6218","name":"AMBDARPTESR001","address":"Sap : I-GJ-AMBD-ENB-0373<br\/>Loopback : 172.22.227.35<br\/>Up-Time : 41 days, 15:18:06.52","type":"ESR","status":"1","hoto":"1"},{"lat":"23.0028","lng":"72.6253","name":"AMBDUYDVESR002","address":"Sap : I-GJ-AMBD-ENB-0380<br\/>Loopback : 172.22.226.196<br\/>Up-Time : 21 days, 7:30:45.93","type":"ESR","status":"1","hoto":"1"},{"lat":"23.0015","lng":"72.5796","name":"AMBDBHMPESR005","address":"Sap : I-GJ-AMBD-ENB-0383<br\/>Loopback : 172.22.225.241<br\/>Up-Time : 5 days, 12:10:41.92","type":"ESR","status":"1","hoto":"1"},{"lat":"23.0302","lng":"72.5969","name":"AMBDKLPUESR002","address":"Sap : I-GJ-AMBD-ENB-0385<br\/>Loopback : 172.16.34.107<br\/> ","type":"ESR","status":"0","hoto":"1"},{"lat":"23.0234","lng":"72.5946","name":"AMBDKHDAESR004","address":"Sap : I-GJ-AMBD-ENB-0386<br\/>Loopback : 172.22.235.143<br\/>Up-Time : 30 days, 20:18:39.91","type":"ESR","status":"1","hoto":"1"},{"lat":"23.086","lng":"72.5365","name":"AMBDJGTPESR003","address":"Sap : I-GJ-AMBD-ENB-0395<br\/>Loopback : 172.22.224.212<br\/>Up-Time : 45 days, 4:13:35.12","type":"ESR","status":"1","hoto":"1"},{"lat":"23.1758","lng":"72.5789","name":"AMBDADLJESR002","address":"Sap : I-GJ-AMBD-ENB-0397<br\/>Loopback : 172.22.226.126<br\/>Up-Time : 45 days, 2:44:19.79","type":"ESR","status":"1","hoto":"1"},{"lat":"23.1362","lng":"72.5418","name":"AMBDCHRDESR003","address":"Sap : I-GJ-AMBD-ENB-0399<br\/>Loopback : 172.22.228.199<br\/>Up-Time : 45 days, 7:07:01.96","type":"ESR","status":"1","hoto":"1"},{"lat":"23.1212","lng":"72.5087","name":"AMBDOGNJESR001","address":"Sap : I-GJ-AMBD-ENB-0400<br\/>Loopback : 172.22.224.221<br\/>Up-Time : 45 days, 4:22:03.27","type":"ESR","status":"1","hoto":"1"},{"lat":"23.1011","lng":"72.4992","name":"AMBDAMBDESR002","address":"Sap : I-GJ-AMBD-ENB-0401<br\/>Loopback : 172.22.232.21<br\/>Up-Time : 11 days, 17:34:24.08","type":"ESR","status":"1","hoto":"1"},{"lat":"23.0533","lng":"72.4801","name":"AMBDHBTPESR004","address":"Sap : I-GJ-AMBD-ENB-0402<br\/>Loopback : 172.22.224.178<br\/>Up-Time : 25 days, 14:03:50.00","type":"ESR","status":"1","hoto":"1"},{"lat":"22.9297","lng":"72.5429","name":"AMBDMHKCESR001","address":"Sap : I-GJ-AMBD-ENB-0405<br\/>Loopback : 172.22.230.34<br\/>Up-Time : 2 days, 22:06:21.85","type":"ESR","status":"1","hoto":"1"},{"lat":"23.0521","lng":"72.684","name":"AMBDNKOLESR009","address":"Sap : I-GJ-AMBD-ENB-0407<br\/>Loopback : 172.22.226.108<br\/>Up-Time : 9 days, 9:35:45.66","type":"ESR","status":"1","hoto":"1"},{"lat":"23.0342","lng":"72.5858","name":"AMBDGKNTESR002","address":"Sap : I-GJ-AMBD-ENB-0409<br\/>Loopback : 172.22.224.174<br\/>Up-Time : 41 days, 17:42:21.90","type":"ESR","status":"1","hoto":"1"},{"lat":"23.0328","lng":"72.6127","name":"AMBDNMDNESR001","address":"Sap : I-GJ-AMBD-ENB-0415<br\/>Loopback : 172.22.225.66<br\/>Up-Time : 62 days, 4:30:20.77","type":"ESR","status":"1","hoto":"1"},{"lat":"23.0294","lng":"72.5904","name":"AMBDLTBZESR003","address":"Sap : I-GJ-AMBD-ENB-0417<br\/>Loopback : 172.22.236.175<br\/>Up-Time : 41 days, 5:57:41.74","type":"ESR","status":"1","hoto":"1"},{"lat":"23.0211","lng":"72.5951","name":"AMBDRPERESR001","address":"Sap : I-GJ-AMBD-ENB-0419<br\/>Loopback : 172.22.235.164<br\/>Up-Time : 41 days, 4:35:21.26","type":"ESR","status":"1","hoto":"1"},{"lat":"23.0225","lng":"72.5813","name":"AMBDLDWJESR002","address":"Sap : I-GJ-AMBD-ENB-0421<br\/>Loopback : 172.22.225.31<br\/>Up-Time : 45 days, 3:54:16.87","type":"ESR","status":"1","hoto":"1"},{"lat":"23.035","lng":"72.5825","name":"AMBDPNCSESR001","address":"Sap : I-GJ-AMBD-ENB-0422<br\/>Loopback : 172.22.234.19<br\/>Up-Time : 41 days, 4:33:09.19","type":"ESR","status":"1","hoto":"1"},{"lat":"23.0355","lng":"72.5899","name":"AMBDDLHCESR001","address":"Sap : I-GJ-AMBD-ENB-0423<br\/>Loopback : 172.22.224.166<br\/>Up-Time : 59 days, 15:13:21.02","type":"ESR","status":"1","hoto":"1"},{"lat":"23.0014","lng":"72.534","name":"AMBDBLDVESR001","address":"Sap : I-GJ-AMBD-ENB-0424<br\/>Loopback : 172.22.225.219<br\/>Up-Time : 62 days, 0:16:47.27","type":"ESR","status":"1","hoto":"1"},{"lat":"23.0067","lng":"72.5349","name":"AMBDBNCDESR001","address":"Sap : I-GJ-AMBD-ENB-0425<br\/>Loopback : 172.22.225.208<br\/>Up-Time : 45 days, 6:42:16.59","type":"ESR","status":"1","hoto":"1"},{"lat":"23.0136","lng":"72.534","name":"AMBDMHVAESR001","address":"Sap : I-GJ-AMBD-ENB-0426<br\/>Loopback : 172.22.225.215<br\/>Up-Time : 11 days, 22:56:55.17","type":"ESR","status":"1","hoto":"1"},{"lat":"23.0067","lng":"72.5251","name":"AMBDAKLSESR001","address":"Sap : I-GJ-AMBD-ENB-0428<br\/>Loopback : 172.22.225.104<br\/>Up-Time : 45 days, 5:24:35.26","type":"ESR","status":"1","hoto":"1"},{"lat":"23.0189","lng":"72.5335","name":"AMBDPNTNESR001","address":"Sap : I-GJ-AMBD-ENB-0430<br\/>Loopback : 172.22.225.214<br\/>Up-Time : 62 days, 2:51:12.34","type":"ESR","status":"1","hoto":"1"},{"lat":"23.0193","lng":"72.527","name":"AMBDKPDJESR001","address":"Sap : I-GJ-AMBD-ENB-0434<br\/>Loopback : 172.22.229.73<br\/>Up-Time : 48 days, 2:44:19.90","type":"ESR","status":"1","hoto":"1"},{"lat":"23.0322","lng":"72.5227","name":"AMBDPRVYESR002","address":"Sap : I-GJ-AMBD-ENB-0438<br\/>Loopback : 172.22.230.20<br\/>Up-Time : 42 days, 2:49:06.44","type":"ESR","status":"1","hoto":"1"},{"lat":"23.0243","lng":"72.5208","name":"AMBDJDPVESR001","address":"Sap : I-GJ-AMBD-ENB-0439<br\/>Loopback : 172.22.225.109<br\/>Up-Time : 41 days, 16:41:53.47","type":"ESR","status":"1","hoto":"1"},{"lat":"23.0331","lng":"72.5292","name":"AMBDMHVGESR001","address":"Sap : I-GJ-AMBD-ENB-0441<br\/>Loopback : 172.22.225.227<br\/>Up-Time : 6 days, 19:17:42.40","type":"ESR","status":"1","hoto":"1"},{"lat":"23.0306","lng":"72.5269","name":"AMBDPSDHESR001","address":"Sap : I-GJ-AMBD-ENB-0442<br\/>Loopback : 172.22.236.159<br\/>Up-Time : 6 days, 19:06:13.53","type":"ESR","status":"1","hoto":"1"},{"lat":"23.028","lng":"72.5186","name":"AMBDPRVYESR001","address":"Sap : I-GJ-AMBD-ENB-0443<br\/>Loopback : 172.22.229.71<br\/>Up-Time : 45 days, 5:06:47.07","type":"ESR","status":"1","hoto":"1"},{"lat":"23.0161","lng":"72.5831","name":"AMBDRKHDESR002","address":"Sap : I-GJ-AMBD-ENB-0444<br\/>Loopback : 172.22.230.79<br\/>Up-Time : 1 day, 16:42:30.30","type":"ESR","status":"1","hoto":"1"},{"lat":"23.0377","lng":"72.5306","name":"AMBDSGTHESR001","address":"Sap : I-GJ-AMBD-ENB-0447<br\/>Loopback : 172.22.225.228<br\/>Up-Time : 7 days, 19:28:12.20","type":"ESR","status":"1","hoto":"1"},{"lat":"23.0421","lng":"72.5131","name":"AMBDPRLCESR005","address":"Sap : I-GJ-AMBD-ENB-0452<br\/>Loopback : 172.22.230.75<br\/>Up-Time : 45 days, 4:24:05.21","type":"ESR","status":"1","hoto":"1"},{"lat":"23.0604","lng":"72.571","name":"AMBDYGSWESR001","address":"Sap : I-GJ-AMBD-ENB-0454<br\/>Loopback : 172.22.226.46<br\/>Up-Time : 62 days, 1:06:44.64","type":"ESR","status":"1","hoto":"1"},{"lat":"23.0558","lng":"72.5306","name":"AMBDNMTKESR001","address":"Sap : I-GJ-AMBD-ENB-0456<br\/>Loopback : 172.22.230.3<br\/>Up-Time : 42 days, 2:47:33.99","type":"ESR","status":"1","hoto":"1"},{"lat":"23.0608","lng":"72.5241","name":"AMBDHNSBESR001","address":"Sap : I-GJ-AMBD-ENB-0460<br\/>Loopback : 172.22.225.176<br\/>Up-Time : 13 days, 14:47:53.60","type":"ESR","status":"1","hoto":"1"},{"lat":"23.0639","lng":"72.5425","name":"AMBDPRSMESR001","address":"Sap : I-GJ-AMBD-ENB-0462<br\/>Loopback : 172.22.236.120<br\/>Up-Time : 41 days, 5:17:06.46","type":"ESR","status":"1","hoto":"1"},{"lat":"23.0651","lng":"72.5387","name":"AMBDMHVSESR001","address":"Sap : I-GJ-AMBD-ENB-0463<br\/>Loopback : 172.22.225.136<br\/>Up-Time : 45 days, 2:31:20.12","type":"ESR","status":"1","hoto":"1"},{"lat":"23.0638","lng":"72.5719","name":"AMBDSRYNESR001","address":"Sap : I-GJ-AMBD-ENB-0465<br\/>Loopback : 172.22.230.22<br\/>Up-Time : 62 days, 5:31:47.70","type":"ESR","status":"1","hoto":"1"},{"lat":"23.0789","lng":"72.5367","name":"AMBDPRSTESR001","address":"Sap : I-GJ-AMBD-ENB-0468<br\/>Loopback : 172.22.226.181<br\/>Up-Time : 9 days, 16:06:30.77","type":"ESR","status":"1","hoto":"1"},{"lat":"23.6968","lng":"72.5506","name":"VSGRSTGHESR002","address":"Sap : I-GJ-AMBD-ENB-0469<br\/>Loopback : 172.22.225.142<br\/>Up-Time : 45 days, 6:05:55.37","type":"ESR","status":"1","hoto":"1"},{"lat":"23.0746","lng":"72.5463","name":"AMBDGURNESR001","address":"Sap : I-GJ-AMBD-ENB-0470<br\/>Loopback : 172.22.225.123<br\/>Up-Time : 52 days, 5:40:03.32","type":"ESR","status":"1","hoto":"1"},{"lat":"23.0527","lng":"72.648","name":"AMBDKRSGESR001","address":"Sap : I-GJ-AMBD-ENB-0475<br\/>Loopback : 172.22.232.74<br\/>Up-Time : 58 days, 3:55:29.18","type":"ESR","status":"1","hoto":"1"},{"lat":"23.0498","lng":"72.6564","name":"AMBDNRDAESR008","address":"Sap : I-GJ-AMBD-ENB-0482<br\/>Loopback : 172.22.230.151<br\/>Up-Time : 45 days, 4:57:42.02","type":"ESR","status":"1","hoto":"1"},{"lat":"23.062","lng":"72.6547","name":"AMBDSRPCESR001","address":"Sap : I-GJ-AMBD-ENB-0488<br\/>Loopback : 172.22.232.108<br\/>Up-Time : 53 days, 5:25:59.42","type":"ESR","status":"1","hoto":"1"},{"lat":"23.0346","lng":"72.657","name":"AMBDNKOLESR011","address":"Sap : I-GJ-AMBD-ENB-0490<br\/>Loopback : 172.22.231.62<br\/>Up-Time : 45 days, 4:36:04.24","type":"ESR","status":"1","hoto":"1"},{"lat":"23.0692","lng":"72.6604","name":"AMBDNVNRESR005","address":"Sap : I-GJ-AMBD-ENB-0497<br\/>Loopback : 172.22.226.155<br\/>Up-Time : 61 days, 7:22:47.85","type":"ESR","status":"1","hoto":"1"},{"lat":"23.0604","lng":"72.6303","name":"AMBDSHJPESR001","address":"Sap : I-GJ-AMBD-ENB-0498<br\/>Loopback : 172.22.233.91<br\/>Up-Time : 8 days, 16:55:21.02","type":"ESR","status":"1","hoto":"1"},{"lat":"23.0293","lng":"72.6527","name":"AMBDNKOLESR006","address":"Sap : I-GJ-AMBD-ENB-0500<br\/>Loopback : 172.22.230.51<br\/>Up-Time : 45 days, 4:39:58.55","type":"ESR","status":"1","hoto":"1"},{"lat":"23.0296","lng":"72.6626","name":"AMBDNKOLESR008","address":"Sap : I-GJ-AMBD-ENB-0501<br\/>Loopback : 172.22.230.52<br\/>Up-Time : 45 days, 4:42:04.02","type":"ESR","status":"1","hoto":"1"},{"lat":"23.0282","lng":"72.6362","name":"AMBDCHMDESR001","address":"Sap : I-GJ-AMBD-ENB-0503<br\/>Loopback : 172.22.225.74<br\/>Up-Time : 45 days, 6:54:44.04","type":"ESR","status":"1","hoto":"1"},{"lat":"23.0349","lng":"72.6225","name":"AMBDNRMDESR001","address":"Sap : I-GJ-AMBD-ENB-0505<br\/>Loopback : 172.22.225.190<br\/>Up-Time : 61 days, 7:55:39.84","type":"ESR","status":"1","hoto":"1"},{"lat":"23.0639","lng":"72.6656","name":"AMBDNVNRESR007","address":"Sap : I-GJ-AMBD-ENB-0506<br\/>Loopback : 172.22.229.70<br\/>Up-Time : 45 days, 5:07:30.60","type":"ESR","status":"1","hoto":"1"},{"lat":"23.0731","lng":"72.666","name":"AMBDBLSYESR005","address":"Sap : I-GJ-AMBD-ENB-0507<br\/>Loopback : 172.22.226.163<br\/>Up-Time : 58 days, 6:48:14.29","type":"ESR","status":"1","hoto":"1"},{"lat":"23.0282","lng":"72.6222","name":"AMBDSHRKESR001","address":"Sap : I-GJ-AMBD-ENB-0511<br\/>Loopback : 172.22.225.188<br\/>Up-Time : 62 days, 4:29:14.73","type":"ESR","status":"1","hoto":"1"},{"lat":"23.0762","lng":"72.67","name":"AMBDBLSYESR006","address":"Sap : I-GJ-AMBD-ENB-0514<br\/>Loopback : 172.22.228.203<br\/>Up-Time : 46 days, 14:48:50.41","type":"ESR","status":"1","hoto":"1"},{"lat":"23.0261","lng":"72.6592","name":"AMBDNKOLESR010","address":"Sap : I-GJ-AMBD-ENB-0516<br\/>Loopback : 172.22.230.53<br\/>Up-Time : 45 days, 4:41:34.84","type":"ESR","status":"1","hoto":"1"},{"lat":"23.0827","lng":"72.6524","name":"AMBDNBLNESR003","address":"Sap : I-GJ-AMBD-ENB-0520<br\/>Loopback : 172.22.230.17<br\/>Up-Time : 1 day, 19:51:03.51","type":"ESR","status":"1","hoto":"1"},{"lat":"23.0233","lng":"72.5554","name":"AMBDPNCVESR001","address":"Sap : I-GJ-AMBD-ENB-0523<br\/>Loopback : 172.22.226.3<br\/>Up-Time : 45 days, 5:07:30.82","type":"ESR","status":"1","hoto":"1"},{"lat":"23.0094","lng":"72.5575","name":"AMBDTRPTESR001","address":"Sap : I-GJ-AMBD-ENB-0525<br\/>Loopback : 172.22.226.9<br\/>Up-Time : 45 days, 5:06:54.88","type":"ESR","status":"1","hoto":"1"},{"lat":"23.0098","lng":"72.553","name":"AMBDORSBESR001","address":"Sap : I-GJ-AMBD-ENB-0526<br\/>Loopback : 172.22.226.6<br\/>Up-Time : 45 days, 5:07:25.97","type":"ESR","status":"1","hoto":"1"},{"lat":"23.0078","lng":"72.5399","name":"AMBDRTDSESR002","address":"Sap : I-GJ-AMBD-ENB-0528<br\/>Loopback : 172.22.225.209<br\/>Up-Time : 45 days, 6:41:30.29","type":"ESR","status":"1","hoto":"1"},{"lat":"23.0193","lng":"72.5393","name":"AMBDVSPJESR001","address":"Sap : I-GJ-AMBD-ENB-0529<br\/>Loopback : 172.22.225.212<br\/>Up-Time : 45 days, 6:21:23.51","type":"ESR","status":"1","hoto":"1"},{"lat":"23.0273","lng":"72.536","name":"AMBDAZADESR001","address":"Sap : I-GJ-AMBD-ENB-0541<br\/>Loopback : 172.22.225.203<br\/>Up-Time : 45 days, 6:43:19.61","type":"ESR","status":"1","hoto":"1"},{"lat":"23.0064","lng":"72.5685","name":"AMBDRJPTESR001","address":"Sap : I-GJ-AMBD-ENB-0547<br\/>Loopback : 172.22.225.252<br\/>Up-Time : 44 days, 12:56:58.62","type":"ESR","status":"1","hoto":"1"},{"lat":"23.0228","lng":"72.5712","name":"AMBDWLSAESR001","address":"Sap : I-GJ-AMBD-ENB-0548<br\/>Loopback : 172.22.225.100<br\/>Up-Time : 45 days, 2:39:03.03","type":"ESR","status":"1","hoto":"1"},{"lat":"23.0009","lng":"72.5548","name":"AMBDSBSHESR001","address":"Sap : I-GJ-AMBD-ENB-0549<br\/>Loopback : 172.22.226.135<br\/>Up-Time : 45 days, 4:02:19.23","type":"ESR","status":"1","hoto":"1"},{"lat":"23.0574","lng":"72.5506","name":"AMBDRHKRESR001","address":"Sap : I-GJ-AMBD-ENB-0557<br\/>Loopback : 172.22.225.139<br\/>Up-Time : 45 days, 5:49:25.60","type":"ESR","status":"1","hoto":"1"},{"lat":"23.0507","lng":"72.5574","name":"AMBDJVNDESR001","address":"Sap : I-GJ-AMBD-ENB-0558<br\/>Loopback : 172.22.225.130<br\/>Up-Time : 14 days, 17:47:49.28","type":"ESR","status":"1","hoto":"1"},{"lat":"23.0614","lng":"72.557","name":"AMBDBGWNESR001","address":"Sap : I-GJ-AMBD-ENB-0561<br\/>Loopback : 172.22.225.125<br\/>Up-Time : 61 days, 4:39:32.32","type":"ESR","status":"1","hoto":"1"},{"lat":"23.0582","lng":"72.5448","name":"AMBDKMCRESR002","address":"Sap : I-GJ-AMBD-ENB-0563<br\/>Loopback : 172.22.225.168<br\/>Up-Time : 45 days, 6:29:07.23","type":"ESR","status":"1","hoto":"1"},{"lat":"23.0525","lng":"72.5703","name":"AMBDSMTGESR001","address":"Sap : I-GJ-AMBD-ENB-0565<br\/>Loopback : 172.22.235.85<br\/>Up-Time : 41 days, 4:17:39.82","type":"ESR","status":"1","hoto":"1"},{"lat":"23.0571","lng":"72.5669","name":"AMBDUHVNESR001","address":"Sap : I-GJ-AMBD-ENB-0567<br\/>Loopback : 172.22.226.180<br\/>Up-Time : 45 days, 3:16:53.41","type":"ESR","status":"1","hoto":"1"},{"lat":"23.0556","lng":"72.5741","name":"AMBDSDHMESR001","address":"Sap : I-GJ-AMBD-ENB-0568<br\/>Loopback : 172.22.226.47<br\/>Up-Time : 14 days, 18:04:47.91","type":"ESR","status":"1","hoto":"1"},{"lat":"23.056","lng":"72.5391","name":"AMBDGHBDESR001","address":"Sap : I-GJ-AMBD-ENB-0571<br\/>Loopback : 172.22.230.5<br\/>Up-Time : 45 days, 4:06:41.94","type":"ESR","status":"1","hoto":"1"},{"lat":"23.0589","lng":"72.5787","name":"AMBDEKTAESR001","address":"Sap : I-GJ-AMBD-ENB-0572<br\/>Loopback : 172.22.226.36<br\/>Up-Time : 45 days, 3:26:41.53","type":"ESR","status":"1","hoto":"1"},{"lat":"23.0646","lng":"72.5511","name":"AMBDSHTRESR001","address":"Sap : I-GJ-AMBD-ENB-0573<br\/>Loopback : 172.22.232.73<br\/>Up-Time : 61 days, 4:28:35.81","type":"ESR","status":"1","hoto":"1"},{"lat":"22.9956","lng":"72.6194","name":"AMBDNVJSESR001","address":"Sap : I-GJ-AMBD-ENB-0574<br\/>Loopback : 172.22.230.33<br\/>Up-Time : 58 days, 7:56:34.99","type":"ESR","status":"1","hoto":"1"},{"lat":"22.9882","lng":"72.6172","name":"AMBDSNTHESR001","address":"Sap : I-GJ-AMBD-ENB-0575<br\/>Loopback : 172.22.226.148<br\/>Up-Time : 45 days, 4:00:00.21","type":"ESR","status":"1","hoto":"1"},{"lat":"22.9957","lng":"72.6282","name":"AMBDNNSLESR002","address":"Sap : I-GJ-AMBD-ENB-0578<br\/>Loopback : 172.22.225.42<br\/>Up-Time : 48 days, 2:32:22.58","type":"ESR","status":"1","hoto":"1"},{"lat":"22.9829","lng":"72.6189","name":"AMBDMHLXESR001","address":"Sap : I-GJ-AMBD-ENB-0580<br\/>Loopback : 172.22.230.36<br\/>Up-Time : 63 days, 3:30:26.90","type":"ESR","status":"1","hoto":"1"},{"lat":"22.9987","lng":"72.6348","name":"AMBDAMRDESR001","address":"Sap : I-GJ-AMBD-ENB-0585<br\/>Loopback : 172.22.224.243<br\/>Up-Time : 31 days, 13:54:06.42","type":"ESR","status":"1","hoto":"1"},{"lat":"22.982","lng":"72.6066","name":"AMBDBDNTESR001","address":"Sap : I-GJ-AMBD-ENB-0588<br\/>Loopback : 172.22.226.146<br\/>Up-Time : 62 days, 5:34:12.98","type":"ESR","status":"1","hoto":"1"},{"lat":"23.0022","lng":"72.6405","name":"AMBDVJYGESR002","address":"Sap : I-GJ-AMBD-ENB-0591<br\/>Loopback : 172.22.225.3<br\/>Up-Time : 5 days, 14:26:41.05","type":"ESR","status":"1","hoto":"1"},{"lat":"22.9984","lng":"72.644","name":"AMBDVSTRESR009","address":"Sap : I-GJ-AMBD-ENB-0594<br\/>Loopback : 172.22.230.13<br\/>Up-Time : 45 days, 5:04:04.24","type":"ESR","status":"1","hoto":"1"},{"lat":"22.9998","lng":"72.6034","name":"AMBDRMLNESR001","address":"Sap : I-GJ-AMBD-ENB-0600<br\/>Loopback : 172.22.225.46<br\/>Up-Time : 60 days, 4:43:24.46","type":"ESR","status":"1","hoto":"1"},{"lat":"22.9923","lng":"72.5845","name":"AMBDDNILESR002","address":"Sap : I-GJ-AMBD-ENB-0603<br\/>Loopback : 172.22.226.30<br\/>Up-Time : 13 days, 12:58:42.04","type":"ESR","status":"1","hoto":"1"},{"lat":"22.9918","lng":"72.6037","name":"AMBDGPLKESR001","address":"Sap : I-GJ-AMBD-ENB-0608<br\/>Loopback : 172.22.226.33<br\/>Up-Time : 30 days, 14:40:50.20","type":"ESR","status":"1","hoto":"1"},{"lat":"22.9925","lng":"72.6098","name":"AMBDSTBGESR001","address":"Sap : I-GJ-AMBD-ENB-0609<br\/>Loopback : 172.22.230.24<br\/>Up-Time : 42 days, 2:47:54.32","type":"ESR","status":"1","hoto":"1"},{"lat":"23.1","lng":"72.5595","name":"AMBDKALIESR001","address":"Sap : I-GJ-AMBD-ENB-0611<br\/>Loopback : 172.22.224.33<br\/>Up-Time : 42 days, 2:37:34.28","type":"ESR","status":"1","hoto":"1"},{"lat":"23.1037","lng":"72.5711","name":"AMBDSDRNESR003","address":"Sap : I-GJ-AMBD-ENB-0612<br\/>Loopback : 172.22.233.223<br\/>Up-Time : 41 days, 4:54:45.24","type":"ESR","status":"1","hoto":"1"},{"lat":"23.1146","lng":"72.5701","name":"AMBDAJVEESR006","address":"Sap : I-GJ-AMBD-ENB-0613<br\/>Loopback : 172.22.236.163<br\/>Up-Time : 33 days, 21:25:00.50","type":"ESR","status":"1","hoto":"1"},{"lat":"23.1164","lng":"72.5748","name":"AMBDAJVEESR005","address":"Sap : I-GJ-AMBD-ENB-0615<br\/>Loopback : 172.22.234.38<br\/>Up-Time : 45 days, 21:58:45.52","type":"ESR","status":"1","hoto":"1"},{"lat":"23.1109","lng":"72.584","name":"AMBDSNGRESR001","address":"Sap : I-GJ-AMBD-ENB-0616<br\/>Loopback : 172.22.225.147<br\/>Up-Time : 45 days, 6:06:02.69","type":"ESR","status":"1","hoto":"1"},{"lat":"23.1129","lng":"72.5621","name":"AMBDKHRJESR001","address":"Sap : I-GJ-AMBD-ENB-0618<br\/>Loopback : 172.22.224.218<br\/>Up-Time : 45 days, 4:12:15.73","type":"ESR","status":"1","hoto":"1"},{"lat":"23.1057","lng":"72.5807","name":"AMBDPSNTESR001","address":"Sap : I-GJ-AMBD-ENB-0621<br\/>Loopback : 172.22.225.144<br\/>Up-Time : 45 days, 6:06:02.18","type":"ESR","status":"1","hoto":"1"},{"lat":"23.0115","lng":"72.6421","name":"AMBDRMRJESR007","address":"Sap : I-GJ-AMBD-ENB-0622<br\/>Loopback : 172.22.231.51<br\/>Up-Time : 45 days, 4:28:38.29","type":"ESR","status":"1","hoto":"1"},{"lat":"23.0031","lng":"72.6451","name":"AMBDVSTRESR004","address":"Sap : I-GJ-AMBD-ENB-0624<br\/>Loopback : 172.22.224.250<br\/>Up-Time : 52 days, 3:40:38.64","type":"ESR","status":"1","hoto":"1"},{"lat":"23.0185","lng":"72.6479","name":"AMBDODHVESR004","address":"Sap : I-GJ-AMBD-ENB-0627<br\/>Loopback : 172.22.225.8<br\/>Up-Time : 45 days, 5:38:17.18","type":"ESR","status":"1","hoto":"1"},{"lat":"23.0086","lng":"72.6538","name":"AMBDRMRJESR004","address":"Sap : I-GJ-AMBD-ENB-0628<br\/>Loopback : 172.22.224.251<br\/>Up-Time : 45 days, 6:48:22.37","type":"ESR","status":"1","hoto":"1"},{"lat":"23.0037","lng":"72.6536","name":"AMBDRMRJESR005","address":"Sap : I-GJ-AMBD-ENB-0629<br\/>Loopback : 172.22.224.253<br\/>Up-Time : 45 days, 2:44:43.63","type":"ESR","status":"1","hoto":"1"},{"lat":"22.9957","lng":"72.65","name":"AMBDVSTRESR005","address":"Sap : I-GJ-AMBD-ENB-0631<br\/>Loopback : 172.22.224.248<br\/>Up-Time : 45 days, 4:04:19.92","type":"ESR","status":"1","hoto":"1"},{"lat":"22.9991","lng":"72.5187","name":"AMBDJUHPESR004","address":"Sap : I-GJ-AMBD-ENB-0636<br\/>Loopback : 172.22.225.119<br\/>Up-Time : 28 days, 15:28:38.89","type":"ESR","status":"1","hoto":"1"},{"lat":"22.9871","lng":"72.5343","name":"AMBDNMNNESR009","address":"Sap : I-GJ-AMBD-ENB-0639<br\/>Loopback : 172.22.230.18<br\/>Up-Time : 41 days, 17:52:18.88","type":"ESR","status":"1","hoto":"1"},{"lat":"22.9764","lng":"72.6236","name":"AMBDRBRLESR003","address":"Sap : I-GJ-AMBD-ENB-0640<br\/>Loopback : 172.22.225.150<br\/>Up-Time : 60 days, 1:38:13.65","type":"ESR","status":"1","hoto":"1"},{"lat":"22.9773","lng":"72.62","name":"AMBDCHTKESR001","address":"Sap : I-GJ-AMBD-ENB-0643<br\/>Loopback : 172.22.225.149<br\/>Up-Time : 60 days, 6:05:48.56","type":"ESR","status":"1","hoto":"1"},{"lat":"22.9846","lng":"72.6289","name":"AMBDABYSESR001","address":"Sap : I-GJ-AMBD-ENB-0644<br\/>Loopback : 172.22.224.65<br\/>Up-Time : 1 day, 6:41:50.11","type":"ESR","status":"1","hoto":"1"},{"lat":"22.9671","lng":"72.6189","name":"AMBDKSVNESR002","address":"Sap : I-GJ-AMBD-ENB-0645<br\/>Loopback : 172.22.224.122<br\/>Up-Time : 60 days, 6:06:31.50","type":"ESR","status":"1","hoto":"1"},{"lat":"22.9749","lng":"72.6109","name":"AMBDHRMNESR001","address":"Sap : I-GJ-AMBD-ENB-0647<br\/>Loopback : 172.22.225.153<br\/>Up-Time : 30 days, 16:06:18.74","type":"ESR","status":"1","hoto":"1"},{"lat":"23.0495","lng":"72.612","name":"AMBDRHDNESR001","address":"Sap : I-GJ-AMBD-ENB-0649<br\/>Loopback : 172.22.226.119<br\/>Up-Time : 63 days, 2:46:35.97","type":"ESR","status":"1","hoto":"1"},{"lat":"23.0612","lng":"72.5978","name":"AMBDNMNRESR001","address":"Sap : I-GJ-AMBD-ENB-0653<br\/>Loopback : 172.22.224.96<br\/>Up-Time : 45 days, 6:50:59.75","type":"ESR","status":"1","hoto":"1"},{"lat":"23.0107","lng":"72.5965","name":"AMBDVJYRESR001","address":"Sap : I-GJ-AMBD-ENB-0671<br\/>Loopback : 172.22.226.192<br\/>Up-Time : 45 days, 3:45:09.61","type":"ESR","status":"1","hoto":"1"},{"lat":"23.0922","lng":"72.6642","name":"AMBDAMDBESR004","address":"Sap : I-GJ-AMBD-ENB-0674<br\/>Loopback : 172.22.232.198<br\/>Up-Time : 58 days, 4:48:54.33","type":"ESR","status":"1","hoto":"1"},{"lat":"23.0093","lng":"72.5993","name":"AMBDCDPBESR001","address":"Sap : I-GJ-AMBD-ENB-0677<br\/>Loopback : 172.22.234.56<br\/>Up-Time : 61 days, 5:33:40.12","type":"ESR","status":"1","hoto":"1"},{"lat":"22.988","lng":"72.6299","name":"AMBDVSTRESR010","address":"Sap : I-GJ-AMBD-ENB-0679<br\/>Loopback : 172.22.234.231<br\/>Up-Time : 35 days, 16:40:31.04","type":"ESR","status":"1","hoto":"1"},{"lat":"23.0614","lng":"72.5346","name":"AMBDTRNGESR002","address":"Sap : I-GJ-AMBD-ENB-0680<br\/>Loopback : 172.22.231.61<br\/>Up-Time : 6 days, 8:05:01.60","type":"ESR","status":"1","hoto":"1"},{"lat":"23.039","lng":"72.5549","name":"AMBDRPNGESR002","address":"Sap : I-GJ-AMBD-ENB-0682<br\/>Loopback : 172.22.236.23<br\/>Up-Time : 41 days, 3:54:17.47","type":"ESR","status":"1","hoto":"1"},{"lat":"23.166","lng":"72.584","name":"AMBDADLJESR001","address":"Sap : I-GJ-AMBD-ENB-6000<br\/>Loopback : 172.22.226.127<br\/>Up-Time : 45 days, 2:42:27.34","type":"ESR","status":"1","hoto":"1"},{"lat":"23.0658","lng":"72.6619","name":"AMBDNVNRESR004","address":"Sap : I-GJ-AMBD-ENB-6002<br\/>Loopback : 172.22.226.165<br\/>Up-Time : 61 days, 5:34:36.78","type":"ESR","status":"1","hoto":"1"},{"lat":"23.032","lng":"72.6914","name":"AMBDKTWDESR001","address":"Sap : I-GJ-AMBD-ENB-6005<br\/>Loopback : 172.22.226.138<br\/>Up-Time : 6 days, 11:22:51.51","type":"ESR","status":"1","hoto":"1"},{"lat":"23.0094","lng":"72.6379","name":"AMBDSUTRESR001","address":"Sap : I-GJ-AMBD-ENB-6006<br\/>Loopback : 172.22.224.246<br\/>Up-Time : 61 days, 6:40:03.73","type":"ESR","status":"1","hoto":"1"},{"lat":"23.0121","lng":"72.5131","name":"AMBDANDRESR001","address":"Sap : I-GJ-AMBD-ENB-6007<br\/>Loopback : 172.22.225.113<br\/>Up-Time : 52 days, 5:31:17.11","type":"ESR","status":"1","hoto":"1"},{"lat":"23.082","lng":"72.5745","name":"AMBDPDMVESR001","address":"Sap : I-GJ-AMBD-ENB-6008<br\/>Loopback : 172.22.224.106<br\/>Up-Time : 45 days, 4:25:56.16","type":"ESR","status":"1","hoto":"1"},{"lat":"22.9692","lng":"72.6016","name":"AMBDCHNLESR006","address":"Sap : I-GJ-AMBD-ENB-6010<br\/>Loopback : 172.22.225.163<br\/>Up-Time : 63 days, 4:30:16.97","type":"ESR","status":"1","hoto":"1"},{"lat":"23.0133","lng":"72.6267","name":"AMBDJWHNESR001","address":"Sap : I-GJ-AMBD-ENB-6012<br\/>Loopback : 172.22.224.234<br\/>Up-Time : 63 days, 3:34:41.50","type":"ESR","status":"1","hoto":"1"},{"lat":"23.0755","lng":"72.645","name":"AMBDKBERESR001","address":"Sap : I-GJ-AMBD-ENB-6013<br\/>Loopback : 172.22.230.55<br\/>Up-Time : 37 days, 12:55:30.69","type":"ESR","status":"1","hoto":"1"},{"lat":"23.0523","lng":"72.6283","name":"AMBDBAPUESR001","address":"Sap : I-GJ-AMBD-ENB-6015<br\/>Loopback : 172.22.230.46<br\/>Up-Time : 12:42:16.20","type":"ESR","status":"1","hoto":"1"},{"lat":"23.0191","lng":"72.6615","name":"AMBDODHVESR001","address":"Sap : I-GJ-AMBD-ENB-6017<br\/>Loopback : 172.22.225.242<br\/>Up-Time : 45 days, 6:11:24.05","type":"ESR","status":"1","hoto":"1"},{"lat":"23.0477","lng":"72.6496","name":"AMBDVHTNESR001","address":"Sap : I-GJ-AMBD-ENB-6018<br\/>Loopback : 172.22.225.238<br\/>Up-Time : 60 days, 5:29:13.88","type":"ESR","status":"1","hoto":"1"},{"lat":"23.0243","lng":"72.68","name":"AMBDVSTLESR001","address":"Sap : I-GJ-AMBD-ENB-6019<br\/>Loopback : 172.22.226.140<br\/>Up-Time : 58 days, 8:01:21.43","type":"ESR","status":"1","hoto":"1"},{"lat":"22.9581","lng":"72.5592","name":"AMBDNROLESR004","address":"Sap : I-GJ-AMBD-ENB-6020<br\/>Loopback : 172.22.224.137<br\/>Up-Time : 60 days, 6:04:39.68","type":"ESR","status":"1","hoto":"1"},{"lat":"23.027","lng":"72.5872","name":"AMBDKHDAESR001","address":"Sap : I-GJ-AMBD-ENB-6021<br\/>Loopback : 172.22.225.24<br\/>Up-Time : 45 days, 3:23:48.99","type":"ESR","status":"1","hoto":"1"},{"lat":"23.0023","lng":"72.526","name":"AMBDKUMDESR001","address":"Sap : I-GJ-AMBD-ENB-6022<br\/>Loopback : 172.22.225.121<br\/>Up-Time : 28 days, 16:02:57.58","type":"ESR","status":"1","hoto":"1"},{"lat":"23.0374","lng":"72.5278","name":"AMBDVSNZESR001","address":"Sap : I-GJ-AMBD-ENB-6023<br\/>Loopback : 172.22.225.226<br\/>Up-Time : 45 days, 6:21:20.04","type":"ESR","status":"1","hoto":"1"},{"lat":"23.0218","lng":"72.6543","name":"AMBDODHVESR006","address":"Sap : I-GJ-AMBD-ENB-6024<br\/>Loopback : 172.22.225.9<br\/> ","type":"ESR","status":"0","hoto":"1"},{"lat":"23.0015","lng":"72.6075","name":"AMBDKMNTESR001","address":"Sap : I-GJ-AMBD-ENB-6025<br\/>Loopback : 172.22.225.47<br\/>Up-Time : 58 days, 8:28:38.31","type":"ESR","status":"1","hoto":"1"},{"lat":"22.9879","lng":"72.5818","name":"AMBDCHNLESR011","address":"Sap : I-GJ-AMBD-ENB-6026<br\/>Loopback : 172.22.226.16<br\/>Up-Time : 63 days, 4:23:02.11","type":"ESR","status":"1","hoto":"1"},{"lat":"23.0141","lng":"72.5949","name":"AMBDKNKRESR001","address":"Sap : I-GJ-AMBD-ENB-6028<br\/>Loopback : 172.22.226.191<br\/>Up-Time : 62 days, 1:53:14.75","type":"ESR","status":"1","hoto":"1"},{"lat":"23.0029","lng":"72.5959","name":"AMBDCTRBESR001","address":"Sap : I-GJ-AMBD-ENB-6029<br\/>Loopback : 172.22.225.36<br\/>Up-Time : 62 days, 3:39:31.70","type":"ESR","status":"1","hoto":"1"},{"lat":"23.0414","lng":"72.6122","name":"AMBDAMDPESR001","address":"Sap : I-GJ-AMBD-ENB-6030<br\/>Loopback : 172.22.225.193<br\/>Up-Time : 60 days, 7:24:06.49","type":"ESR","status":"1","hoto":"1"},{"lat":"23.0044","lng":"72.6155","name":"AMBDSRMVESR001","address":"Sap : I-GJ-AMBD-ENB-6031<br\/>Loopback : 172.22.225.39<br\/>Up-Time : 62 days, 3:39:34.58","type":"ESR","status":"1","hoto":"1"},{"lat":"23.0556","lng":"72.5695","name":"AMBDSRDCESR001","address":"Sap : I-GJ-AMBD-ENB-6032<br\/>Loopback : 172.22.226.37<br\/>Up-Time : 45 days, 3:23:03.41","type":"ESR","status":"1","hoto":"1"},{"lat":"23.0337","lng":"72.5884","name":"AMBDDBRDESR001","address":"Sap : I-GJ-AMBD-ENB-6033<br\/>Loopback : 172.22.224.164<br\/>Up-Time : 38 days, 17:08:21.05","type":"ESR","status":"1","hoto":"1"},{"lat":"23.017","lng":"72.581","name":"AMBDRKHDESR001","address":"Sap : I-GJ-AMBD-ENB-6034<br\/>Loopback : 172.22.226.189<br\/>Up-Time : 45 days, 2:21:24.21","type":"ESR","status":"1","hoto":"1"},{"lat":"23.0508","lng":"72.5836","name":"AMBDPNGHESR001","address":"Sap : I-GJ-AMBD-ENB-6035<br\/>Loopback : 172.22.226.195<br\/>Up-Time : 62 days, 3:38:42.55","type":"ESR","status":"1","hoto":"1"},{"lat":"23.0096","lng":"72.5483","name":"AMBDSKTBESR001","address":"Sap : I-GJ-AMBD-ENB-6037<br\/>Loopback : 172.22.225.17<br\/>Up-Time : 5 days, 17:05:17.34","type":"ESR","status":"1","hoto":"1"},{"lat":"23.0701","lng":"72.5333","name":"AMBDSRWNESR001","address":"Sap : I-GJ-AMBD-ENB-6039<br\/>Loopback : 172.22.224.200<br\/>Up-Time : 45 days, 3:34:21.26","type":"ESR","status":"1","hoto":"1"},{"lat":"23.0742","lng":"72.5648","name":"AMBDGURPESR001","address":"Sap : I-GJ-AMBD-ENB-6040<br\/>Loopback : 172.22.224.108<br\/>Up-Time : 18 days, 10:42:59.35","type":"ESR","status":"1","hoto":"1"},{"lat":"22.9913","lng":"72.613","name":"AMBDAKSRESR001","address":"Sap : I-GJ-AMBD-ENB-6041<br\/>Loopback : 172.22.226.35<br\/>Up-Time : 52 days, 5:37:43.81","type":"ESR","status":"1","hoto":"1"},{"lat":"23.0313","lng":"72.6387","name":"AMBDAMBGESR001","address":"Sap : I-GJ-AMBD-ENB-6042<br\/>Loopback : 172.22.225.73<br\/>Up-Time : 45 days, 2:30:23.01","type":"ESR","status":"1","hoto":"1"},{"lat":"22.9954","lng":"72.5885","name":"AMBDDNILESR001","address":"Sap : I-GJ-AMBD-ENB-6043<br\/>Loopback : 172.22.226.17<br\/>Up-Time : 22 days, 15:37:37.36","type":"ESR","status":"1","hoto":"1"},{"lat":"23.0803","lng":"72.5518","name":"AMBDCNDAESR001","address":"Sap : I-GJ-AMBD-ENB-6044<br\/>Loopback : 172.22.224.216<br\/>Up-Time : 2 days, 17:53:29.78","type":"ESR","status":"1","hoto":"1"},{"lat":"23.0393","lng":"72.6574","name":"AMBDNKOLESR002","address":"Sap : I-GJ-AMBD-ENB-6046<br\/>Loopback : 172.22.225.249<br\/>Up-Time : 16 days, 21:32:58.96","type":"ESR","status":"1","hoto":"1"},{"lat":"22.995","lng":"72.6061","name":"AMBDJGRTESR001","address":"Sap : I-GJ-AMBD-ENB-6047<br\/>Loopback : 172.22.226.34<br\/>Up-Time : 60 days, 4:42:06.76","type":"ESR","status":"1","hoto":"1"},{"lat":"23.0084","lng":"72.6468","name":"AMBDRMRJESR006","address":"Sap : I-GJ-AMBD-ENB-6048<br\/>Loopback : 172.22.225.11<br\/>Up-Time : 45 days, 3:31:45.45","type":"ESR","status":"1","hoto":"1"},{"lat":"23.0535","lng":"72.6354","name":"AMBDSMRSESR001","address":"Sap : I-GJ-AMBD-ENB-6049<br\/>Loopback : 172.22.226.209<br\/>Up-Time : 55 days, 16:21:27.99","type":"ESR","status":"1","hoto":"1"},{"lat":"22.9938","lng":"72.6409","name":"AMBDVSTRESR001","address":"Sap : I-GJ-AMBD-ENB-6051<br\/>Loopback : 172.22.225.1<br\/>Up-Time : 45 days, 5:41:57.06","type":"ESR","status":"1","hoto":"1"},{"lat":"22.9639","lng":"72.5826","name":"AMBDNROLESR005","address":"Sap : I-GJ-AMBD-ENB-6052<br\/>Loopback : 172.22.224.130<br\/>Up-Time : 45 days, 6:00:31.39","type":"ESR","status":"1","hoto":"1"},{"lat":"23.0426","lng":"72.5684","name":"AMBDHRDCESR001","address":"Sap : I-GJ-AMBD-ENB-6053<br\/>Loopback : 172.22.226.42<br\/>Up-Time : 6 days, 15:24:04.11","type":"ESR","status":"1","hoto":"1"},{"lat":"23.0473","lng":"72.6408","name":"AMBDSMRSESR002","address":"Sap : I-GJ-AMBD-ENB-6055<br\/>Loopback : 172.22.230.41<br\/>Up-Time : 60 days, 6:01:15.06","type":"ESR","status":"1","hoto":"1"},{"lat":"23.0697","lng":"72.6713","name":"AMBDNKOLESR001","address":"Sap : I-GJ-AMBD-ENB-6056<br\/>Loopback : 172.22.230.45<br\/>Up-Time : 2 days, 16:50:14.47","type":"ESR","status":"1","hoto":"1"},{"lat":"23.0439","lng":"72.6029","name":"AMBDJHGRESR001","address":"Sap : I-GJ-AMBD-ENB-6057<br\/>Loopback : 172.22.225.58<br\/> ","type":"ESR","status":"0","hoto":"1"},{"lat":"23.0017","lng":"72.6183","name":"AMBDGRNFESR001","address":"Sap : I-GJ-AMBD-ENB-6058<br\/>Loopback : 172.22.225.40<br\/>Up-Time : 61 days, 5:39:18.41","type":"ESR","status":"1","hoto":"1"},{"lat":"23.0326","lng":"72.6179","name":"AMBDSURTESR001","address":"Sap : I-GJ-AMBD-ENB-6060<br\/>Loopback : 172.22.225.187<br\/>Up-Time : 32 days, 18:07:38.10","type":"ESR","status":"1","hoto":"1"},{"lat":"23.0315","lng":"72.5493","name":"AMBDUSHDESR001","address":"Sap : I-GJ-AMBD-ENB-6061<br\/>Loopback : 172.22.225.206<br\/>Up-Time : 33 days, 12:34:29.17","type":"ESR","status":"1","hoto":"1"},{"lat":"23.0799","lng":"72.558","name":"AMBDTRNHESR001","address":"Sap : I-GJ-AMBD-ENB-6064<br\/>Loopback : 172.22.224.111<br\/>Up-Time : 58 days, 5:26:57.96","type":"ESR","status":"1","hoto":"1"},{"lat":"22.9853","lng":"72.4938","name":"AMBDNMNNESR001","address":"Sap : I-GJ-AMBD-ENB-6065<br\/>Loopback : 172.22.225.78<br\/>Up-Time : 38 days, 13:40:46.74","type":"ESR","status":"1","hoto":"1"},{"lat":"23.0279","lng":"72.5637","name":"AMBDGSRVESR001","address":"Sap : I-GJ-AMBD-ENB-6066<br\/>Loopback : 172.22.225.102<br\/>Up-Time : 4 days, 17:05:27.76","type":"ESR","status":"1","hoto":"1"},{"lat":"22.973","lng":"72.6266","name":"AMBDRBRLESR001","address":"Sap : I-GJ-AMBD-ENB-6067<br\/>Loopback : 172.22.225.151<br\/>Up-Time : 63 days, 4:31:19.12","type":"ESR","status":"1","hoto":"1"},{"lat":"23.0244","lng":"72.6656","name":"AMBDODHVESR002","address":"Sap : I-GJ-AMBD-ENB-6069<br\/>Loopback : 172.22.225.243<br\/>Up-Time : 45 days, 6:08:32.56","type":"ESR","status":"1","hoto":"1"},{"lat":"23.0839","lng":"72.5907","name":"AMBDSDCHESR001","address":"Sap : I-GJ-AMBD-ENB-6070<br\/>Loopback : 172.22.224.162<br\/>Up-Time : 45 days, 6:35:10.51","type":"ESR","status":"1","hoto":"1"},{"lat":"23.0382","lng":"72.5924","name":"AMBDMDPRESR001","address":"Sap : I-GJ-AMBD-ENB-6071<br\/>Loopback : 172.22.224.169<br\/>Up-Time : 58 days, 7:06:30.52","type":"ESR","status":"1","hoto":"1"},{"lat":"23.0184","lng":"72.5677","name":"AMBDPTMNESR001","address":"Sap : I-GJ-AMBD-ENB-6072<br\/>Loopback : 172.22.225.254<br\/>Up-Time : 48 days, 2:24:19.22","type":"ESR","status":"1","hoto":"1"},{"lat":"23.0717","lng":"72.5549","name":"AMBDSWMAESR001","address":"Sap : I-GJ-AMBD-ENB-6074<br\/>Loopback : 172.22.225.129<br\/>Up-Time : 60 days, 7:24:59.23","type":"ESR","status":"1","hoto":"1"},{"lat":"23.0673","lng":"72.5701","name":"AMBDVDBTESR001","address":"Sap : I-GJ-AMBD-ENB-6075<br\/>Loopback : 172.22.226.44<br\/>Up-Time : 62 days, 5:33:25.26","type":"ESR","status":"1","hoto":"1"},{"lat":"23.0187","lng":"72.587","name":"AMBDASTDESR001","address":"Sap : I-GJ-AMBD-ENB-6077<br\/>Loopback : 172.22.233.168<br\/>Up-Time : 41 days, 5:20:09.41","type":"ESR","status":"1","hoto":"1"},{"lat":"22.9471","lng":"72.5522","name":"AMBDNROLESR002","address":"Sap : I-GJ-AMBD-ENB-6078<br\/>Loopback : 172.22.224.139<br\/>Up-Time : 24 days, 21:06:47.16","type":"ESR","status":"1","hoto":"1"},{"lat":"23.0212","lng":"72.6391","name":"AMBDVRTNESR001","address":"Sap : I-GJ-AMBD-ENB-6080<br\/>Loopback : 172.22.225.6<br\/>Up-Time : 16 days, 12:38:03.26","type":"ESR","status":"1","hoto":"1"},{"lat":"22.9865","lng":"72.6229","name":"AMBDMNNGESR001","address":"Sap : I-GJ-AMBD-ENB-6082<br\/>Loopback : 172.22.225.159<br\/>Up-Time : 2 days, 11:56:04.68","type":"ESR","status":"1","hoto":"1"},{"lat":"22.9796","lng":"72.5914","name":"AMBDCHNLESR002","address":"Sap : I-GJ-AMBD-ENB-6083<br\/>Loopback : 172.22.226.19<br\/>Up-Time : 60 days, 3:13:57.99","type":"ESR","status":"1","hoto":"1"},{"lat":"23.0139","lng":"72.551","name":"AMBDAUDYESR001","address":"Sap : I-GJ-AMBD-ENB-6084<br\/>Loopback : 172.22.226.5<br\/>Up-Time : 63 days, 2:45:09.69","type":"ESR","status":"1","hoto":"1"},{"lat":"22.9993","lng":"72.5499","name":"AMBDSRYSESR001","address":"Sap : I-GJ-AMBD-ENB-6085<br\/>Loopback : 172.22.226.12<br\/>Up-Time : 48 days, 2:46:56.15","type":"ESR","status":"1","hoto":"1"},{"lat":"22.9733","lng":"72.6056","name":"AMBDRMSTESR001","address":"Sap : I-GJ-AMBD-ENB-6086<br\/>Loopback : 172.22.225.164<br\/>Up-Time : 62 days, 1:01:18.48","type":"ESR","status":"1","hoto":"1"},{"lat":"23.0369","lng":"72.6174","name":"AMBDTPVLESR001","address":"Sap : I-GJ-AMBD-ENB-6088<br\/>Loopback : 172.22.225.186<br\/>Up-Time : 30 days, 17:14:44.48","type":"ESR","status":"1","hoto":"1"},{"lat":"23.0868","lng":"72.565","name":"AMBDDGVJESR001","address":"Sap : I-GJ-AMBD-ENB-6090<br\/>Loopback : 172.22.224.103<br\/>Up-Time : 45 days, 4:28:02.13","type":"ESR","status":"1","hoto":"1"},{"lat":"23.0063","lng":"72.5913","name":"AMBDSHKCESR001","address":"Sap : I-GJ-AMBD-ENB-6091<br\/>Loopback : 172.22.225.35<br\/>Up-Time : 27 days, 22:03:04.45","type":"ESR","status":"1","hoto":"1"},{"lat":"23.0035","lng":"72.5416","name":"AMBDRTDSESR001","address":"Sap : I-GJ-AMBD-ENB-6092<br\/>Loopback : 172.22.226.15<br\/>Up-Time : 45 days, 4:17:35.24","type":"ESR","status":"1","hoto":"1"},{"lat":"23.0543","lng":"72.5605","name":"AMBDSMNGESR001","address":"Sap : I-GJ-AMBD-ENB-6093<br\/>Loopback : 172.22.225.132<br\/>Up-Time : 62 days, 5:33:26.69","type":"ESR","status":"1","hoto":"1"},{"lat":"23.0333","lng":"72.6452","name":"AMBDKDRNESR001","address":"Sap : I-GJ-AMBD-ENB-6095<br\/>Loopback : 172.22.225.72<br\/>Up-Time : 45 days, 2:30:46.97","type":"ESR","status":"1","hoto":"1"},{"lat":"23.0668","lng":"72.6441","name":"AMBDNRODESR001","address":"Sap : I-GJ-AMBD-ENB-6096<br\/>Loopback : 172.22.230.67<br\/>Up-Time : 48 days, 2:22:37.40","type":"ESR","status":"1","hoto":"1"},{"lat":"23.0377","lng":"72.5604","name":"AMBDSWSTESR001","address":"Sap : I-GJ-AMBD-ENB-6097<br\/>Loopback : 172.22.225.92<br\/>Up-Time : 45 days, 2:43:54.26","type":"ESR","status":"1","hoto":"1"},{"lat":"23.061","lng":"72.6625","name":"AMBDNVNRESR001","address":"Sap : I-GJ-AMBD-ENB-6098<br\/>Loopback : 172.22.226.169<br\/>Up-Time : 45 days, 4:14:42.92","type":"ESR","status":"1","hoto":"1"},{"lat":"23.0727","lng":"72.55","name":"AMBDSTMNESR001","address":"Sap : I-GJ-AMBD-ENB-6100<br\/>Loopback : 172.22.225.122<br\/>Up-Time : 45 days, 5:38:03.75","type":"ESR","status":"1","hoto":"1"},{"lat":"23.0261","lng":"72.6278","name":"AMBDRKHLESR001","address":"Sap : I-GJ-AMBD-ENB-6101<br\/>Loopback : 172.22.225.70<br\/>Up-Time : 34 days, 7:22:56.52","type":"ESR","status":"1","hoto":"1"},{"lat":"23.0288","lng":"72.5801","name":"AMBDJNPRESR001","address":"Sap : I-GJ-AMBD-ENB-6103<br\/>Loopback : 172.22.225.33<br\/>Up-Time : 14 days, 11:21:31.73","type":"ESR","status":"1","hoto":"1"},{"lat":"23.0665","lng":"72.669","name":"AMBDNVNRESR002","address":"Sap : I-GJ-AMBD-ENB-6104<br\/>Loopback : 172.22.226.174<br\/>Up-Time : 63 days, 4:23:05.23","type":"ESR","status":"1","hoto":"1"},{"lat":"23.0131","lng":"72.6477","name":"AMBDODHVESR003","address":"Sap : I-GJ-AMBD-ENB-6105<br\/>Loopback : 172.22.225.10<br\/>Up-Time : 45 days, 3:31:31.45","type":"ESR","status":"1","hoto":"1"},{"lat":"22.9699","lng":"72.5905","name":"AMBDCHNLESR013","address":"Sap : I-GJ-AMBD-ENB-6106<br\/>Loopback : 172.22.230.155<br\/>Up-Time : 62 days, 1:50:31.58","type":"ESR","status":"1","hoto":"1"},{"lat":"23.0578","lng":"72.6528","name":"AMBDNRDAESR002","address":"Sap : I-GJ-AMBD-ENB-6108<br\/>Loopback : 172.22.226.219<br\/>Up-Time : 63 days, 4:31:44.97","type":"ESR","status":"1","hoto":"1"},{"lat":"23.0044","lng":"72.6324","name":"AMBDRBRCESR001","address":"Sap : I-GJ-AMBD-ENB-6109<br\/>Loopback : 172.22.224.245<br\/>Up-Time : 60 days, 8:47:09.37","type":"ESR","status":"1","hoto":"1"},{"lat":"22.9747","lng":"72.5987","name":"AMBDCHNLESR001","address":"Sap : I-GJ-AMBD-ENB-6110<br\/>Loopback : 172.22.225.161<br\/>Up-Time : 48 days, 8:57:04.93","type":"ESR","status":"1","hoto":"1"},{"lat":"23.0503","lng":"72.5403","name":"AMBDSMRYESR001","address":"Sap : I-GJ-AMBD-ENB-6111<br\/>Loopback : 172.22.225.170<br\/>Up-Time : 6 days, 16:32:41.06","type":"ESR","status":"1","hoto":"1"},{"lat":"22.9896","lng":"72.5975","name":"AMBDARWDESR001","address":"Sap : I-GJ-AMBD-ENB-6112<br\/>Loopback : 172.22.229.76<br\/>Up-Time : 13 days, 11:48:01.26","type":"ESR","status":"1","hoto":"1"},{"lat":"23.0145","lng":"72.6432","name":"AMBDRMRJESR001","address":"Sap : I-GJ-AMBD-ENB-6116<br\/>Loopback : 172.22.225.7<br\/>Up-Time : 33 days, 15:56:22.61","type":"ESR","status":"1","hoto":"1"},{"lat":"23.0189","lng":"72.5224","name":"AMBDNADYESR001","address":"Sap : I-GJ-AMBD-ENB-6117<br\/>Loopback : 172.22.225.108<br\/>Up-Time : 45 days, 5:28:22.97","type":"ESR","status":"1","hoto":"1"},{"lat":"23.006","lng":"72.6254","name":"AMBDUYDVESR001","address":"Sap : I-GJ-AMBD-ENB-6118<br\/>Loopback : 172.22.224.241<br\/>Up-Time : 45 days, 4:00:12.56","type":"ESR","status":"1","hoto":"1"},{"lat":"23.0139","lng":"72.5681","name":"AMBDNUTSESR001","address":"Sap : I-GJ-AMBD-ENB-6119<br\/>Loopback : 172.22.225.253<br\/>Up-Time : 48 days, 2:30:42.19","type":"ESR","status":"1","hoto":"1"},{"lat":"23.0401","lng":"72.6215","name":"AMBDBAPUESR002","address":"Sap : I-GJ-AMBD-ENB-6121<br\/>Loopback : 172.22.225.191<br\/>Up-Time : 60 days, 7:25:12.93","type":"ESR","status":"1","hoto":"1"},{"lat":"23.0439","lng":"72.5825","name":"AMBDMODIESR001","address":"Sap : I-GJ-AMBD-ENB-6122<br\/>Loopback : 172.22.225.23<br\/>Up-Time : 12 days, 3:48:25.78","type":"ESR","status":"1","hoto":"1"},{"lat":"23.0344","lng":"72.5958","name":"AMBDKLPUESR001","address":"Sap : I-GJ-AMBD-ENB-6123<br\/>Loopback : 172.22.224.165<br\/>Up-Time : 45 days, 6:34:24.61","type":"ESR","status":"1","hoto":"1"},{"lat":"23.0211","lng":"72.6037","name":"AMBDSHKTESR001","address":"Sap : I-GJ-AMBD-ENB-6124<br\/>Loopback : 172.22.224.238<br\/>Up-Time : 62 days, 6:15:47.25","type":"ESR","status":"1","hoto":"1"},{"lat":"23.0069","lng":"72.6062","name":"AMBDRMNDESR001","address":"Sap : I-GJ-AMBD-ENB-6125<br\/>Loopback : 172.22.225.48<br\/>Up-Time : 58 days, 8:28:47.43","type":"ESR","status":"1","hoto":"1"},{"lat":"23.0037","lng":"72.5517","name":"AMBDJGTSESR001","address":"Sap : I-GJ-AMBD-ENB-6126<br\/>Loopback : 172.22.226.13<br\/>Up-Time : 1 day, 2:38:59.70","type":"ESR","status":"1","hoto":"1"},{"lat":"23.0499","lng":"72.5642","name":"AMBDBNDSESR001","address":"Sap : I-GJ-AMBD-ENB-6127<br\/>Loopback : 172.22.226.43<br\/>Up-Time : 45 days, 3:36:50.72","type":"ESR","status":"1","hoto":"1"},{"lat":"23.0569","lng":"72.5558","name":"AMBDKSHVESR001","address":"Sap : I-GJ-AMBD-ENB-6128<br\/>Loopback : 172.22.225.134<br\/>Up-Time : 62 days, 5:33:06.85","type":"ESR","status":"1","hoto":"1"},{"lat":"23.0441","lng":"72.5992","name":"AMBDUGPSESR001","address":"Sap : I-GJ-AMBD-ENB-6129<br\/>Loopback : 172.22.225.61<br\/>Up-Time : 62 days, 4:28:07.96","type":"ESR","status":"1","hoto":"1"},{"lat":"23.0124","lng":"72.5856","name":"AMBDJMLPESR001","address":"Sap : I-GJ-AMBD-ENB-6130<br\/>Loopback : 172.22.226.188<br\/>Up-Time : 45 days, 3:18:45.67","type":"ESR","status":"1","hoto":"1"},{"lat":"23.0456","lng":"72.5483","name":"AMBDSUMGESR001","address":"Sap : I-GJ-AMBD-ENB-6131<br\/>Loopback : 172.22.225.216<br\/>Up-Time : 48 days, 2:44:59.05","type":"ESR","status":"1","hoto":"1"},{"lat":"23.0209","lng":"72.5553","name":"AMBDCTYBESR001","address":"Sap : I-GJ-AMBD-ENB-6132<br\/>Loopback : 172.22.226.2<br\/>Up-Time : 45 days, 5:07:28.81","type":"ESR","status":"1","hoto":"1"},{"lat":"23.0212","lng":"72.6231","name":"AMBDSHDHESR002","address":"Sap : I-GJ-AMBD-ENB-6133<br\/>Loopback : 172.22.225.69<br\/>Up-Time : 45 days, 7:06:42.30","type":"ESR","status":"1","hoto":"1"},{"lat":"22.992","lng":"72.6184","name":"AMBDRGBRESR001","address":"Sap : I-GJ-AMBD-ENB-6134<br\/>Loopback : 172.22.225.160<br\/>Up-Time : 45 days, 6:24:51.90","type":"ESR","status":"1","hoto":"1"},{"lat":"23.0271","lng":"72.5827","name":"AMBDGKNTESR001","address":"Sap : I-GJ-AMBD-ENB-6135<br\/>Loopback : 172.22.225.30<br\/>Up-Time : 45 days, 3:54:10.00","type":"ESR","status":"1","hoto":"1"},{"lat":"22.9777","lng":"72.6091","name":"AMBDMGLTESR001","address":"Sap : I-GJ-AMBD-ENB-6137<br\/>Loopback : 172.22.225.165<br\/>Up-Time : 62 days, 1:01:11.14","type":"ESR","status":"1","hoto":"1"},{"lat":"23.0344","lng":"72.5568","name":"AMBDVSNHESR001","address":"Sap : I-GJ-AMBD-ENB-6138<br\/>Loopback : 172.22.225.93<br\/>Up-Time : 45 days, 6:59:49.57","type":"ESR","status":"1","hoto":"1"},{"lat":"23.0307","lng":"72.5677","name":"AMBDMTKSESR001","address":"Sap : I-GJ-AMBD-ENB-6139<br\/>Loopback : 172.22.225.95<br\/>Up-Time : 62 days, 6:21:45.96","type":"ESR","status":"1","hoto":"1"},{"lat":"23.0534","lng":"72.6417","name":"AMBDKUIAESR001","address":"Sap : I-GJ-AMBD-ENB-6140<br\/>Loopback : 172.22.230.58<br\/>Up-Time : 52 days, 5:34:28.63","type":"ESR","status":"1","hoto":"1"},{"lat":"23.0222","lng":"72.5916","name":"AMBDKHDAESR003","address":"Sap : I-GJ-AMBD-ENB-6142<br\/>Loopback : 172.22.236.82<br\/>Up-Time : 41 days, 6:18:02.37","type":"ESR","status":"1","hoto":"1"},{"lat":"23.0904","lng":"72.5853","name":"AMBDNRLYESR001","address":"Sap : I-GJ-AMBD-ENB-6143<br\/>Loopback : 172.22.224.160<br\/>Up-Time : 45 days, 6:34:26.59","type":"ESR","status":"1","hoto":"1"},{"lat":"23.0086","lng":"72.5314","name":"AMBDVLBCESR001","address":"Sap : I-GJ-AMBD-ENB-6144<br\/>Loopback : 172.22.225.217<br\/>Up-Time : 63 days, 2:03:35.76","type":"ESR","status":"1","hoto":"1"},{"lat":"23.0392","lng":"72.5653","name":"AMBDSHKSESR001","address":"Sap : I-GJ-AMBD-ENB-6145<br\/>Loopback : 172.22.230.25<br\/>Up-Time : 58 days, 4:44:10.74","type":"ESR","status":"1","hoto":"1"},{"lat":"23.0803","lng":"72.5678","name":"AMBDVWKMESR001","address":"Sap : I-GJ-AMBD-ENB-6146<br\/>Loopback : 172.22.224.99<br\/>Up-Time : 45 days, 6:54:57.56","type":"ESR","status":"1","hoto":"1"},{"lat":"23.0691","lng":"72.5416","name":"AMBDDNLXESR001","address":"Sap : I-GJ-AMBD-ENB-6148<br\/>Loopback : 172.22.225.124<br\/>Up-Time : 45 days, 5:37:54.09","type":"ESR","status":"1","hoto":"1"},{"lat":"23.0234","lng":"72.5289","name":"AMBDPTCLESR001","address":"Sap : I-GJ-AMBD-ENB-6149<br\/>Loopback : 172.22.225.213<br\/>Up-Time : 45 days, 6:21:59.96","type":"ESR","status":"1","hoto":"1"},{"lat":"23.0217","lng":"72.5679","name":"AMBDSNTNESR001","address":"Sap : I-GJ-AMBD-ENB-6151<br\/>Loopback : 172.22.225.99<br\/>Up-Time : 39 days, 16:56:03.06","type":"ESR","status":"1","hoto":"1"},{"lat":"23.013","lng":"72.5458","name":"AMBDBDRPESR001","address":"Sap : I-GJ-AMBD-ENB-6152<br\/>Loopback : 172.22.225.210<br\/>Up-Time : 20 days, 14:54:50.45","type":"ESR","status":"1","hoto":"1"},{"lat":"22.995","lng":"72.5296","name":"AMBDMNSRESR001","address":"Sap : I-GJ-AMBD-ENB-6154<br\/>Loopback : 172.22.233.166<br\/>Up-Time : 3 days, 21:49:19.12","type":"ESR","status":"1","hoto":"1"},{"lat":"23.053","lng":"72.6178","name":"AMBDKLPNESR001","address":"Sap : I-GJ-AMBD-ENB-6156<br\/>Loopback : 172.22.226.217<br\/>Up-Time : 63 days, 1:03:06.97","type":"ESR","status":"1","hoto":"1"},{"lat":"23.0401","lng":"72.6411","name":"AMBDTHKRESR001","address":"Sap : I-GJ-AMBD-ENB-6158<br\/>Loopback : 172.22.225.240<br\/>Up-Time : 60 days, 6:05:31.10","type":"ESR","status":"1","hoto":"1"},{"lat":"23.0246","lng":"72.6459","name":"AMBDVRTNESR003","address":"Sap : I-GJ-AMBD-ENB-6159<br\/>Loopback : 172.22.225.71<br\/>Up-Time : 45 days, 7:08:55.33","type":"ESR","status":"1","hoto":"1"},{"lat":"22.9968","lng":"72.6043","name":"AMBDRDHVESR001","address":"Sap : I-GJ-AMBD-ENB-6160<br\/>Loopback : 172.22.225.49<br\/>Up-Time : 62 days, 3:38:33.06","type":"ESR","status":"1","hoto":"1"},{"lat":"22.9927","lng":"72.6321","name":"AMBDNNSLESR001","address":"Sap : I-GJ-AMBD-ENB-6161<br\/>Loopback : 172.22.225.43<br\/>Up-Time : 2 days, 18:19:09.89","type":"ESR","status":"1","hoto":"1"},{"lat":"22.9747","lng":"72.59","name":"AMBDCHNLESR007","address":"Sap : I-GJ-AMBD-ENB-6162<br\/>Loopback : 172.22.226.20<br\/>Up-Time : 34 days, 6:44:39.39","type":"ESR","status":"1","hoto":"1"},{"lat":"23.0027","lng":"72.5853","name":"AMBDBHMPESR002","address":"Sap : I-GJ-AMBD-ENB-6164<br\/>Loopback : 172.22.225.52<br\/>Up-Time : 4 days, 5:11:21.27","type":"ESR","status":"1","hoto":"1"},{"lat":"23.0737","lng":"72.653","name":"AMBDNVNRESR003","address":"Sap : I-GJ-AMBD-ENB-6165<br\/>Loopback : 172.22.227.224<br\/>Up-Time : 63 days, 4:29:57.03","type":"ESR","status":"1","hoto":"1"},{"lat":"22.9853","lng":"72.5019","name":"AMBDNMNNESR004","address":"Sap : I-GJ-AMBD-ENB-6166<br\/>Loopback : 172.22.226.121<br\/>Up-Time : 11 days, 7:42:13.55","type":"ESR","status":"1","hoto":"1"},{"lat":"23.0536","lng":"72.5356","name":"AMBDCDRLESR001","address":"Sap : I-GJ-AMBD-ENB-6168<br\/>Loopback : 172.22.225.171<br\/>Up-Time : 3 days, 10:51:45.51","type":"ESR","status":"1","hoto":"1"},{"lat":"23.0288","lng":"72.5585","name":"AMBDLXMQESR001","address":"Sap : I-GJ-AMBD-ENB-6169<br\/>Loopback : 172.22.225.83<br\/>Up-Time : 58 days, 5:17:06.53","type":"ESR","status":"1","hoto":"1"},{"lat":"22.997","lng":"72.6118","name":"AMBDKLYNESR001","address":"Sap : I-GJ-AMBD-ENB-6173<br\/>Loopback : 172.22.225.45<br\/>Up-Time : 63 days, 2:46:35.22","type":"ESR","status":"1","hoto":"1"},{"lat":"23.0191","lng":"72.5978","name":"AMBDRPERESR002","address":"Sap : I-GJ-AMBD-ENB-6174<br\/>Loopback : 172.22.234.10<br\/>Up-Time : 58 days, 7:00:22.47","type":"ESR","status":"1","hoto":"1"},{"lat":"23.0022","lng":"72.5176","name":"AMBDJUHPESR001","address":"Sap : I-GJ-AMBD-ENB-6176<br\/>Loopback : 172.22.225.118<br\/>Up-Time : 30 days, 15:17:22.78","type":"ESR","status":"1","hoto":"1"},{"lat":"23.0669","lng":"72.5838","name":"AMBDAVDKPAR001","address":"Sap : I-GJ-AMBD-ENB-6177<br\/>Loopback : 172.16.34.25<br\/> ","type":"PAR","status":"0","hoto":"1"},{"lat":"23.0669","lng":"72.5838","name":"AMBDAVDKESR001","address":"Sap : I-GJ-AMBD-ENB-6177<br\/>Loopback : 172.22.230.122<br\/>Up-Time : 52 days, 5:45:38.61","type":"ESR","status":"1","hoto":"1"},{"lat":"22.9967","lng":"72.5531","name":"AMBDHRMGESR001","address":"Sap : I-GJ-AMBD-ENB-6181<br\/>Loopback : 172.22.226.11<br\/>Up-Time : 48 days, 2:44:05.70","type":"ESR","status":"1","hoto":"1"},{"lat":"23.0468","lng":"72.6595","name":"AMBDNRDAESR005","address":"Sap : I-GJ-AMBD-ENB-6182<br\/>Loopback : 172.22.225.233<br\/>Up-Time : 45 days, 6:00:10.15","type":"ESR","status":"1","hoto":"1"},{"lat":"23.0352","lng":"72.5631","name":"AMBDKLNSESR001","address":"Sap : I-GJ-AMBD-ENB-6184<br\/>Loopback : 172.22.225.97<br\/>Up-Time : 58 days, 6:45:05.79","type":"ESR","status":"1","hoto":"1"},{"lat":"23.0233","lng":"72.5866","name":"AMBDMCPLESR001","address":"Sap : I-GJ-AMBD-ENB-6186<br\/>Loopback : 172.22.233.217<br\/>Up-Time : 58 days, 7:04:07.14","type":"ESR","status":"1","hoto":"1"},{"lat":"23.0769","lng":"72.5519","name":"AMBDGRJSESR001","address":"Sap : I-GJ-AMBD-ENB-6191<br\/>Loopback : 172.22.224.112<br\/>Up-Time : 4 days, 12:46:29.22","type":"ESR","status":"1","hoto":"1"},{"lat":"23.0309","lng":"72.6103","name":"AMBDSRPRESR001","address":"Sap : I-GJ-AMBD-ENB-6193<br\/>Loopback : 172.22.225.64<br\/>Up-Time : 30 days, 18:12:03.07","type":"ESR","status":"1","hoto":"1"},{"lat":"23.0086","lng":"72.5952","name":"AMBDMNCPESR001","address":"Sap : I-GJ-AMBD-ENB-6194<br\/>Loopback : 172.22.226.193<br\/>Up-Time : 44 days, 18:27:15.37","type":"ESR","status":"1","hoto":"1"},{"lat":"23.0173","lng":"72.5303","name":"AMBDVDVNESR001","address":"Sap : I-GJ-AMBD-ENB-6195<br\/>Loopback : 172.22.225.202<br\/>Up-Time : 62 days, 2:43:43.21","type":"ESR","status":"1","hoto":"1"},{"lat":"23.027","lng":"72.5706","name":"AMBDSRTDESR001","address":"Sap : I-GJ-AMBD-ENB-6196<br\/>Loopback : 172.22.225.101<br\/>Up-Time : 20 days, 8:44:22.84","type":"ESR","status":"1","hoto":"1"},{"lat":"23.0173","lng":"72.6351","name":"AMBDSNCLESR001","address":"Sap : I-GJ-AMBD-ENB-6198<br\/>Loopback : 172.22.225.4<br\/>Up-Time : 45 days, 5:45:29.51","type":"ESR","status":"1","hoto":"1"},{"lat":"23.0371","lng":"72.6297","name":"AMBDBPHSESR001","address":"Sap : I-GJ-AMBD-ENB-6199<br\/>Loopback : 172.22.232.117<br\/>Up-Time : 60 days, 7:18:39.68","type":"ESR","status":"1","hoto":"1"},{"lat":"23.0353","lng":"72.5353","name":"AMBDDOSHESR001","address":"Sap : I-GJ-AMBD-ENB-6203<br\/>Loopback : 172.22.225.200<br\/>Up-Time : 48 days, 2:25:39.06","type":"ESR","status":"1","hoto":"1"},{"lat":"23.0375","lng":"72.5701","name":"AMBDKRSCESR001","address":"Sap : I-GJ-AMBD-ENB-6205<br\/>Loopback : 172.22.225.84<br\/>Up-Time : 16:42:27.28","type":"ESR","status":"1","hoto":"1"},{"lat":"22.975","lng":"72.5789","name":"AMBDCHNLESR010","address":"Sap : I-GJ-AMBD-ENB-6206<br\/>Loopback : 172.22.226.27<br\/>Up-Time : 25 days, 16:34:36.82","type":"ESR","status":"1","hoto":"1"},{"lat":"22.9965","lng":"72.5795","name":"AMBDDNILESR003","address":"Sap : I-GJ-AMBD-ENB-6207<br\/>Loopback : 172.22.233.172<br\/>Up-Time : 58 days, 6:19:26.26","type":"ESR","status":"1","hoto":"1"},{"lat":"22.9931","lng":"72.6256","name":"AMBDMNNGESR002","address":"Sap : I-GJ-AMBD-ENB-6211<br\/>Loopback : 172.22.226.149<br\/>Up-Time : 45 days, 3:52:08.98","type":"ESR","status":"1","hoto":"1"},{"lat":"23.0752","lng":"72.5396","name":"AMBDCNKBESR001","address":"Sap : I-GJ-AMBD-ENB-6212<br\/>Loopback : 172.22.224.201<br\/>Up-Time : 22 days, 14:19:19.56","type":"ESR","status":"1","hoto":"1"},{"lat":"22.9624","lng":"72.6014","name":"AMBDCHNLESR012","address":"Sap : I-GJ-AMBD-ENB-6213<br\/>Loopback : 172.22.224.134<br\/>Up-Time : 45 days, 6:00:18.14","type":"ESR","status":"1","hoto":"1"},{"lat":"23.0378","lng":"72.6492","name":"AMBDSLDHESR001","address":"Sap : I-GJ-AMBD-ENB-6214<br\/>Loopback : 172.22.230.50<br\/>Up-Time : 1 day, 11:56:52.04","type":"ESR","status":"1","hoto":"1"},{"lat":"22.9972","lng":"72.541","name":"AMBDVSHAESR001","address":"Sap : I-GJ-AMBD-ENB-6216<br\/>Loopback : 172.22.225.250<br\/>Up-Time : 48 days, 2:31:20.10","type":"ESR","status":"1","hoto":"1"},{"lat":"23.0101","lng":"72.5628","name":"AMBDPTKSESR001","address":"Sap : I-GJ-AMBD-ENB-6217<br\/>Loopback : 172.22.225.251<br\/>Up-Time : 61 days, 19:06:26.41","type":"ESR","status":"1","hoto":"1"},{"lat":"23.0156","lng":"72.6696","name":"AMBDODHVESR005","address":"Sap : I-GJ-AMBD-ENB-6218<br\/>Loopback : 172.22.226.141<br\/>Up-Time : 58 days, 7:59:53.41","type":"ESR","status":"1","hoto":"1"},{"lat":"23.0179","lng":"72.5103","name":"AMBDGJRTESR001","address":"Sap : I-GJ-AMBD-ENB-6219<br\/>Loopback : 172.22.225.111<br\/>Up-Time : 63 days, 4:31:42.62","type":"ESR","status":"1","hoto":"1"},{"lat":"23.0395","lng":"72.5807","name":"AMBDSHAHESR001","address":"Sap : I-GJ-AMBD-ENB-6220<br\/>Loopback : 172.22.225.29<br\/>Up-Time : 63 days, 4:24:17.81","type":"ESR","status":"1","hoto":"1"},{"lat":"23.0053","lng":"72.6428","name":"AMBDRMRJESR003","address":"Sap : I-GJ-AMBD-ENB-6221<br\/>Loopback : 172.22.224.247<br\/>Up-Time : 45 days, 4:08:10.16","type":"ESR","status":"1","hoto":"1"},{"lat":"23.0491","lng":"72.5895","name":"AMBDOANNESR001","address":"Sap : I-GJ-AMBD-ENB-6222<br\/>Loopback : 172.22.224.172<br\/>Up-Time : 63 days, 4:24:44.48","type":"ESR","status":"1","hoto":"1"},{"lat":"23.0191","lng":"72.5941","name":"AMBDRPRCESR001","address":"Sap : I-GJ-AMBD-ENB-6223<br\/>Loopback : 172.22.236.78<br\/>Up-Time : 14 days, 15:47:39.98","type":"ESR","status":"1","hoto":"1"},{"lat":"23.0762","lng":"72.5591","name":"AMBDNRYRESR001","address":"Sap : I-GJ-AMBD-ENB-6226<br\/>Loopback : 172.22.224.113<br\/>Up-Time : 58 days, 8:22:14.12","type":"ESR","status":"1","hoto":"1"},{"lat":"22.9831","lng":"72.5812","name":"AMBDCHNLESR008","address":"Sap : I-GJ-AMBD-ENB-6227<br\/>Loopback : 172.22.226.26<br\/>Up-Time : 63 days, 5:16:50.28","type":"ESR","status":"1","hoto":"1"},{"lat":"23.0869","lng":"72.544","name":"AMBDGJRJESR002","address":"Sap : I-GJ-AMBD-ENB-6228<br\/>Loopback : 172.22.224.213<br\/>Up-Time : 45 days, 4:08:05.06","type":"ESR","status":"1","hoto":"1"},{"lat":"23.498","lng":"72.534","name":"AMBDBKTRESR001","address":"Sap : I-GJ-AMBD-ENB-6229<br\/>Loopback : 172.22.225.179<br\/>Up-Time : 45 days, 11:35:33.09","type":"ESR","status":"1","hoto":"1"},{"lat":"23.0491","lng":"72.6016","name":"AMBDPTLSESR001","address":"Sap : I-GJ-AMBD-ENB-6230<br\/>Loopback : 172.22.225.60<br\/>Up-Time : 13 days, 21:21:07.72","type":"ESR","status":"1","hoto":"1"},{"lat":"23.0734","lng":"72.5341","name":"AMBDCNKFESR001","address":"Sap : I-GJ-AMBD-ENB-6232<br\/>Loopback : 172.22.224.202<br\/>Up-Time : 19:13:24.52","type":"ESR","status":"1","hoto":"1"},{"lat":"23.0332","lng":"72.5605","name":"AMBDKDYCESR001","address":"Sap : I-GJ-AMBD-ENB-6233<br\/>Loopback : 172.22.225.94<br\/>Up-Time : 45 days, 6:42:22.02","type":"ESR","status":"1","hoto":"1"},{"lat":"22.971","lng":"72.6178","name":"AMBDSRYAESR001","address":"Sap : I-GJ-AMBD-ENB-6234<br\/>Loopback : 172.22.225.157<br\/>Up-Time : 63 days, 3:29:31.23","type":"ESR","status":"1","hoto":"1"},{"lat":"23.0427","lng":"72.6296","name":"AMBDBPNGESR001","address":"Sap : I-GJ-AMBD-ENB-6237<br\/>Loopback : 172.22.225.181<br\/>Up-Time : 60 days, 4:22:07.72","type":"ESR","status":"1","hoto":"1"},{"lat":"22.9962","lng":"72.5057","name":"AMBDMKBVESR003","address":"Sap : I-GJ-AMBD-ENB-6238<br\/>Loopback : 172.22.225.117<br\/>Up-Time : 47 days, 18:26:24.72","type":"ESR","status":"1","hoto":"1"},{"lat":"23.0245","lng":"72.5967","name":"AMBDSRGPESR001","address":"Sap : I-GJ-AMBD-ENB-6239<br\/>Loopback : 172.22.225.20<br\/>Up-Time : 48 days, 2:19:31.90","type":"ESR","status":"1","hoto":"1"},{"lat":"23.0007","lng":"72.5999","name":"AMBDGURGESR001","address":"Sap : I-GJ-AMBD-ENB-6240<br\/>Loopback : 172.22.225.37<br\/>Up-Time : 63 days, 4:31:31.29","type":"ESR","status":"1","hoto":"1"},{"lat":"23.0125","lng":"72.6186","name":"AMBDHRPRESR001","address":"Sap : I-GJ-AMBD-ENB-6241<br\/>Loopback : 172.22.224.237<br\/>Up-Time : 62 days, 2:00:58.70","type":"ESR","status":"1","hoto":"1"},{"lat":"23.0733","lng":"72.661","name":"AMBDBLSYESR003","address":"Sap : I-GJ-AMBD-ENB-6243<br\/>Loopback : 172.22.226.156<br\/>Up-Time : 60 days, 8:45:15.54","type":"ESR","status":"1","hoto":"1"},{"lat":"22.9987","lng":"72.5633","name":"AMBDJLNTESR001","address":"Sap : I-GJ-AMBD-ENB-6245<br\/>Loopback : 172.22.230.138<br\/>Up-Time : 45 days, 4:44:02.10","type":"ESR","status":"1","hoto":"1"},{"lat":"23.058","lng":"72.6175","name":"AMBDMGHNESR001","address":"Sap : I-GJ-AMBD-ENB-6246<br\/>Loopback : 172.22.226.216<br\/>Up-Time : 63 days, 2:45:26.61","type":"ESR","status":"1","hoto":"1"},{"lat":"23.0717","lng":"72.6365","name":"AMBDKBERESR002","address":"Sap : I-GJ-AMBD-ENB-6247<br\/>Loopback : 172.22.230.54<br\/>Up-Time : 45 days, 4:36:42.50","type":"ESR","status":"1","hoto":"1"},{"lat":"23.0288","lng":"72.643","name":"AMBDVRTNESR002","address":"Sap : I-GJ-AMBD-ENB-6249<br\/>Loopback : 172.22.225.75<br\/>Up-Time : 13 days, 14:42:12.68","type":"ESR","status":"1","hoto":"1"},{"lat":"23.0929","lng":"72.6579","name":"AMBDNBLNESR001","address":"Sap : I-GJ-AMBD-ENB-6251<br\/>Loopback : 172.22.224.84<br\/>Up-Time : 42 days, 2:52:04.27","type":"ESR","status":"1","hoto":"1"},{"lat":"23.0413","lng":"72.5513","name":"AMBDRPNGESR001","address":"Sap : I-GJ-AMBD-ENB-6252<br\/>Loopback : 172.22.225.90<br\/>Up-Time : 45 days, 7:08:38.46","type":"ESR","status":"1","hoto":"1"},{"lat":"23.085","lng":"72.5713","name":"AMBDGHNSESR001","address":"Sap : I-GJ-AMBD-ENB-6253<br\/>Loopback : 172.22.230.4<br\/>Up-Time : 45 days, 4:00:18.56","type":"ESR","status":"1","hoto":"1"},{"lat":"23.047","lng":"72.6192","name":"AMBDBUDHESR001","address":"Sap : I-GJ-AMBD-ENB-6254<br\/>Loopback : 172.22.225.185<br\/>Up-Time : 60 days, 4:16:33.04","type":"ESR","status":"1","hoto":"1"},{"lat":"23.0408","lng":"72.5931","name":"AMBDVSDVESR001","address":"Sap : I-GJ-AMBD-ENB-6255<br\/>Loopback : 172.22.229.97<br\/>Up-Time : 58 days, 6:26:56.73","type":"ESR","status":"1","hoto":"1"},{"lat":"23.0642","lng":"72.5302","name":"AMBDNEKMESR001","address":"Sap : I-GJ-AMBD-ENB-6256<br\/>Loopback : 172.22.236.79<br\/>Up-Time : 3 days, 11:05:30.12","type":"ESR","status":"1","hoto":"1"},{"lat":"23.0308","lng":"72.5918","name":"AMBDLTBZESR001","address":"Sap : I-GJ-AMBD-ENB-6257<br\/>Loopback : 172.22.224.176<br\/>Up-Time : 61 days, 4:27:41.78","type":"ESR","status":"1","hoto":"1"},{"lat":"22.9886","lng":"72.5086","name":"AMBDMKBVESR001","address":"Sap : I-GJ-AMBD-ENB-6258<br\/>Loopback : 172.22.226.122<br\/>Up-Time : 14 days, 17:16:19.58","type":"ESR","status":"1","hoto":"1"},{"lat":"23.0884","lng":"72.6653","name":"AMBDAMDBESR002","address":"Sap : I-GJ-AMBD-ENB-6259<br\/>Loopback : 172.22.224.89<br\/>Up-Time : 45 days, 7:09:30.96","type":"ESR","status":"1","hoto":"1"},{"lat":"23.0127","lng":"72.5199","name":"AMBDNRKJESR001","address":"Sap : I-GJ-AMBD-ENB-6262<br\/>Loopback : 172.22.225.107<br\/>Up-Time : 45 days, 2:38:00.96","type":"ESR","status":"1","hoto":"1"},{"lat":"23.0091","lng":"72.6219","name":"AMBDPLLAESR001","address":"Sap : I-GJ-AMBD-ENB-6263<br\/>Loopback : 172.22.224.240<br\/>Up-Time : 45 days, 4:07:13.05","type":"ESR","status":"1","hoto":"1"},{"lat":"23.0408","lng":"72.6451","name":"AMBDIDACESR001","address":"Sap : I-GJ-AMBD-ENB-6265<br\/>Loopback : 172.22.225.236<br\/>Up-Time : 60 days, 5:32:00.84","type":"ESR","status":"1","hoto":"1"},{"lat":"23.0799","lng":"72.6485","name":"AMBDKBERESR003","address":"Sap : I-GJ-AMBD-ENB-6266<br\/>Loopback : 172.22.224.85<br\/>Up-Time : 60 days, 6:04:50.99","type":"ESR","status":"1","hoto":"1"},{"lat":"23.0254","lng":"72.5664","name":"AMBDSDNAESR001","address":"Sap : I-GJ-AMBD-ENB-6267<br\/>Loopback : 172.22.225.98<br\/>Up-Time : 39 days, 14:53:24.31","type":"ESR","status":"1","hoto":"1"},{"lat":"23.0551","lng":"72.6289","name":"AMBDSBBNESR001","address":"Sap : I-GJ-AMBD-ENB-6268<br\/>Loopback : 172.22.225.183<br\/>Up-Time : 60 days, 4:21:04.23","type":"ESR","status":"1","hoto":"1"},{"lat":"23.081","lng":"72.6327","name":"AMBDHNSLESR001","address":"Sap : I-GJ-AMBD-ENB-6269<br\/>Loopback : 172.22.224.93<br\/>Up-Time : 45 days, 6:53:17.55","type":"ESR","status":"1","hoto":"1"},{"lat":"23.0099","lng":"72.5805","name":"AMBDSWGFESR002","address":"Sap : I-GJ-AMBD-ENB-6270<br\/>Loopback : 172.22.233.79<br\/>Up-Time : 60 days, 3:11:12.67","type":"ESR","status":"1","hoto":"1"},{"lat":"23.0253","lng":"72.5925","name":"AMBDKHDAESR002","address":"Sap : I-GJ-AMBD-ENB-6271<br\/>Loopback : 172.22.225.22<br\/>Up-Time : 43 days, 13:30:48.38","type":"ESR","status":"1","hoto":"1"},{"lat":"22.964","lng":"72.5827","name":"AMBDNROLESR006","address":"Sap : I-GJ-AMBD-ENB-6272<br\/>Loopback : 172.22.224.138<br\/>Up-Time : 18 days, 21:05:58.61","type":"ESR","status":"1","hoto":"1"},{"lat":"22.9693","lng":"72.5958","name":"AMBDCHNLESR009","address":"Sap : I-GJ-AMBD-ENB-6274<br\/>Loopback : 172.22.225.162<br\/>Up-Time : 62 days, 1:07:16.63","type":"ESR","status":"1","hoto":"1"},{"lat":"23.0165","lng":"72.6245","name":"AMBDSRJSESR001","address":"Sap : I-GJ-AMBD-ENB-6277<br\/>Loopback : 172.22.224.235<br\/>Up-Time : 48 days, 2:44:53.07","type":"ESR","status":"1","hoto":"1"},{"lat":"23.0517","lng":"72.6583","name":"AMBDNRDAESR007","address":"Sap : I-GJ-AMBD-ENB-6278<br\/>Loopback : 172.22.231.8<br\/>Up-Time : 6 days, 20:46:19.43","type":"ESR","status":"1","hoto":"1"},{"lat":"23.0505","lng":"72.5045","name":"AMBDHBTPESR001","address":"Sap : I-GJ-AMBD-ENB-6282<br\/>Loopback : 172.22.224.177<br\/>Up-Time : 45 days, 5:16:22.87","type":"ESR","status":"1","hoto":"1"},{"lat":"23.0821","lng":"72.4976","name":"AMBDGOTAESR001","address":"Sap : I-GJ-AMBD-ENB-6283<br\/>Loopback : 172.22.224.209<br\/>Up-Time : 38 days, 13:45:39.15","type":"ESR","status":"1","hoto":"1"},