var maplatlng = {"latlng":[{"lat":"31.685","lng":"76.1249","name":"AAMBAAMBESR001","address":"Sap : I-HP-AAMB-ENB-0001<br\/>Loopback : 172.22.163.164<br\/>Up-Time : 55 days, 5:05:00.52","type":"ESR","status":"1","hoto":"1"},{"lat":"31.6863","lng":"76.1156","name":"AAMBAAMBESR003","address":"Sap : I-HP-AAMB-ENB-0002<br\/>Loopback : 172.22.165.54<br\/>Up-Time : 44 days, 3:21:46.04","type":"ESR","status":"1","hoto":"1"},{"lat":"31.6763","lng":"76.1165","name":"AAMBAAMBESR005","address":"Sap : I-HP-AAMB-ENB-0003<br\/>Loopback : 172.22.163.162<br\/>Up-Time : 4 days, 23:22:37.35","type":"ESR","status":"1","hoto":"1"},{"lat":"31.7058","lng":"76.1649","name":"AAMBAAMBESR011","address":"Sap : I-HP-AAMB-ENB-6001<br\/>Loopback : 172.22.162.83<br\/>Up-Time : 30 days, 14:01:36.06","type":"ESR","status":"1","hoto":"1"},{"lat":"31.7666","lng":"75.9897","name":"AAMBAAMBESR010","address":"Sap : I-HP-AAMB-ENB-6002<br\/>Loopback : 172.22.169.26<br\/>Up-Time : 44 days, 2:57:27.49","type":"ESR","status":"1","hoto":"1"},{"lat":"31.8406","lng":"76.0688","name":"BRWIBRWIESR003","address":"Sap : I-HP-AAMB-ENB-6003<br\/>Loopback : 172.22.169.24<br\/>Up-Time : 44 days, 2:57:38.27","type":"ESR","status":"1","hoto":"1"},{"lat":"31.7819","lng":"76.1127","name":"BRWIBRWIESR001","address":"Sap : I-HP-AAMB-ENB-6004<br\/>Loopback : 172.22.168.3<br\/>Up-Time : 51 days, 5:19:31.82","type":"ESR","status":"1","hoto":"1"},{"lat":"31.8193","lng":"76.5458","name":"TRSJTRSJESR003","address":"Sap : I-HP-AAMB-ENB-6005<br\/>Loopback : 172.22.169.25<br\/>Up-Time : 11 days, 13:25:49.41","type":"ESR","status":"1","hoto":"1"},{"lat":"31.7385","lng":"76.1878","name":"AAMBAAMBESR002","address":"Sap : I-HP-AAMB-ENB-9008<br\/>Loopback : 172.22.160.89<br\/>Up-Time : 44 days, 3:00:08.53","type":"ESR","status":"1","hoto":"1"},{"lat":"31.6988","lng":"76.1127","name":"AAMBAAMBESR009","address":"Sap : I-HP-AAMB-ENB-H001<br\/>Loopback : 172.22.169.23<br\/>Up-Time : 51 days, 5:17:58.82","type":"ESR","status":"1","hoto":"1"},{"lat":"31.3649","lng":"77.4534","name":"ANIAANIAESR001","address":"Sap : I-HP-ANIA-ENB-6004<br\/>Loopback : 172.22.170.146<br\/>Up-Time : 5 days, 13:10:42.85","type":"ESR","status":"1","hoto":"1"},{"lat":"31.4041","lng":"77.4349","name":"ANIAANIAESR002","address":"Sap : I-HP-ANIA-ENB-6006<br\/>Loopback : 172.22.170.147<br\/>Up-Time : 51 days, 4:22:27.53","type":"ESR","status":"1","hoto":"1"},{"lat":"31.1479","lng":"76.9647","name":"ARKIARKIESR004","address":"Sap : I-HP-ARKI-ENB-6000<br\/>Loopback : 172.22.169.125<br\/>Up-Time : 61 days, 4:01:52.24","type":"ESR","status":"1","hoto":"1"},{"lat":"31.1282","lng":"76.9152","name":"ARKIARKIESR006","address":"Sap : I-HP-ARKI-ENB-6002<br\/>Loopback : 172.22.162.99<br\/>Up-Time : 55 days, 4:02:21.08","type":"ESR","status":"1","hoto":"1"},{"lat":"31.0742","lng":"76.9557","name":"ARKIARKIESR003","address":"Sap : I-HP-ARKI-ENB-6003<br\/>Loopback : 172.22.161.242<br\/>Up-Time : 55 days, 6:04:02.14","type":"ESR","status":"1","hoto":"1"},{"lat":"31.2766","lng":"76.8994","name":"DRGTDRGTESR005","address":"Sap : I-HP-ARKI-ENB-6004<br\/>Loopback : 172.22.162.100<br\/>Up-Time : 61 days, 4:13:43.76","type":"ESR","status":"1","hoto":"1"},{"lat":"31.1544","lng":"77.0351","name":"ARKIARKIESR002","address":"Sap : I-HP-ARKI-ENB-6006<br\/>Loopback : 172.22.160.131<br\/>Up-Time : 44 days, 3:00:44.59","type":"ESR","status":"1","hoto":"1"},{"lat":"31.2215","lng":"76.9634","name":"ARKIARKIESR001","address":"Sap : I-HP-ARKI-ENB-6007<br\/>Loopback : 172.22.160.126<br\/>Up-Time : 44 days, 2:33:58.05","type":"ESR","status":"1","hoto":"1"},{"lat":"31.2407","lng":"76.9065","name":"DRGTDRGTESR001","address":"Sap : I-HP-ARKI-ENB-9009<br\/>Loopback : 172.22.160.121<br\/>Up-Time : 44 days, 2:27:08.96","type":"ESR","status":"1","hoto":"1"},{"lat":"31.2483","lng":"76.8785","name":"DRGTDRGTESR002","address":"Sap : I-HP-ARKI-ENB-9010<br\/>Loopback : 172.22.160.119<br\/>Up-Time : 30 days, 15:50:10.62","type":"ESR","status":"1","hoto":"1"},{"lat":"31.2439","lng":"76.9254","name":"DRGTDRGTESR003","address":"Sap : I-HP-ARKI-ENB-9011<br\/>Loopback : 172.22.163.161<br\/>Up-Time : 61 days, 4:06:08.45","type":"ESR","status":"1","hoto":"1"},{"lat":"31.2348","lng":"76.9345","name":"DRGTDRGTESR004","address":"Sap : I-HP-ARKI-ENB-9012<br\/>Loopback : 172.22.160.123<br\/>Up-Time : 61 days, 4:06:24.16","type":"ESR","status":"1","hoto":"1"},{"lat":"31.2174","lng":"76.9485","name":"ARKIARKIESR005","address":"Sap : I-HP-ARKI-ENB-9013<br\/>Loopback : 172.22.169.22<br\/>Up-Time : 44 days, 3:00:38.63","type":"ESR","status":"1","hoto":"1"},{"lat":"31.1865","lng":"76.9863","name":"SLGTSLGTESR001","address":"Sap : I-HP-ARKI-ENB-9014<br\/>Loopback : 172.22.169.126<br\/>Up-Time : 51 days, 4:54:10.04","type":"ESR","status":"1","hoto":"1"},{"lat":"31.805","lng":"77.1581","name":"AUTTAUTTESR003","address":"Sap : I-HP-AUTT-ENB-6000<br\/>Loopback : 172.22.163.109<br\/>Up-Time : 55 days, 5:12:27.15","type":"ESR","status":"1","hoto":"1"},{"lat":"31.7115","lng":"77.1986","name":"AUTTAUTTESR002","address":"Sap : I-HP-AUTT-ENB-9002<br\/>Loopback : 172.22.163.102<br\/>Up-Time : 55 days, 6:08:10.07","type":"ESR","status":"1","hoto":"1"},{"lat":"30.9559","lng":"76.7879","name":"BDDIBDDIESR001","address":"Sap : I-HP-BDDI-ENB-0002<br\/>Loopback : 172.22.164.64<br\/>Up-Time : 42 days, 17:41:25.87","type":"ESR","status":"1","hoto":"1"},{"lat":"30.9389","lng":"76.8112","name":"BDDIKATHESR001","address":"Sap : I-HP-BDDI-ENB-0005<br\/>Loopback : 172.22.164.56<br\/>Up-Time : 55 days, 4:59:23.15","type":"ESR","status":"1","hoto":"1"},{"lat":"30.9457","lng":"76.7958","name":"BDDIBDDIESR005","address":"Sap : I-HP-BDDI-ENB-0006<br\/>Loopback : 172.22.164.58<br\/>Up-Time : 25 days, 11:51:16.56","type":"ESR","status":"1","hoto":"1"},{"lat":"30.9535","lng":"76.7759","name":"BDDIBDDIESR003","address":"Sap : I-HP-BDDI-ENB-0012<br\/>Loopback : 172.22.164.63<br\/>Up-Time : 55 days, 5:10:26.76","type":"ESR","status":"1","hoto":"1"},{"lat":"30.9372","lng":"76.7912","name":"BDDIBDDIESR018","address":"Sap : I-HP-BDDI-ENB-0019<br\/>Loopback : 172.22.163.234<br\/>Up-Time : 55 days, 5:12:37.78","type":"ESR","status":"1","hoto":"1"},{"lat":"30.9287","lng":"76.799","name":"BDDIBDDIESR004","address":"Sap : I-HP-BDDI-ENB-0022<br\/>Loopback : 172.22.164.53<br\/>Up-Time : 55 days, 4:58:55.81","type":"ESR","status":"1","hoto":"1"},{"lat":"30.9605","lng":"76.764","name":"BDDIBDDIPAR001","address":"Sap : I-HP-BDDI-ENB-0023<br\/>Loopback : 172.16.41.35<br\/>Up-Time : 22 days, 14:43:54.81","type":"PAR","status":"1","hoto":"1"},{"lat":"30.9605","lng":"76.764","name":"BDDIBDDIPAR002","address":"Sap : I-HP-BDDI-ENB-0023<br\/>Loopback : 172.16.41.36<br\/>Up-Time : 22 days, 14:44:30.28","type":"PAR","status":"1","hoto":"1"},{"lat":"30.9535","lng":"76.8245","name":"BDDIMLGNESR001","address":"Sap : I-HP-BDDI-ENB-0025<br\/>Loopback : 172.22.161.245<br\/>Up-Time : 35 days, 12:52:27.11","type":"ESR","status":"1","hoto":"1"},{"lat":"30.9296","lng":"76.8167","name":"BDDIBDDIESR013","address":"Sap : I-HP-BDDI-ENB-0026<br\/>Loopback : 172.22.164.55<br\/>Up-Time : 55 days, 5:00:29.62","type":"ESR","status":"1","hoto":"1"},{"lat":"30.9561","lng":"76.8142","name":"BDDIBDDIESR020","address":"Sap : I-HP-BDDI-ENB-0029<br\/>Loopback : 172.22.164.61<br\/>Up-Time : 55 days, 5:01:26.35","type":"ESR","status":"1","hoto":"1"},{"lat":"30.949","lng":"76.8165","name":"BDDIBDDIESR021","address":"Sap : I-HP-BDDI-ENB-6000<br\/>Loopback : 172.22.164.62<br\/>Up-Time : 55 days, 4:48:22.53","type":"ESR","status":"1","hoto":"1"},{"lat":"30.9333","lng":"76.8056","name":"BDDIBDDIESR006","address":"Sap : I-HP-BDDI-ENB-6001<br\/>Loopback : 172.22.164.54<br\/>Up-Time : 54 days, 13:46:49.21","type":"ESR","status":"1","hoto":"1"},{"lat":"30.9394","lng":"76.8227","name":"BDDIBDDIESR022","address":"Sap : I-HP-BDDI-ENB-6002<br\/>Loopback : 172.22.164.66<br\/>Up-Time : 55 days, 5:10:26.48","type":"ESR","status":"1","hoto":"1"},{"lat":"30.9466","lng":"76.7825","name":"BDDIBDDIESR014","address":"Sap : I-HP-BDDI-ENB-6003<br\/>Loopback : 172.22.164.57<br\/>Up-Time : 55 days, 4:58:23.30","type":"ESR","status":"1","hoto":"1"},{"lat":"30.9584","lng":"76.829","name":"BDDIBDDIESR011","address":"Sap : I-HP-BDDI-ENB-6004<br\/>Loopback : 172.22.164.47<br\/>Up-Time : 3 days, 16:08:13.55","type":"ESR","status":"1","hoto":"1"},{"lat":"30.9417","lng":"76.8025","name":"BDDIBDDIESR015","address":"Sap : I-HP-BDDI-ENB-6005<br\/>Loopback : 172.22.164.59<br\/>Up-Time : 21 days, 15:30:04.94","type":"ESR","status":"1","hoto":"1"},{"lat":"30.9375","lng":"76.8011","name":"BDDIBDDIESR026","address":"Sap : I-HP-BDDI-ENB-9001<br\/>Loopback : 172.22.164.60<br\/>Up-Time : 19 days, 10:06:43.92","type":"ESR","status":"1","hoto":"1"},{"lat":"30.9292","lng":"76.8064","name":"BDDIHPSDESR001","address":"Sap : I-HP-BDDI-ENB-H001<br\/>Loopback : 172.22.164.71<br\/>Up-Time : 55 days, 4:38:01.69","type":"ESR","status":"1","hoto":"1"},{"lat":"30.9486","lng":"76.8087","name":"BDDILEHIESR001","address":"Sap : I-HP-BDDI-ENB-H003<br\/>Loopback : 172.22.168.16<br\/>Up-Time : 53 days, 3:17:09.17","type":"ESR","status":"1","hoto":"1"},{"lat":"31.6284","lng":"76.3425","name":"BGNABGNAESR004","address":"Sap : I-HP-BGNA-ENB-6000<br\/>Loopback : 172.22.162.95<br\/>Up-Time : 55 days, 5:35:32.67","type":"ESR","status":"1","hoto":"1"},{"lat":"31.6041","lng":"76.1963","name":"BGNABGNAESR001","address":"Sap : I-HP-BGNA-ENB-6001<br\/>Loopback : 172.22.165.69<br\/>Up-Time : 55 days, 4:52:41.27","type":"ESR","status":"1","hoto":"1"},{"lat":"31.5108","lng":"76.3603","name":"BGNABGNAESR003","address":"Sap : I-HP-BGNA-ENB-6002<br\/>Loopback : 172.22.162.96<br\/>Up-Time : 61 days, 4:37:56.51","type":"ESR","status":"1","hoto":"1"},{"lat":"31.5764","lng":"76.3196","name":"BGNABGNAESR009","address":"Sap : I-HP-BGNA-ENB-6003<br\/>Loopback : 172.22.162.94<br\/>Up-Time : 55 days, 4:01:39.92","type":"ESR","status":"1","hoto":"1"},{"lat":"31.5432","lng":"76.405","name":"BGNABGNAESR006","address":"Sap : I-HP-BGNA-ENB-6004<br\/>Loopback : 172.22.162.97<br\/>Up-Time : 3 days, 19:22:11.35","type":"ESR","status":"1","hoto":"1"},{"lat":"31.6514","lng":"76.3533","name":"BGNABGNAESR005","address":"Sap : I-HP-BGNA-ENB-6005<br\/>Loopback : 172.22.165.73<br\/>Up-Time : 61 days, 2:01:23.43","type":"ESR","status":"1","hoto":"1"},{"lat":"31.479","lng":"76.4064","name":"BGNABGNAESR007","address":"Sap : I-HP-BGNA-ENB-6006<br\/>Loopback : 172.22.163.110<br\/>Up-Time : 56 days, 15:01:14.08","type":"ESR","status":"1","hoto":"1"},{"lat":"31.632","lng":"76.2821","name":"BGNABGNAESR008","address":"Sap : I-HP-BGNA-ENB-6007<br\/>Loopback : 172.22.162.93<br\/>Up-Time : 42 days, 0:11:33.51","type":"ESR","status":"1","hoto":"1"},{"lat":"31.5367","lng":"76.3073","name":"BGNABGNAESR002","address":"Sap : I-HP-BGNA-ENB-6008<br\/>Loopback : 172.22.162.98<br\/>Up-Time : 5 days, 23:00:04.05","type":"ESR","status":"1","hoto":"1"},{"lat":"31.7123","lng":"76.6739","name":"BHRJBHRJESR002","address":"Sap : I-HP-BHRJ-ENB-6000<br\/>Loopback : 172.22.161.250<br\/>Up-Time : 4 days, 19:58:33.30","type":"ESR","status":"1","hoto":"1"},{"lat":"31.6619","lng":"76.6458","name":"BHRJBHRJESR003","address":"Sap : I-HP-BHRJ-ENB-6001<br\/>Loopback : 172.22.163.113<br\/>Up-Time : 38 days, 18:16:53.39","type":"ESR","status":"1","hoto":"1"},{"lat":"31.6012","lng":"76.6205","name":"BHRJBHRJESR004","address":"Sap : I-HP-BHRJ-ENB-6002<br\/>Loopback : 172.22.162.103<br\/>Up-Time : 54 days, 14:38:01.07","type":"ESR","status":"1","hoto":"1"},{"lat":"31.6404","lng":"76.6853","name":"BHRJBHRJESR001","address":"Sap : I-HP-BHRJ-ENB-6003<br\/>Loopback : 172.22.162.104<br\/>Up-Time : 38 days, 20:49:40.62","type":"ESR","status":"1","hoto":"1"},{"lat":"32.0789","lng":"76.6386","name":"BJNTBJNTESR005","address":"Sap : I-HP-BJNT-ENB-6000<br\/>Loopback : 172.22.163.114<br\/>Up-Time : 55 days, 4:52:35.79","type":"ESR","status":"1","hoto":"1"},{"lat":"32.0527","lng":"76.6503","name":"BJNTBJNTESR002","address":"Sap : I-HP-BJNT-ENB-6001<br\/>Loopback : 172.22.169.117<br\/>Up-Time : 44 days, 2:30:23.19","type":"ESR","status":"1","hoto":"1"},{"lat":"31.9259","lng":"76.6453","name":"BJNTBJNTESR004","address":"Sap : I-HP-BJNT-ENB-6002<br\/>Loopback : 172.22.165.207<br\/>Up-Time : 4 days, 17:05:44.37","type":"ESR","status":"1","hoto":"1"},{"lat":"31.9811","lng":"76.6722","name":"BJNTBJNTESR003","address":"Sap : I-HP-BJNT-ENB-6003<br\/>Loopback : 172.22.163.117<br\/>Up-Time : 4 days, 12:18:07.40","type":"ESR","status":"1","hoto":"1"},{"lat":"32.0762","lng":"76.5913","name":"BJNTBJNTESR001","address":"Sap : I-HP-BJNT-ENB-9005<br\/>Loopback : 172.22.169.118<br\/>Up-Time : 44 days, 2:29:51.47","type":"ESR","status":"1","hoto":"1"},{"lat":"31.3306","lng":"76.7647","name":"BLASBLASESR015","address":"Sap : I-HP-BLAS-ENB-0001<br\/>Loopback : 172.22.160.155<br\/>Up-Time : 55 days, 6:07:14.52","type":"ESR","status":"1","hoto":"1"},{"lat":"31.3474","lng":"76.764","name":"BLASBLASESR001","address":"Sap : I-HP-BLAS-ENB-0003<br\/>Loopback : 172.22.160.150<br\/>Up-Time : 61 days, 4:11:30.59","type":"ESR","status":"1","hoto":"1"},{"lat":"31.2637","lng":"76.8193","name":"BLASBLASESR010","address":"Sap : I-HP-BLAS-ENB-6000<br\/>Loopback : 172.22.163.158<br\/>Up-Time : 44 days, 1:39:54.19","type":"ESR","status":"1","hoto":"1"},{"lat":"31.3439","lng":"76.7661","name":"BLASBLASESR002","address":"Sap : I-HP-BLAS-ENB-6001<br\/>Loopback : 172.22.160.151<br\/>Up-Time : 61 days, 4:13:22.87","type":"ESR","status":"1","hoto":"1"},{"lat":"31.3372","lng":"76.7678","name":"BLASBLASESR009","address":"Sap : I-HP-BLAS-ENB-6002<br\/>Loopback : 172.22.160.154<br\/>Up-Time : 55 days, 16:40:34.92","type":"ESR","status":"1","hoto":"1"},{"lat":"31.3522","lng":"76.7569","name":"BLASBLASESR006","address":"Sap : I-HP-BLAS-ENB-6003<br\/>Loopback : 172.22.160.153<br\/>Up-Time : 61 days, 4:15:24.15","type":"ESR","status":"1","hoto":"1"},{"lat":"31.3269","lng":"76.7623","name":"BLASBLASESR005","address":"Sap : I-HP-BLAS-ENB-6004<br\/>Loopback : 172.22.162.77<br\/>Up-Time : 53 days, 3:26:30.05","type":"ESR","status":"1","hoto":"1"},{"lat":"31.3831","lng":"76.7637","name":"BLASBLASESR004","address":"Sap : I-HP-BLAS-ENB-6005<br\/>Loopback : 172.22.168.125<br\/>Up-Time : 34 days, 16:09:59.85","type":"ESR","status":"1","hoto":"1"},{"lat":"31.3021","lng":"76.8619","name":"NMHLNMHLESR002","address":"Sap : I-HP-BLAS-ENB-6006<br\/>Loopback : 172.22.162.254<br\/>Up-Time : 61 days, 4:02:59.12","type":"ESR","status":"1","hoto":"1"},{"lat":"31.2997","lng":"76.753","name":"BLASBLASESR007","address":"Sap : I-HP-BLAS-ENB-6008<br\/>Loopback : 172.22.162.182<br\/>Up-Time : 5 days, 22:14:37.86","type":"ESR","status":"1","hoto":"1"},{"lat":"31.2303","lng":"76.8706","name":"NMHLNMHLESR003","address":"Sap : I-HP-BLAS-ENB-6011<br\/>Loopback : 172.22.162.101<br\/>Up-Time : 61 days, 4:13:06.15","type":"ESR","status":"1","hoto":"1"},{"lat":"31.4182","lng":"76.8323","name":"BLASBLASESR012","address":"Sap : I-HP-BLAS-ENB-9006<br\/>Loopback : 172.22.162.19<br\/>Up-Time : 4 days, 16:26:34.69","type":"ESR","status":"1","hoto":"1"},{"lat":"31.3684","lng":"76.782","name":"BLASBLASESR014","address":"Sap : I-HP-BLAS-ENB-9014<br\/>Loopback : 172.22.161.188<br\/>Up-Time : 4 days, 18:17:07.53","type":"ESR","status":"1","hoto":"1"},{"lat":"31.3634","lng":"76.7668","name":"BLASBLASESR013","address":"Sap : I-HP-BLAS-ENB-9015<br\/>Loopback : 172.22.161.186<br\/>Up-Time : 55 days, 5:49:58.48","type":"ESR","status":"1","hoto":"1"},{"lat":"31.2915","lng":"76.7746","name":"BLASBLASESR003","address":"Sap : I-HP-BLAS-ENB-9016<br\/>Loopback : 172.22.163.159<br\/>Up-Time : 2 days, 14:56:18.51","type":"ESR","status":"1","hoto":"1"},{"lat":"31.3088","lng":"76.8154","name":"NMHLNMHLESR004","address":"Sap : I-HP-BLAS-ENB-9018<br\/>Loopback : 172.22.167.47<br\/>Up-Time : 32 days, 21:23:58.27","type":"ESR","status":"1","hoto":"1"},{"lat":"31.3414","lng":"76.7622","name":"BLASDIRSESR001","address":"Sap : I-HP-BLAS-ENB-B001<br\/>Loopback : 172.22.169.73<br\/>Up-Time : 61 days, 4:00:56.80","type":"ESR","status":"1","hoto":"1"},{"lat":"31.3367","lng":"76.76","name":"BLASEXSCESR001","address":"Sap : I-HP-BLAS-ENB-C001<br\/>Loopback : 172.22.162.48<br\/>Up-Time : 61 days, 4:04:53.78","type":"ESR","status":"1","hoto":"1"},{"lat":"31.402","lng":"76.8305","name":"BLASBLASESR011","address":"Sap : I-HP-BLAS-ENB-H001<br\/>Loopback : 172.22.162.7<br\/>Up-Time : 1 day, 16:49:52.07","type":"ESR","status":"1","hoto":"1"},{"lat":"31.7113","lng":"77.2261","name":"BLCKBLCKESR003","address":"Sap : I-HP-BLCK-ENB-6000<br\/>Loopback : 172.22.163.107<br\/>Up-Time : 55 days, 5:05:11.32","type":"ESR","status":"1","hoto":"1"},{"lat":"31.6865","lng":"77.21","name":"BLCKBLCKESR002","address":"Sap : I-HP-BLCK-ENB-6003<br\/>Loopback : 172.22.163.108<br\/>Up-Time : 55 days, 5:04:51.25","type":"ESR","status":"1","hoto":"1"},{"lat":"31.6943","lng":"77.1755","name":"BLCKBLCKESR001","address":"Sap : I-HP-BLCK-ENB-9005<br\/>Loopback : 172.22.163.105<br\/>Up-Time : 11 days, 18:03:26.31","type":"ESR","status":"1","hoto":"1"},{"lat":"31.5551","lng":"76.7931","name":"BLWRBLWRESR002","address":"Sap : I-HP-BLWR-ENB-6000<br\/>Loopback : 172.22.162.102<br\/>Up-Time : 61 days, 2:41:58.47","type":"ESR","status":"1","hoto":"1"},{"lat":"31.5048","lng":"76.8178","name":"BLWRBLWRESR001","address":"Sap : I-HP-BLWR-ENB-6001<br\/>Loopback : 172.22.168.236<br\/>Up-Time : 31 days, 11:56:18.92","type":"ESR","status":"1","hoto":"1"},{"lat":"31.6589","lng":"77.3394","name":"BNJRBNJRESR002","address":"Sap : I-HP-BNJR-ENB-6001<br\/>Loopback : 172.22.166.255<br\/> ","type":"ESR","status":"0","hoto":"1"},{"lat":"31.5196","lng":"76.4469","name":"BRSRBRSRESR004","address":"Sap : I-HP-BRSR-ENB-6000<br\/>Loopback : 172.22.162.109<br\/>Up-Time : 60 days, 23:45:57.80","type":"ESR","status":"1","hoto":"1"},{"lat":"31.614","lng":"76.5455","name":"BRSRBRSRESR003","address":"Sap : I-HP-BRSR-ENB-6001<br\/>Loopback : 172.22.162.105<br\/>Up-Time : 61 days, 2:48:34.56","type":"ESR","status":"1","hoto":"1"},{"lat":"31.521","lng":"76.5362","name":"DTWLDTWLESR002","address":"Sap : I-HP-BRSR-ENB-6002<br\/>Loopback : 172.22.162.106<br\/>Up-Time : 61 days, 1:01:28.73","type":"ESR","status":"1","hoto":"1"},{"lat":"31.5383","lng":"76.5008","name":"BRSRBRSRESR007","address":"Sap : I-HP-BRSR-ENB-6005<br\/>Loopback : 172.22.162.107<br\/>Up-Time : 5 days, 16:33:25.47","type":"ESR","status":"1","hoto":"1"},{"lat":"31.5853","lng":"76.5127","name":"BRSRBRSRESR005","address":"Sap : I-HP-BRSR-ENB-6006<br\/>Loopback : 172.22.162.108<br\/>Up-Time : 48 days, 15:15:05.56","type":"ESR","status":"1","hoto":"1"},{"lat":"31.5313","lng":"76.6021","name":"DTWLDTWLESR001","address":"Sap : I-HP-BRSR-ENB-6007<br\/>Loopback : 172.22.162.75<br\/>Up-Time : 52 days, 12:03:32.93","type":"ESR","status":"1","hoto":"1"},{"lat":"31.4653","lng":"76.5061","name":"BRSRBRSRESR006","address":"Sap : I-HP-BRSR-ENB-6008<br\/>Loopback : 172.22.162.110<br\/>Up-Time : 49 days, 15:10:09.97","type":"ESR","status":"1","hoto":"1"},{"lat":"31.5829","lng":"76.581","name":"BRSRBRSRESR001","address":"Sap : I-HP-BRSR-ENB-9009<br\/>Loopback : 172.22.160.104<br\/>Up-Time : 24 days, 12:51:52.90","type":"ESR","status":"1","hoto":"1"},{"lat":"31.6079","lng":"76.572","name":"BRSRBRSRESR002","address":"Sap : I-HP-BRSR-ENB-9010<br\/>Loopback : 172.22.160.102<br\/>Up-Time : 34 days, 18:16:12.50","type":"ESR","status":"1","hoto":"1"},{"lat":"32.4748","lng":"75.9442","name":"BTYTBTYTESR004","address":"Sap : I-HP-BTYT-ENB-6000<br\/>Loopback : 172.22.167.87<br\/>Up-Time : 26 days, 9:44:23.38","type":"ESR","status":"1","hoto":"1"},{"lat":"32.5532","lng":"75.9436","name":"DLHSDLHSPAR001","address":"Sap : I-HP-BTYT-ENB-6001<br\/>Loopback : 172.16.40.115<br\/>Up-Time : ","type":"PAR","status":"1","hoto":"1"},{"lat":"32.5765","lng":"75.9778","name":"DLHSDLHSESR001","address":"Sap : I-HP-BTYT-ENB-6002<br\/>Loopback : 172.22.166.187<br\/>Up-Time : 53 days, 3:18:11.96","type":"ESR","status":"1","hoto":"1"},{"lat":"32.521","lng":"75.981","name":"DLHSDLHSESR004","address":"Sap : I-HP-BTYT-ENB-6004<br\/>Loopback : 172.22.162.111<br\/>Up-Time : 22 days, 12:27:04.45","type":"ESR","status":"1","hoto":"1"},{"lat":"32.4624","lng":"75.9269","name":"BTYTBTYTESR003","address":"Sap : I-HP-BTYT-ENB-6005<br\/>Loopback : 172.22.167.86<br\/>Up-Time : 44 days, 1:36:55.85","type":"ESR","status":"1","hoto":"1"},{"lat":"32.5054","lng":"75.9241","name":"BTYTBTYTESR001","address":"Sap : I-HP-BTYT-ENB-6006<br\/>Loopback : 172.22.167.85<br\/>Up-Time : 44 days, 2:43:48.04","type":"ESR","status":"1","hoto":"1"},{"lat":"32.5436","lng":"76.1385","name":"CMBACMBAESR004","address":"Sap : I-HP-CMBA-ENB-0002<br\/>Loopback : 172.22.170.95<br\/>Up-Time : 44 days, 2:40:10.98","type":"ESR","status":"1","hoto":"1"},{"lat":"32.5562","lng":"76.1325","name":"CMBACMBAESR005","address":"Sap : I-HP-CMBA-ENB-0004<br\/>Loopback : 172.22.170.94<br\/>Up-Time : 44 days, 2:44:33.61","type":"ESR","status":"1","hoto":"1"},{"lat":"32.5454","lng":"76.1255","name":"CMBACMBAESR003","address":"Sap : I-HP-CMBA-ENB-6002<br\/>Loopback : 172.22.161.197<br\/>Up-Time : 9 days, 13:12:33.58","type":"ESR","status":"1","hoto":"1"},{"lat":"32.5384","lng":"76.0813","name":"CMBACMBAESR001","address":"Sap : I-HP-CMBA-ENB-6006<br\/>Loopback : 172.22.161.199<br\/>Up-Time : 41 days, 23:22:26.77","type":"ESR","status":"1","hoto":"1"},{"lat":"32.5328","lng":"76.1379","name":"CMBACMBAESR002","address":"Sap : I-HP-CMBA-ENB-C001<br\/>Loopback : 172.22.162.50<br\/>Up-Time : 55 days, 6:07:14.84","type":"ESR","status":"1","hoto":"1"},{"lat":"31.8012","lng":"76.1259","name":"BRWIBRWIESR002","address":"Sap : I-HP-CTPN-ENB-6000<br\/>Loopback : 172.22.168.4<br\/>Up-Time : 44 days, 1:36:04.72","type":"ESR","status":"1","hoto":"1"},{"lat":"31.8084","lng":"76.1041","name":"CTPNCTPNESR001","address":"Sap : I-HP-CTPN-ENB-6001<br\/>Loopback : 172.22.168.229<br\/>Up-Time : 44 days, 2:22:58.85","type":"ESR","status":"1","hoto":"1"},{"lat":"31.8054","lng":"76.1073","name":"CTPNCTPNESR003","address":"Sap : I-HP-CTPN-ENB-B001<br\/>Loopback : 172.22.165.66<br\/>Up-Time : 55 days, 4:45:58.10","type":"ESR","status":"1","hoto":"1"},{"lat":"31.8772","lng":"76.141","name":"DEURDEURESR003","address":"Sap : I-HP-DEUR-ENB-6122<br\/>Loopback : 172.22.162.171<br\/>Up-Time : 55 days, 6:09:03.58","type":"ESR","status":"1","hoto":"1"},{"lat":"31.8484","lng":"76.2109","name":"DEURDEURESR002","address":"Sap : I-HP-DEUR-ENB-6123<br\/>Loopback : 172.22.165.76<br\/>Up-Time : 55 days, 3:53:39.34","type":"ESR","status":"1","hoto":"1"},{"lat":"31.8521","lng":"76.2508","name":"JWLMJWLMESR001","address":"Sap : I-HP-DEUR-ENB-6124<br\/>Loopback : 172.22.168.6<br\/>Up-Time : 44 days, 1:36:12.12","type":"ESR","status":"1","hoto":"1"},{"lat":"31.873","lng":"76.2159","name":"DEURDEURESR001","address":"Sap : I-HP-DEUR-ENB-6125<br\/>Loopback : 172.22.168.7<br\/>Up-Time : 44 days, 1:36:31.36","type":"ESR","status":"1","hoto":"1"},{"lat":"31.8467","lng":"76.3331","name":"JWLMJWLMESR005","address":"Sap : I-HP-DEUR-ENB-6128<br\/>Loopback : 172.22.162.168<br\/>Up-Time : 4 days, 19:10:06.75","type":"ESR","status":"1","hoto":"1"},{"lat":"31.8879","lng":"76.3276","name":"JWLMJWLMESR006","address":"Sap : I-HP-DEUR-ENB-6131<br\/>Loopback : 172.22.163.120<br\/>Up-Time : 61 days, 0:57:01.54","type":"ESR","status":"1","hoto":"1"},{"lat":"31.8943","lng":"76.3006","name":"JWLMJWLMESR004","address":"Sap : I-HP-DEUR-ENB-H001<br\/>Loopback : 172.22.163.121<br\/>Up-Time : 15 days, 17:21:27.67","type":"ESR","status":"1","hoto":"1"},{"lat":"31.8333","lng":"76.1752","name":"DEURDEURESR004","address":"Sap : I-HP-DEUR-ENB-H002<br\/>Loopback : 172.22.165.77<br\/>Up-Time : 55 days, 4:50:06.66","type":"ESR","status":"1","hoto":"1"},{"lat":"32.0024","lng":"76.4536","name":"DHIRDHIRESR003","address":"Sap : I-HP-DHIR-ENB-6383<br\/>Loopback : 172.22.162.172<br\/>Up-Time : 4 days, 22:14:01.94","type":"ESR","status":"1","hoto":"1"},{"lat":"32.0683","lng":"76.3986","name":"DHIRDHIRESR001","address":"Sap : I-HP-DHIR-ENB-6384<br\/>Loopback : 172.22.162.173<br\/>Up-Time : 55 days, 6:08:13.23","type":"ESR","status":"1","hoto":"1"},{"lat":"32.0701","lng":"76.4148","name":"DHIRDHIRESR002","address":"Sap : I-HP-DHIR-ENB-6385<br\/>Loopback : 172.22.162.174<br\/>Up-Time : 3 days, 15:45:33.73","type":"ESR","status":"1","hoto":"1"},{"lat":"31.7849","lng":"76.8045","name":"DHRMDHRMESR001","address":"Sap : I-HP-DHRM-ENB-9002<br\/>Loopback : 172.22.170.97<br\/>Up-Time : 34 days, 7:30:58.14","type":"ESR","status":"1","hoto":"1"},{"lat":"31.8085","lng":"76.7915","name":"DHRMDHRMESR002","address":"Sap : I-HP-DHRM-ENB-H001<br\/>Loopback : 172.22.170.96<br\/>Up-Time : 51 days, 4:56:58.13","type":"ESR","status":"1","hoto":"1"},{"lat":"30.903","lng":"77.0245","name":"DHRPDHRPESR003","address":"Sap : I-HP-DHRP-ENB-6496<br\/>Loopback : 172.22.165.152<br\/>Up-Time : 55 days, 5:03:43.31","type":"ESR","status":"1","hoto":"1"},{"lat":"30.8994","lng":"77.026","name":"DHRPDHRPESR002","address":"Sap : I-HP-DHRP-ENB-H001<br\/>Loopback : 172.22.165.89<br\/>Up-Time : 44 days, 2:51:47.92","type":"ESR","status":"1","hoto":"1"},{"lat":"30.9027","lng":"77.0188","name":"KSULKSULESR003","address":"Sap : I-HP-DHRP-ENB-H002<br\/>Loopback : 172.22.162.150<br\/>Up-Time : 55 days, 5:54:54.64","type":"ESR","status":"1","hoto":"1"},{"lat":"32.5369","lng":"75.9687","name":"DLHSDLHSESR002","address":"Sap : I-HP-DLHS-ENB-0004<br\/>Loopback : 172.22.162.112<br\/>Up-Time : 41 days, 23:22:20.81","type":"ESR","status":"1","hoto":"1"},{"lat":"32.5467","lng":"75.9431","name":"DLHSDLHSESR003","address":"Sap : I-HP-DLHS-ENB-0005<br\/>Loopback : 172.22.165.151<br\/>Up-Time : 48 days, 0:51:33.94","type":"ESR","status":"1","hoto":"1"},{"lat":"32.5391","lng":"75.9749","name":"DLHSDLHSESR007","address":"Sap : I-HP-DLHS-ENB-0006<br\/>Loopback : 172.22.171.7<br\/>Up-Time : 53 days, 3:21:25.10","type":"ESR","status":"1","hoto":"1"},{"lat":"32.5379","lng":"75.9667","name":"DLHSDLHSESR005","address":"Sap : I-HP-DLHS-ENB-7015<br\/>Loopback : 172.22.164.190<br\/>Up-Time : 33 days, 13:54:33.86","type":"ESR","status":"1","hoto":"1"},{"lat":"32.2055","lng":"76.3754","name":"DRMSDRMSESR004","address":"Sap : I-HP-DRMS-ENB-6000<br\/>Loopback : 172.22.168.250<br\/>Up-Time : 48 days, 5:31:50.88","type":"ESR","status":"1","hoto":"1"},{"lat":"32.2119","lng":"76.3148","name":"DRMSDRMSESR003","address":"Sap : I-HP-DRMS-ENB-6001<br\/>Loopback : 172.22.168.249<br\/>Up-Time : 48 days, 4:17:39.91","type":"ESR","status":"1","hoto":"1"},{"lat":"32.2207","lng":"76.3358","name":"DRMSDRMSESR005","address":"Sap : I-HP-DRMS-ENB-6002<br\/>Loopback : 172.22.168.254<br\/>Up-Time : 48 days, 5:30:43.07","type":"ESR","status":"1","hoto":"1"},{"lat":"32.1943","lng":"76.3233","name":"DRMSDRMSESR002","address":"Sap : I-HP-DRMS-ENB-6003<br\/>Loopback : 172.22.169.42<br\/>Up-Time : 51 days, 5:14:09.30","type":"ESR","status":"1","hoto":"1"},{"lat":"32.2348","lng":"76.3263","name":"DRMSDRMSESR001","address":"Sap : I-HP-DRMS-ENB-6004<br\/>Loopback : 172.22.168.248<br\/>Up-Time : 48 days, 4:18:09.06","type":"ESR","status":"1","hoto":"1"},{"lat":"32.2474","lng":"76.3063","name":"DRMSDRMSESR011","address":"Sap : I-HP-DRMS-ENB-6005<br\/>Loopback : 172.22.162.138<br\/>Up-Time : 48 days, 3:56:57.13","type":"ESR","status":"1","hoto":"1"},{"lat":"32.1864","lng":"76.4017","name":"DRMSDRMSESR008","address":"Sap : I-HP-DRMS-ENB-6006<br\/>Loopback : 172.22.168.253<br\/>Up-Time : 3 days, 13:04:19.26","type":"ESR","status":"1","hoto":"1"},{"lat":"32.1893","lng":"76.3605","name":"DRMSDRMSESR010","address":"Sap : I-HP-DRMS-ENB-9004<br\/>Loopback : 172.22.169.46<br\/>Up-Time : 48 days, 5:29:21.24","type":"ESR","status":"1","hoto":"1"},{"lat":"32.2417","lng":"76.3307","name":"DRMSDRMSESR012","address":"Sap : I-HP-DRMS-ENB-B001<br\/>Loopback : 172.22.165.67<br\/>Up-Time : 55 days, 4:45:54.17","type":"ESR","status":"1","hoto":"1"},{"lat":"32.2074","lng":"76.3297","name":"DRMSMNTKESR001","address":"Sap : I-HP-DRMS-ENB-C001<br\/>Loopback : 172.22.169.44<br\/>Up-Time : 39 days, 11:46:24.55","type":"ESR","status":"1","hoto":"1"},{"lat":"32.2005","lng":"76.336","name":"DRMSBROLESR001","address":"Sap : I-HP-DRMS-ENB-C002<br\/>Loopback : 172.22.169.45<br\/>Up-Time : 46 days, 1:18:29.93","type":"ESR","status":"1","hoto":"1"},{"lat":"32.2048","lng":"76.3225","name":"DRMSCELIESR001","address":"Sap : I-HP-DRMS-ENB-C003<br\/>Loopback : 172.22.169.43<br\/>Up-Time : 40 days, 4:52:31.74","type":"ESR","status":"1","hoto":"1"},{"lat":"32.2068","lng":"76.324","name":"DRMSCELIESR002","address":"Sap : I-HP-DRMS-ENB-C004<br\/>Loopback : 172.22.167.12<br\/>Up-Time : 40 days, 5:01:46.96","type":"ESR","status":"1","hoto":"1"},{"lat":"32.1828","lng":"76.3747","name":"YYLLYYLLESR001","address":"Sap : I-HP-DRMS-ENB-H001<br\/>Loopback : 172.22.168.251<br\/>Up-Time : 48 days, 5:30:38.97","type":"ESR","status":"1","hoto":"1"},{"lat":"32.2097","lng":"76.3633","name":"DRMSDRMSESR006","address":"Sap : I-HP-DRMS-ENB-H003<br\/>Loopback : 172.22.168.255<br\/>Up-Time : 40 days, 5:29:23.07","type":"ESR","status":"1","hoto":"1"},{"lat":"32.2177","lng":"76.3276","name":"DRMSDRMSESR007","address":"Sap : I-HP-DRMS-ENB-H004<br\/>Loopback : 172.22.168.252<br\/>Up-Time : 5 days, 12:45:12.47","type":"ESR","status":"1","hoto":"1"},{"lat":"32.2201","lng":"76.3191","name":"DRMSDRMSESR009","address":"Sap : I-HP-DRMS-ENB-H005<br\/>Loopback : 172.22.169.41<br\/>Up-Time : 34 days, 16:40:02.81","type":"ESR","status":"1","hoto":"1"},{"lat":"32.2387","lng":"76.3239","name":"DRMSDRMSESR013","address":"Sap : I-HP-DRMS-ENB-H006<br\/>Loopback : 172.22.166.166<br\/>Up-Time : 7 days, 15:59:48.09","type":"ESR","status":"1","hoto":"1"},{"lat":"32.2282","lng":"76.3186","name":"DRMSDRMSESR014","address":"Sap : I-HP-DRMS-ENB-H007<br\/>Loopback : 172.22.169.169<br\/>Up-Time : 40 days, 5:00:31.42","type":"ESR","status":"1","hoto":"1"},{"lat":"32.2146","lng":"76.3226","name":"DRMSMNTKESR002","address":"Sap : I-HP-DRMS-ENB-H008<br\/>Loopback : 172.22.165.222<br\/>Up-Time : 55 days, 4:43:48.33","type":"ESR","status":"1","hoto":"1"},{"lat":"32.1939","lng":"76.3858","name":"YYLLYYLLESR002","address":"Sap : I-HP-DRMS-ENB-H009<br\/>Loopback : 172.22.165.223<br\/>Up-Time : 31 days, 19:40:24.83","type":"ESR","status":"1","hoto":"1"},{"lat":"31.3749","lng":"76.8071","name":"GAGSGAGSESR001","address":"Sap : I-HP-GAGS-ENB-6000<br\/>Loopback : 172.22.161.190<br\/>Up-Time : 55 days, 5:49:34.61","type":"ESR","status":"1","hoto":"1"},{"lat":"31.6583","lng":"76.0589","name":"GGRTGGRTESR002","address":"Sap : I-HP-GGRT-ENB-0001<br\/>Loopback : 172.22.168.9<br\/>Up-Time : 18 days, 0:15:06.59","type":"ESR","status":"1","hoto":"1"},{"lat":"31.6609","lng":"76.0638","name":"GGRTGGRTESR001","address":"Sap : I-HP-GGRT-ENB-0002<br\/>Loopback : 172.22.162.9<br\/>Up-Time : 55 days, 5:57:26.77","type":"ESR","status":"1","hoto":"1"},{"lat":"31.6657","lng":"76.049","name":"GGRTGGRTESR003","address":"Sap : I-HP-GGRT-ENB-0004<br\/>Loopback : 172.22.168.12<br\/>Up-Time : 61 days, 3:06:20.46","type":"ESR","status":"1","hoto":"1"},{"lat":"31.6652","lng":"76.0549","name":"GGRTGGRTESR004","address":"Sap : I-HP-GGRT-ENB-0005<br\/>Loopback : 172.22.168.13<br\/>Up-Time : 55 days, 16:14:51.20","type":"ESR","status":"1","hoto":"1"},{"lat":"31.6564","lng":"76.0342","name":"AAMBAAMBESR007","address":"Sap : I-HP-GGRT-ENB-6000<br\/>Loopback : 172.22.168.14<br\/>Up-Time : 61 days, 2:44:20.66","type":"ESR","status":"1","hoto":"1"},{"lat":"31.4465","lng":"76.7085","name":"GMRWGMRWESR003","address":"Sap : I-HP-GMRW-ENB-0001<br\/>Loopback : 172.22.160.111<br\/>Up-Time : 61 days, 2:39:59.91","type":"ESR","status":"1","hoto":"1"},{"lat":"31.4151","lng":"76.6331","name":"JNDTJNDTESR002","address":"Sap : I-HP-GMRW-ENB-6002<br\/>Loopback : 172.22.168.225<br\/>Up-Time : 44 days, 2:25:50.01","type":"ESR","status":"1","hoto":"1"},{"lat":"31.3949","lng":"76.7319","name":"GMRWGMRWESR006","address":"Sap : I-HP-GMRW-ENB-6003<br\/>Loopback : 172.22.167.192<br\/>Up-Time : 51 days, 4:56:35.96","type":"ESR","status":"1","hoto":"1"},{"lat":"31.4203","lng":"76.5306","name":"JNDTJNDTESR003","address":"Sap : I-HP-GMRW-ENB-6004<br\/>Loopback : 172.22.168.226<br\/>Up-Time : 44 days, 2:25:49.36","type":"ESR","status":"1","hoto":"1"},{"lat":"31.4469","lng":"76.7417","name":"GMRWGMRWESR004","address":"Sap : I-HP-GMRW-ENB-6005<br\/>Loopback : 172.22.165.117<br\/>Up-Time : 48 days, 4:06:00.47","type":"ESR","status":"1","hoto":"1"},{"lat":"31.4709","lng":"76.6607","name":"GMRWGMRWESR007","address":"Sap : I-HP-GMRW-ENB-6006<br\/>Loopback : 172.22.165.154<br\/>Up-Time : 61 days, 2:39:34.74","type":"ESR","status":"1","hoto":"1"},{"lat":"31.5267","lng":"76.6333","name":"BHAABHAAESR001","address":"Sap : I-HP-GMRW-ENB-6009<br\/>Loopback : 172.22.160.109<br\/>Up-Time : 44 days, 3:31:29.01","type":"ESR","status":"1","hoto":"1"},{"lat":"31.5816","lng":"76.6436","name":"BHAABHAAESR002","address":"Sap : I-HP-GMRW-ENB-6010<br\/>Loopback : 172.22.162.113<br\/>Up-Time : 61 days, 2:48:05.53","type":"ESR","status":"1","hoto":"1"},{"lat":"31.5061","lng":"76.7258","name":"GMRWGMRWESR005","address":"Sap : I-HP-GMRW-ENB-6011<br\/>Loopback : 172.22.162.74<br\/>Up-Time : 61 days, 2:46:53.68","type":"ESR","status":"1","hoto":"1"},{"lat":"31.4382","lng":"76.7123","name":"GMRWGMRWESR001","address":"Sap : I-HP-GMRW-ENB-H001<br\/>Loopback : 172.22.163.185<br\/>Up-Time : 24 days, 15:43:44.86","type":"ESR","status":"1","hoto":"1"},{"lat":"31.6772","lng":"76.5382","name":"HMRPHMRPESR004","address":"Sap : I-HP-HMRP-ENB-0001<br\/>Loopback : 172.22.160.147<br\/>Up-Time : 61 days, 2:41:33.52","type":"ESR","status":"1","hoto":"1"},{"lat":"31.6731","lng":"76.5302","name":"HMRPHMRPESR001","address":"Sap : I-HP-HMRP-ENB-0002<br\/>Loopback : 172.22.160.148<br\/>Up-Time : 33 days, 18:32:57.02","type":"ESR","status":"1","hoto":"1"},{"lat":"31.6804","lng":"76.5245","name":"HMRPHMRPESR008","address":"Sap : I-HP-HMRP-ENB-0003<br\/>Loopback : 172.22.160.146<br\/>Up-Time : 61 days, 2:42:24.64","type":"ESR","status":"1","hoto":"1"},{"lat":"31.6877","lng":"76.52","name":"HMRPHMRPESR015","address":"Sap : I-HP-HMRP-ENB-0004<br\/>Loopback : 172.22.169.10<br\/>Up-Time : 30 days, 22:06:08.77","type":"ESR","status":"1","hoto":"1"},{"lat":"31.7075","lng":"76.5294","name":"HMRPHMRPESR007","address":"Sap : I-HP-HMRP-ENB-0006<br\/>Loopback : 172.22.160.142<br\/>Up-Time : 55 days, 5:48:53.66","type":"ESR","status":"1","hoto":"1"},{"lat":"31.6868","lng":"76.5126","name":"GLREGLREESR001","address":"Sap : I-HP-HMRP-ENB-0007<br\/>Loopback : 172.22.160.143<br\/>Up-Time : 61 days, 1:56:15.60","type":"ESR","status":"1","hoto":"1"},{"lat":"31.6996","lng":"76.5205","name":"GLREGLREESR002","address":"Sap : I-HP-HMRP-ENB-0008<br\/>Loopback : 172.22.160.141<br\/>Up-Time : 46 days, 18:22:37.70","type":"ESR","status":"1","hoto":"1"},{"lat":"31.6655","lng":"76.583","name":"HMRPHMRPESR019","address":"Sap : I-HP-HMRP-ENB-6000<br\/>Loopback : 172.22.162.114<br\/>Up-Time : 61 days, 2:41:17.83","type":"ESR","status":"1","hoto":"1"},{"lat":"31.661","lng":"76.5325","name":"HMRPHMRPESR005","address":"Sap : I-HP-HMRP-ENB-6002<br\/>Loopback : 172.22.167.63<br\/>Up-Time : 44 days, 2:59:00.84","type":"ESR","status":"1","hoto":"1"},{"lat":"31.6836","lng":"76.5232","name":"HMRPHMRPESR003","address":"Sap : I-HP-HMRP-ENB-6003<br\/>Loopback : 172.22.160.145<br\/>Up-Time : 61 days, 0:55:53.02","type":"ESR","status":"1","hoto":"1"},{"lat":"31.6917","lng":"76.52","name":"HMRPHMRPESR002","address":"Sap : I-HP-HMRP-ENB-6004<br\/>Loopback : 172.22.160.140<br\/>Up-Time : 55 days, 5:57:34.01","type":"ESR","status":"1","hoto":"1"},{"lat":"31.8214","lng":"76.5954","name":"HMRPHMRPESR009","address":"Sap : I-HP-HMRP-ENB-6005<br\/>Loopback : 172.22.165.245<br\/>Up-Time : 33 days, 20:39:19.12","type":"ESR","status":"1","hoto":"1"},{"lat":"31.7111","lng":"76.5123","name":"HMRPHMRPESR012","address":"Sap : I-HP-HMRP-ENB-6006<br\/>Loopback : 172.22.168.15<br\/>Up-Time : 61 days, 2:35:58.08","type":"ESR","status":"1","hoto":"1"},{"lat":"31.7884","lng":"76.6118","name":"HMRPHMRPESR006","address":"Sap : I-HP-HMRP-ENB-6007<br\/>Loopback : 172.22.165.116<br\/>Up-Time : 61 days, 0:56:50.70","type":"ESR","status":"1","hoto":"1"},{"lat":"31.7141","lng":"76.6043","name":"HMRPHMRPESR013","address":"Sap : I-HP-HMRP-ENB-6008<br\/>Loopback : 172.22.164.251<br\/>Up-Time : 61 days, 1:59:38.91","type":"ESR","status":"1","hoto":"1"},{"lat":"31.7157","lng":"76.5886","name":"HMRPHMRPESR021","address":"Sap : I-HP-HMRP-ENB-9007<br\/>Loopback : 172.22.166.192<br\/>Up-Time : 61 days, 1:00:16.69","type":"ESR","status":"1","hoto":"1"},{"lat":"31.7207","lng":"76.5688","name":"HMRPHMRPESR020","address":"Sap : I-HP-HMRP-ENB-9008<br\/>Loopback : 172.22.167.194<br\/>Up-Time : 44 days, 2:29:20.90","type":"ESR","status":"1","hoto":"1"},{"lat":"31.6309","lng":"76.5621","name":"SMLHSMLHESR001","address":"Sap : I-HP-HMRP-ENB-9011<br\/>Loopback : 172.22.160.100<br\/>Up-Time : 44 days, 3:26:53.47","type":"ESR","status":"1","hoto":"1"},{"lat":"31.6924","lng":"76.5114","name":"HMRPHMRPESR017","address":"Sap : I-HP-HMRP-ENB-G001<br\/>Loopback : 172.22.169.101<br\/>Up-Time : 61 days, 2:05:08.95","type":"ESR","status":"1","hoto":"1"},{"lat":"31.7084","lng":"76.6162","name":"HMRPHMRPESR018","address":"Sap : I-HP-HMRP-ENB-H001<br\/>Loopback : 172.22.161.249<br\/>Up-Time : 4 days, 21:00:44.74","type":"ESR","status":"1","hoto":"1"},{"lat":"31.3521","lng":"76.2258","name":"HRLIHRLIESR001","address":"Sap : I-HP-HRLI-ENB-6000<br\/>Loopback : 172.22.163.123<br\/>Up-Time : 61 days, 4:06:36.72","type":"ESR","status":"1","hoto":"1"},{"lat":"31.3306","lng":"76.241","name":"HRLIHRLIESR002","address":"Sap : I-HP-HRLI-ENB-6001<br\/>Loopback : 172.22.163.124<br\/>Up-Time : 61 days, 4:06:48.65","type":"ESR","status":"1","hoto":"1"},{"lat":"31.3878","lng":"76.1971","name":"HRLIHRLIESR003","address":"Sap : I-HP-HRLI-ENB-6002<br\/>Loopback : 172.22.163.125<br\/>Up-Time : 61 days, 1:00:57.79","type":"ESR","status":"1","hoto":"1"},{"lat":"31.3467","lng":"76.2565","name":"HRLIHRLIESR004","address":"Sap : I-HP-HRLI-ENB-6003<br\/>Loopback : 172.22.170.82<br\/>Up-Time : 44 days, 3:19:46.33","type":"ESR","status":"1","hoto":"1"},{"lat":"32.1852","lng":"75.6459","name":"IDORIDORESR002","address":"Sap : I-HP-IDOR-ENB-6003<br\/>Loopback : 172.22.65.216<br\/>Up-Time : 4 days, 18:05:33.13","type":"ESR","status":"1","hoto":"1"},{"lat":"31.8504","lng":"76.4889","name":"JASPJASPESR002","address":"Sap : I-HP-JASP-ENB-6000<br\/>Loopback : 172.22.162.188<br\/>Up-Time : 61 days, 0:57:23.88","type":"ESR","status":"1","hoto":"1"},{"lat":"31.8739","lng":"76.6553","name":"JASPJASPESR003","address":"Sap : I-HP-JASP-ENB-6003<br\/>Loopback : 172.22.165.227<br\/>Up-Time : 55 days, 3:54:12.84","type":"ESR","status":"1","hoto":"1"},{"lat":"31.847","lng":"76.5042","name":"JASPJASPESR001","address":"Sap : I-HP-JASP-ENB-H001<br\/>Loopback : 172.22.162.44<br\/>Up-Time : 20 days, 20:11:10.84","type":"ESR","status":"1","hoto":"1"},{"lat":"31.9043","lng":"76.5945","name":"JASPJASPESR005","address":"Sap : I-HP-JASP-ENB-V001<br\/>Loopback : 172.22.167.191<br\/>Up-Time : 19:41:04.12","type":"ESR","status":"1","hoto":"1"},{"lat":"31.9825","lng":"76.7886","name":"JGNDJGNDESR013","address":"Sap : I-HP-JGND-ENB-0001<br\/>Loopback : 172.22.168.220<br\/>Up-Time : 16 days, 14:47:26.18","type":"ESR","status":"1","hoto":"1"},{"lat":"31.9872","lng":"76.8155","name":"JGNDJGNDESR002","address":"Sap : I-HP-JGND-ENB-0003<br\/>Loopback : 172.22.162.70<br\/>Up-Time : 55 days, 5:42:07.25","type":"ESR","status":"1","hoto":"1"},{"lat":"32.028","lng":"76.7095","name":"JGNDJGNDESR014","address":"Sap : I-HP-JGND-ENB-6000<br\/>Loopback : 172.22.169.122<br\/>Up-Time : 22 days, 12:57:51.17","type":"ESR","status":"1","hoto":"1"},{"lat":"32.0269","lng":"76.8538","name":"JGNDJGNDESR017","address":"Sap : I-HP-JGND-ENB-6001<br\/>Loopback : 172.22.170.220<br\/>Up-Time : 44 days, 3:00:04.66","type":"ESR","status":"1","hoto":"1"},{"lat":"31.8542","lng":"76.7979","name":"JGNDJGNDESR009","address":"Sap : I-HP-JGND-ENB-6002<br\/>Loopback : 172.22.167.201<br\/>Up-Time : 44 days, 3:02:35.84","type":"ESR","status":"1","hoto":"1"},{"lat":"31.9484","lng":"76.8673","name":"JGNDJGNDESR001","address":"Sap : I-HP-JGND-ENB-6003<br\/>Loopback : 172.22.162.55<br\/>Up-Time : 55 days, 3:56:29.91","type":"ESR","status":"1","hoto":"1"},{"lat":"31.9844","lng":"76.7263","name":"LDBLLDBLESR001","address":"Sap : I-HP-JGND-ENB-6004<br\/>Loopback : 172.22.169.121<br\/>Up-Time : 3 days, 16:20:49.19","type":"ESR","status":"1","hoto":"1"},{"lat":"31.9887","lng":"76.7909","name":"JGNDJGNDESR010","address":"Sap : I-HP-JGND-ENB-6006<br\/>Loopback : 172.22.166.58<br\/>Up-Time : 53 days, 3:17:11.48","type":"ESR","status":"1","hoto":"1"},{"lat":"32.0331","lng":"76.8232","name":"JGNDJGNDESR015","address":"Sap : I-HP-JGND-ENB-6008<br\/>Loopback : 172.22.162.175<br\/>Up-Time : 7 days, 15:24:47.76","type":"ESR","status":"1","hoto":"1"},{"lat":"32.0137","lng":"76.7336","name":"JGNDJGNDESR006","address":"Sap : I-HP-JGND-ENB-9005<br\/>Loopback : 172.22.169.115<br\/>Up-Time : 38 days, 18:19:03.99","type":"ESR","status":"1","hoto":"1"},{"lat":"32.0028","lng":"76.7722","name":"JGNDJGNDESR011","address":"Sap : I-HP-JGND-ENB-9006<br\/>Loopback : 172.22.169.114<br\/>Up-Time : 44 days, 2:41:33.06","type":"ESR","status":"1","hoto":"1"},{"lat":"31.964","lng":"76.853","name":"JGNDJGNDESR008","address":"Sap : I-HP-JGND-ENB-9007<br\/>Loopback : 172.22.162.58<br\/>Up-Time : 55 days, 6:09:40.09","type":"ESR","status":"1","hoto":"1"},{"lat":"31.9813","lng":"76.831","name":"JGNDJGNDESR004","address":"Sap : I-HP-JGND-ENB-9008<br\/>Loopback : 172.22.162.61<br\/>Up-Time : 55 days, 6:07:35.95","type":"ESR","status":"1","hoto":"1"},{"lat":"32.021","lng":"76.7242","name":"JGNDJGNDESR012","address":"Sap : I-HP-JGND-ENB-9009<br\/>Loopback : 172.22.169.116<br\/>Up-Time : 44 days, 2:30:33.24","type":"ESR","status":"1","hoto":"1"},{"lat":"32.0367","lng":"76.679","name":"JGNDJGNDESR005","address":"Sap : I-HP-JGND-ENB-9010<br\/>Loopback : 172.22.162.47<br\/>Up-Time : 55 days, 6:07:33.23","type":"ESR","status":"1","hoto":"1"},{"lat":"32.0425","lng":"76.8431","name":"MLTNMLTNESR001","address":"Sap : I-HP-JGND-ENB-B001<br\/>Loopback : 172.22.170.209<br\/>Up-Time : 14 days, 14:29:28.82","type":"ESR","status":"1","hoto":"1"},{"lat":"31.3634","lng":"76.6839","name":"JNDTJNDTESR001","address":"Sap : I-HP-JNDT-ENB-6000<br\/>Loopback : 172.22.168.224<br\/>Up-Time : 44 days, 2:25:45.72","type":"ESR","status":"1","hoto":"1"},{"lat":"31.3762","lng":"76.6282","name":"JNDTJNDTESR004","address":"Sap : I-HP-JNDT-ENB-6001<br\/>Loopback : 172.22.165.225<br\/>Up-Time : 55 days, 4:52:26.83","type":"ESR","status":"1","hoto":"1"},{"lat":"31.9235","lng":"76.0845","name":"JSWNJSWNESR001","address":"Sap : I-HP-JSWN-ENB-6000<br\/>Loopback : 172.22.163.126<br\/>Up-Time : 55 days, 4:50:23.42","type":"ESR","status":"1","hoto":"1"},{"lat":"32.2251","lng":"76.0709","name":"JWLIJWLIESR002","address":"Sap : I-HP-JWLI-ENB-6001<br\/>Loopback : 172.22.166.12<br\/>Up-Time : 48 days, 0:51:13.26","type":"ESR","status":"1","hoto":"1"},{"lat":"32.2304","lng":"76.0461","name":"JWLIJWLIESR001","address":"Sap : I-HP-JWLI-ENB-9004<br\/>Loopback : 172.22.166.13<br\/>Up-Time : 48 days, 18:52:36.16","type":"ESR","status":"1","hoto":"1"},{"lat":"31.8741","lng":"76.3198","name":"JWLMJWLMESR007","address":"Sap : I-HP-JWLM-ENB-0001<br\/>Loopback : 172.22.162.41<br\/>Up-Time : 55 days, 6:08:25.65","type":"ESR","status":"1","hoto":"1"},{"lat":"31.8719","lng":"76.3255","name":"JWLMJWLMESR002","address":"Sap : I-HP-JWLM-ENB-6000<br\/>Loopback : 172.22.168.8<br\/>Up-Time : 16:14:48.27","type":"ESR","status":"1","hoto":"1"},{"lat":"31.876","lng":"76.3106","name":"JWLMJWLMESR003","address":"Sap : I-HP-JWLM-ENB-G001<br\/>Loopback : 172.22.162.42<br\/>Up-Time : 55 days, 6:13:40.28","type":"ESR","status":"1","hoto":"1"},{"lat":"30.9689","lng":"77.1107","name":"KDGTKDGTESR007","address":"Sap : I-HP-KDGT-ENB-0001<br\/>Loopback : 172.22.166.131<br\/>Up-Time : 44 days, 2:47:33.63","type":"ESR","status":"1","hoto":"1"},{"lat":"30.9644","lng":"77.1963","name":"KDGTKDGTESR002","address":"Sap : I-HP-KDGT-ENB-6000<br\/>Loopback : 172.22.166.134<br\/>Up-Time : 44 days, 1:38:19.37","type":"ESR","status":"1","hoto":"1"},{"lat":"30.9602","lng":"77.1621","name":"KDGTKDGTESR005","address":"Sap : I-HP-KDGT-ENB-6001<br\/>Loopback : 172.22.166.135<br\/>Up-Time : 44 days, 2:45:25.41","type":"ESR","status":"1","hoto":"1"},{"lat":"30.9962","lng":"77.0808","name":"KDGTKDGTESR006","address":"Sap : I-HP-KDGT-ENB-6002<br\/>Loopback : 172.22.166.132<br\/>Up-Time : 30 days, 17:02:40.20","type":"ESR","status":"1","hoto":"1"},{"lat":"30.9641","lng":"77.1049","name":"KDGTKDGTESR004","address":"Sap : I-HP-KDGT-ENB-6003<br\/>Loopback : 172.22.166.130<br\/>Up-Time : 41 days, 20:03:04.04","type":"ESR","status":"1","hoto":"1"},{"lat":"30.9934","lng":"77.1526","name":"KDGTKDGTESR003","address":"Sap : I-HP-KDGT-ENB-6004<br\/>Loopback : 172.22.166.11<br\/>Up-Time : 44 days, 3:04:52.63","type":"ESR","status":"1","hoto":"1"},{"lat":"31.0105","lng":"77.088","name":"KDGTKDGTESR001","address":"Sap : I-HP-KDGT-ENB-6005<br\/>Loopback : 172.22.166.133<br\/>Up-Time : 44 days, 1:38:28.11","type":"ESR","status":"1","hoto":"1"},{"lat":"30.5389","lng":"77.2066","name":"NHANNHANESR010","address":"Sap : I-HP-KLAB-ENB-0001<br\/>Loopback : 172.22.163.204<br\/>Up-Time : 25 days, 21:11:44.56","type":"ESR","status":"1","hoto":"1"},{"lat":"30.5263","lng":"77.1982","name":"NHANNHANESR004","address":"Sap : I-HP-KLAB-ENB-0002<br\/>Loopback : 172.22.163.201<br\/>Up-Time : 46 days, 17:52:07.27","type":"ESR","status":"1","hoto":"1"},{"lat":"30.518","lng":"77.203","name":"NHANNHANESR005","address":"Sap : I-HP-KLAB-ENB-0003<br\/>Loopback : 172.22.163.200<br\/>Up-Time : 13 days, 20:20:10.92","type":"ESR","status":"1","hoto":"1"},{"lat":"30.5145","lng":"77.2081","name":"NHANNHANESR008","address":"Sap : I-HP-KLAB-ENB-0004<br\/>Loopback : 172.22.163.199<br\/> ","type":"ESR","status":"0","hoto":"1"},{"lat":"30.5097","lng":"77.2093","name":"NHANNHANESR006","address":"Sap : I-HP-KLAB-ENB-0005<br\/>Loopback : 172.22.163.196<br\/>Up-Time : 61 days, 2:01:39.79","type":"ESR","status":"1","hoto":"1"},{"lat":"30.5094","lng":"77.2217","name":"NHANNHANESR011","address":"Sap : I-HP-KLAB-ENB-0006<br\/>Loopback : 172.22.163.205<br\/>Up-Time : 61 days, 1:01:14.04","type":"ESR","status":"1","hoto":"1"},{"lat":"30.5038","lng":"77.2164","name":"NHANNHANESR007","address":"Sap : I-HP-KLAB-ENB-0007<br\/>Loopback : 172.22.163.197<br\/>Up-Time : 39 days, 15:01:20.90","type":"ESR","status":"1","hoto":"1"},{"lat":"31.8927","lng":"77.1393","name":"KLLUKLLUESR004","address":"Sap : I-HP-KLLU-ENB-0005<br\/>Loopback : 172.22.168.39<br\/>Up-Time : 51 days, 5:19:57.06","type":"ESR","status":"1","hoto":"1"},{"lat":"31.9027","lng":"77.1342","name":"SHMISHMIESR001","address":"Sap : I-HP-KLLU-ENB-0007<br\/>Loopback : 172.22.168.31<br\/>Up-Time : 51 days, 5:21:25.19","type":"ESR","status":"1","hoto":"1"},{"lat":"31.9468","lng":"77.1078","name":"KLLUKLLUESR011","address":"Sap : I-HP-KLLU-ENB-0009<br\/>Loopback : 172.22.168.41<br\/>Up-Time : 44 days, 3:22:46.71","type":"ESR","status":"1","hoto":"1"},{"lat":"31.9684","lng":"77.1128","name":"KLLUSLTNESR001","address":"Sap : I-HP-KLLU-ENB-0020<br\/>Loopback : 172.22.161.246<br\/>Up-Time : 55 days, 5:58:39.07","type":"ESR","status":"1","hoto":"1"},{"lat":"32.0009","lng":"77.1141","name":"KLLUKLLUESR020","address":"Sap : I-HP-KLLU-ENB-6000<br\/>Loopback : 172.22.167.48<br\/>Up-Time : 61 days, 4:04:21.03","type":"ESR","status":"1","hoto":"1"},{"lat":"31.8433","lng":"77.1865","name":"KLLUKLLUESR025","address":"Sap : I-HP-KLLU-ENB-6002<br\/>Loopback : 172.22.165.105<br\/>Up-Time : 55 days, 5:11:40.81","type":"ESR","status":"1","hoto":"1"},{"lat":"31.8722","lng":"77.1629","name":"KLLUKLLUESR019","address":"Sap : I-HP-KLLU-ENB-6003<br\/>Loopback : 172.22.163.104<br\/>Up-Time : 55 days, 6:05:52.57","type":"ESR","status":"1","hoto":"1"},{"lat":"31.882","lng":"77.1472","name":"BUNTBUNTESR001","address":"Sap : I-HP-KLLU-ENB-6004<br\/>Loopback : 172.22.162.3<br\/>Up-Time : 44 days, 2:57:18.48","type":"ESR","status":"1","hoto":"1"},{"lat":"31.9228","lng":"77.1513","name":"KLLUKLLUESR016","address":"Sap : I-HP-KLLU-ENB-6005<br\/>Loopback : 172.22.162.176<br\/>Up-Time : 44 days, 3:09:03.60","type":"ESR","status":"1","hoto":"1"},{"lat":"31.9641","lng":"77.0434","name":"KLLUKLLUESR027","address":"Sap : I-HP-KLLU-ENB-6006<br\/>Loopback : 172.22.162.177<br\/>Up-Time : 47 days, 20:56:47.66","type":"ESR","status":"1","hoto":"1"},{"lat":"31.9926","lng":"77.2387","name":"KLLUKLLUESR022","address":"Sap : I-HP-KLLU-ENB-6007<br\/>Loopback : 172.22.167.193<br\/>Up-Time : 44 days, 2:28:34.88","type":"ESR","status":"1","hoto":"1"},{"lat":"32.1743","lng":"77.1924","name":"MNALMNALESR008","address":"Sap : I-HP-KLLU-ENB-6010<br\/>Loopback : 172.22.162.122<br\/>Up-Time : 61 days, 4:04:49.36","type":"ESR","status":"1","hoto":"1"},{"lat":"32.0897","lng":"77.1433","name":"KLLUKLLUESR021","address":"Sap : I-HP-KLLU-ENB-6011<br\/>Loopback : 172.22.162.121<br\/>Up-Time : 61 days, 4:04:46.73","type":"ESR","status":"1","hoto":"1"},{"lat":"31.9375","lng":"77.1172","name":"KLLUKLLUESR010","address":"Sap : I-HP-KLLU-ENB-6015<br\/>Loopback : 172.22.168.40<br\/>Up-Time : 21 days, 20:05:49.26","type":"ESR","status":"1","hoto":"1"},{"lat":"31.9596","lng":"77.1279","name":"KLLUKLLUESR005","address":"Sap : I-HP-KLLU-ENB-6016<br\/>Loopback : 172.22.168.38<br\/>Up-Time : 44 days, 3:29:10.05","type":"ESR","status":"1","hoto":"1"},{"lat":"31.9624","lng":"77.1126","name":"KLLUKLLUESR002","address":"Sap : I-HP-KLLU-ENB-6017<br\/>Loopback : 172.22.168.34<br\/>Up-Time : 44 days, 3:27:15.87","type":"ESR","status":"1","hoto":"1"},{"lat":"31.9662","lng":"77.1241","name":"KLLUKLLUESR009","address":"Sap : I-HP-KLLU-ENB-6019<br\/>Loopback : 172.22.168.37<br\/>Up-Time : 44 days, 3:27:50.05","type":"ESR","status":"1","hoto":"1"},{"lat":"31.9547","lng":"77.1156","name":"KLLUKLLUESR007","address":"Sap : I-HP-KLLU-ENB-6020<br\/>Loopback : 172.22.168.35<br\/>Up-Time : 44 days, 3:26:47.56","type":"ESR","status":"1","hoto":"1"},{"lat":"32.2408","lng":"77.1862","name":"MNALMNALESR004","address":"Sap : I-HP-KLLU-ENB-6022<br\/>Loopback : 172.22.168.241<br\/>Up-Time : 44 days, 3:23:03.70","type":"ESR","status":"1","hoto":"1"},{"lat":"32.2224","lng":"77.197","name":"MNALMNALESR007","address":"Sap : I-HP-KLLU-ENB-6024<br\/>Loopback : 172.22.162.123<br\/>Up-Time : 2 days, 15:23:55.49","type":"ESR","status":"1","hoto":"1"},{"lat":"31.8096","lng":"77.1929","name":"KLLUKLLUESR001","address":"Sap : I-HP-KLLU-ENB-6029<br\/>Loopback : 172.22.163.103<br\/>Up-Time : 55 days, 6:07:26.17","type":"ESR","status":"1","hoto":"1"},{"lat":"31.8498","lng":"77.238","name":"KLLUKLLUESR017","address":"Sap : I-HP-KLLU-ENB-6030<br\/>Loopback : 172.22.163.128<br\/>Up-Time : 55 days, 4:57:43.71","type":"ESR","status":"1","hoto":"1"},{"lat":"32.1291","lng":"77.1524","name":"KLLUKLLUESR018","address":"Sap : I-HP-KLLU-ENB-6032<br\/>Loopback : 172.22.162.178<br\/>Up-Time : 61 days, 1:08:17.84","type":"ESR","status":"1","hoto":"1"},{"lat":"32.0389","lng":"77.14","name":"KLLUKLLUESR028","address":"Sap : I-HP-KLLU-ENB-6033<br\/>Loopback : 172.22.167.50<br\/>Up-Time : 35 days, 19:29:59.33","type":"ESR","status":"1","hoto":"1"},{"lat":"32.3155","lng":"77.1893","name":"MNALMNALESR006","address":"Sap : I-HP-KLLU-ENB-6036<br\/>Loopback : 172.22.167.158<br\/>Up-Time : 44 days, 3:06:55.77","type":"ESR","status":"1","hoto":"1"},{"lat":"32.2898","lng":"77.1645","name":"MNALMNALESR009","address":"Sap : I-HP-KLLU-ENB-6037<br\/>Loopback : 172.22.165.75<br\/> ","type":"ESR","status":"0","hoto":"1"},{"lat":"32.3069","lng":"77.1731","name":"MNALMNALESR010","address":"Sap : I-HP-KLLU-ENB-6038<br\/>Loopback : 172.22.167.157<br\/>Up-Time : 44 days, 3:05:17.36","type":"ESR","status":"1","hoto":"1"},{"lat":"32.0254","lng":"77.1386","name":"KLLUKLLUESR015","address":"Sap : I-HP-KLLU-ENB-9018<br\/>Loopback : 172.22.162.120<br\/>Up-Time : 9 days, 21:58:47.80","type":"ESR","status":"1","hoto":"1"},{"lat":"32.1618","lng":"77.1719","name":"MNALMNALESR005","address":"Sap : I-HP-KLLU-ENB-9025<br\/>Loopback : 172.22.170.83<br\/>Up-Time : 44 days, 3:19:54.65","type":"ESR","status":"1","hoto":"1"},{"lat":"32.0433","lng":"77.1249","name":"KLLUKLLUESR013","address":"Sap : I-HP-KLLU-ENB-9026<br\/>Loopback : 172.22.167.49<br\/>Up-Time : 1 day, 20:41:41.38","type":"ESR","status":"1","hoto":"1"},{"lat":"31.8482","lng":"77.164","name":"KLLUKLLUESR012","address":"Sap : I-HP-KLLU-ENB-9027<br\/>Loopback : 172.22.162.1<br\/>Up-Time : 55 days, 3:55:35.10","type":"ESR","status":"1","hoto":"1"},{"lat":"32.0785","lng":"77.125","name":"KLLUKLLUESR014","address":"Sap : I-HP-KLLU-ENB-9028<br\/>Loopback : 172.22.162.190<br\/>Up-Time : 61 days, 4:05:00.94","type":"ESR","status":"1","hoto":"1"},{"lat":"32.191","lng":"77.1888","name":"MNALMNALESR012","address":"Sap : I-HP-KLLU-ENB-9029<br\/>Loopback : 172.22.165.226<br\/>Up-Time : 61 days, 4:11:31.33","type":"ESR","status":"1","hoto":"1"},{"lat":"31.7547","lng":"77.2121","name":"AUTTAUTTESR001","address":"Sap : I-HP-KLLU-ENB-9030<br\/>Loopback : 172.22.163.129<br\/>Up-Time : 24 days, 15:46:17.88","type":"ESR","status":"1","hoto":"1"},{"lat":"32.0007","lng":"77.1325","name":"KLLUKLLUESR024","address":"Sap : I-HP-KLLU-ENB-9031<br\/>Loopback : 172.22.162.119<br\/>Up-Time : 61 days, 4:04:53.47","type":"ESR","status":"1","hoto":"1"},{"lat":"31.9617","lng":"77.1071","name":"KLLUCMDNESR001","address":"Sap : I-HP-KLLU-ENB-H001<br\/>Loopback : 172.22.168.33<br\/>Up-Time : 44 days, 1:35:34.62","type":"ESR","status":"1","hoto":"1"},{"lat":"31.901","lng":"77.148","name":"KLLUKLLUESR008","address":"Sap : I-HP-KLLU-ENB-H002<br\/>Loopback : 172.22.168.36<br\/>Up-Time : 53 days, 3:24:05.83","type":"ESR","status":"1","hoto":"1"},{"lat":"31.8585","lng":"77.1513","name":"KLLUKLLUESR029","address":"Sap : I-HP-KLLU-ENB-H003<br\/>Loopback : 172.22.167.94<br\/>Up-Time : 53 days, 3:24:14.02","type":"ESR","status":"1","hoto":"1"},{"lat":"31.9428","lng":"77.1078","name":"KLLUSHTRESR001","address":"Sap : I-HP-KLLU-ENB-V001<br\/>Loopback : 172.22.168.32<br\/>Up-Time : 44 days, 3:21:01.79","type":"ESR","status":"1","hoto":"1"},{"lat":"31.3047","lng":"77.4414","name":"KMRNKMRNESR004","address":"Sap : I-HP-KMRN-ENB-6000<br\/>Loopback : 172.22.170.144<br\/>Up-Time : 38 days, 13:11:53.14","type":"ESR","status":"1","hoto":"1"},{"lat":"31.3174","lng":"77.4418","name":"KMRNKMRNESR003","address":"Sap : I-HP-KMRN-ENB-6002<br\/>Loopback : 172.22.170.145<br\/>Up-Time : 53 days, 3:23:05.16","type":"ESR","status":"1","hoto":"1"},{"lat":"31.3219","lng":"77.4927","name":"KMRNKMRNESR002","address":"Sap : I-HP-KMRN-ENB-6004<br\/>Loopback : 172.22.170.142<br\/>Up-Time : 37 days, 6:47:25.01","type":"ESR","status":"1","hoto":"1"},{"lat":"31.2546","lng":"77.4605","name":"KMRNKMRNESR001","address":"Sap : I-HP-KMRN-ENB-6005<br\/>Loopback : 172.22.167.1<br\/>Up-Time : 44 days, 2:46:54.75","type":"ESR","status":"1","hoto":"1"},{"lat":"31.2236","lng":"77.4344","name":"THEGTHEGESR007","address":"Sap : I-HP-KMRN-ENB-9011<br\/>Loopback : 172.22.170.141<br\/>Up-Time : 7 days, 13:42:15.25","type":"ESR","status":"1","hoto":"1"},{"lat":"32.1141","lng":"76.2814","name":"KNGRKNGRESR002","address":"Sap : I-HP-KNGR-ENB-0004<br\/>Loopback : 172.22.168.234<br\/>Up-Time : 16 days, 15:38:39.21","type":"ESR","status":"1","hoto":"1"},{"lat":"32.1218","lng":"76.4395","name":"NGBWNGBWESR003","address":"Sap : I-HP-KNGR-ENB-6001<br\/>Loopback : 172.22.166.27<br\/>Up-Time : 44 days, 3:30:14.23","type":"ESR","status":"1","hoto":"1"},{"lat":"32.1326","lng":"76.2986","name":"KNGRKNGRESR003","address":"Sap : I-HP-KNGR-ENB-6003<br\/>Loopback : 172.22.168.235<br\/>Up-Time : 40 days, 5:23:10.27","type":"ESR","status":"1","hoto":"1"},{"lat":"32.1155","lng":"76.414","name":"NGBWNGBWESR001","address":"Sap : I-HP-KNGR-ENB-9006<br\/>Loopback : 172.22.168.243<br\/>Up-Time : 44 days, 3:20:16.82","type":"ESR","status":"1","hoto":"1"},{"lat":"32.0961","lng":"76.3351","name":"KNGRKNGRESR005","address":"Sap : I-HP-KNGR-ENB-9010<br\/>Loopback : 172.22.168.244<br\/>Up-Time : 40 days, 5:25:55.10","type":"ESR","status":"1","hoto":"1"},{"lat":"32.1015","lng":"76.2767","name":"KNGRKNGRESR007","address":"Sap : I-HP-KNGR-ENB-H001<br\/>Loopback : 172.22.167.77<br\/>Up-Time : 40 days, 5:01:31.87","type":"ESR","status":"1","hoto":"1"},{"lat":"31.3683","lng":"77.1777","name":"KRSGKRSGESR004","address":"Sap : I-HP-KRSG-ENB-6000<br\/>Loopback : 172.22.163.132<br\/>Up-Time : 61 days, 4:04:44.65","type":"ESR","status":"1","hoto":"1"},{"lat":"31.3939","lng":"77.1163","name":"KRSGKRSGESR003","address":"Sap : I-HP-KRSG-ENB-6004<br\/>Loopback : 172.22.163.131<br\/>Up-Time : 61 days, 1:06:22.99","type":"ESR","status":"1","hoto":"1"},{"lat":"31.3238","lng":"77.0957","name":"KRSGKRSGESR002","address":"Sap : I-HP-KRSG-ENB-6005<br\/>Loopback : 172.22.163.130<br\/>Up-Time : 36 days, 20:27:45.35","type":"ESR","status":"1","hoto":"1"},{"lat":"30.894","lng":"77.0159","name":"KSULKSULESR013","address":"Sap : I-HP-KSUL-ENB-6000<br\/>Loopback : 172.22.162.151<br\/>Up-Time : 32 days, 22:15:36.53","type":"ESR","status":"1","hoto":"1"},{"lat":"30.9005","lng":"76.9782","name":"KSULKSULESR008","address":"Sap : I-HP-KSUL-ENB-6001<br\/>Loopback : 172.22.165.92<br\/>Up-Time : 44 days, 2:46:34.92","type":"ESR","status":"1","hoto":"1"},{"lat":"30.8467","lng":"77.0416","name":"KSULKSULESR012","address":"Sap : I-HP-KSUL-ENB-6002<br\/>Loopback : 172.22.165.87<br\/>Up-Time : 44 days, 2:59:18.39","type":"ESR","status":"1","hoto":"1"},{"lat":"30.8949","lng":"76.9574","name":"KSULKSULESR009","address":"Sap : I-HP-KSUL-ENB-6003<br\/>Loopback : 172.22.165.91<br\/>Up-Time : 44 days, 2:54:23.32","type":"ESR","status":"1","hoto":"1"},{"lat":"30.9378","lng":"76.9536","name":"KSULKSULESR007","address":"Sap : I-HP-KSUL-ENB-6004<br\/>Loopback : 172.22.165.88<br\/>Up-Time : 13 days, 19:04:27.77","type":"ESR","status":"1","hoto":"1"},{"lat":"30.867","lng":"76.9464","name":"KSULKSULESR011","address":"Sap : I-HP-KSUL-ENB-6005<br\/>Loopback : 172.22.166.25<br\/>Up-Time : 44 days, 3:28:22.20","type":"ESR","status":"1","hoto":"1"},{"lat":"30.8691","lng":"77.005","name":"KSULKSULESR004","address":"Sap : I-HP-KSUL-ENB-9007<br\/>Loopback : 172.22.165.85<br\/>Up-Time : 44 days, 3:05:00.70","type":"ESR","status":"1","hoto":"1"},{"lat":"30.8421","lng":"76.9998","name":"KSULKSULESR010","address":"Sap : I-HP-KSUL-ENB-9008<br\/>Loopback : 172.22.166.165<br\/>Up-Time : 24 days, 16:30:28.15","type":"ESR","status":"1","hoto":"1"},{"lat":"30.9001","lng":"76.9619","name":"KSULKSULESR002","address":"Sap : I-HP-KSUL-ENB-B001<br\/>Loopback : 172.22.165.86<br\/>Up-Time : 30 days, 17:53:54.00","type":"ESR","status":"1","hoto":"1"},{"lat":"30.8266","lng":"77.008","name":"KSULKSULESR006","address":"Sap : I-HP-KSUL-ENB-H001<br\/>Loopback : 172.22.167.102<br\/>Up-Time : 44 days, 3:03:01.18","type":"ESR","status":"1","hoto":"1"},{"lat":"32.5295","lng":"75.9507","name":"KTLGKTLGESR001","address":"Sap : I-HP-KTLG-ENB-6000<br\/>Loopback : 172.22.165.139<br\/>Up-Time : 55 days, 4:51:26.50","type":"ESR","status":"1","hoto":"1"},{"lat":"31.7806","lng":"76.8668","name":"KTLIKTLIESR001","address":"Sap : I-HP-KTLI-ENB-6000<br\/>Loopback : 172.22.166.70<br\/>Up-Time : 44 days, 3:20:59.73","type":"ESR","status":"1","hoto":"1"},{"lat":"31.9061","lng":"76.3821","name":"KUDNKUDNESR002","address":"Sap : I-HP-KUDN-ENB-6000<br\/>Loopback : 172.22.165.72<br\/>Up-Time : 12:18:17.91","type":"ESR","status":"1","hoto":"1"},{"lat":"31.8292","lng":"76.3916","name":"KUDNKUDNESR003","address":"Sap : I-HP-KUDN-ENB-6001<br\/>Loopback : 172.22.162.184<br\/>Up-Time : 4 days, 21:36:50.30","type":"ESR","status":"1","hoto":"1"},{"lat":"31.8888","lng":"76.4479","name":"KUDNKUDNESR001","address":"Sap : I-HP-KUDN-ENB-6002<br\/>Loopback : 172.22.162.186<br\/>Up-Time : 6 days, 15:46:18.85","type":"ESR","status":"1","hoto":"1"},{"lat":"31.9789","lng":"76.7309","name":"LDBLLDBLESR004","address":"Sap : I-HP-LDBL-ENB-6001<br\/>Loopback : 172.22.167.111<br\/>Up-Time : 3 days, 20:05:59.01","type":"ESR","status":"1","hoto":"1"},{"lat":"31.9065","lng":"76.704","name":"LDBLLDBLESR002","address":"Sap : I-HP-LDBL-ENB-6003<br\/>Loopback : 172.22.167.112<br\/>Up-Time : 44 days, 3:02:58.02","type":"ESR","status":"1","hoto":"1"},{"lat":"31.9379","lng":"76.7084","name":"LDBLLDBLESR005","address":"Sap : I-HP-LDBL-ENB-H001<br\/>Loopback : 172.22.165.224<br\/>Up-Time : 11 days, 13:19:39.47","type":"ESR","status":"1","hoto":"1"},{"lat":"31.7082","lng":"76.0854","name":"AAMBAAMBESR008","address":"Sap : I-HP-MBRK-ENB-0001<br\/>Loopback : 172.22.161.235<br\/>Up-Time : 26 days, 18:46:28.45","type":"ESR","status":"1","hoto":"1"},{"lat":"31.7102","lng":"76.0886","name":"AAMBAAMBESR004","address":"Sap : I-HP-MBRK-ENB-0002<br\/>Loopback : 172.22.175.255<br\/>Up-Time : 40 days, 5:20:00.08","type":"ESR","status":"1","hoto":"1"},{"lat":"31.4063","lng":"76.3329","name":"MHTBMHTBESR001","address":"Sap : I-HP-MHTB-ENB-0001<br\/>Loopback : 172.22.168.231<br\/>Up-Time : 61 days, 4:10:49.54","type":"ESR","status":"1","hoto":"1"},{"lat":"31.4106","lng":"76.3498","name":"MHTBMHTBESR002","address":"Sap : I-HP-MHTB-ENB-0002<br\/>Loopback : 172.22.168.232<br\/>Up-Time : 61 days, 4:09:29.78","type":"ESR","status":"1","hoto":"1"},{"lat":"31.4068","lng":"76.3419","name":"MHTBMHTBESR003","address":"Sap : I-HP-MHTB-ENB-6001<br\/>Loopback : 172.22.168.223<br\/>Up-Time : 27 days, 8:21:02.28","type":"ESR","status":"1","hoto":"1"},{"lat":"32.2559","lng":"77.1805","name":"MNALMNALESR001","address":"Sap : I-HP-MNAL-ENB-0003<br\/>Loopback : 172.22.168.25<br\/>Up-Time : 44 days, 3:00:52.37","type":"ESR","status":"1","hoto":"1"},{"lat":"32.2427","lng":"77.1936","name":"MNALMNALESR002","address":"Sap : I-HP-MNAL-ENB-0006<br\/>Loopback : 172.22.161.194<br\/>Up-Time : 55 days, 5:55:34.48","type":"ESR","status":"1","hoto":"1"},{"lat":"32.2464","lng":"77.1839","name":"MNALMNALESR003","address":"Sap : I-HP-MNAL-ENB-6000<br\/>Loopback : 172.22.168.240<br\/>Up-Time : 61 days, 4:06:29.06","type":"ESR","status":"1","hoto":"1"},{"lat":"32.2478","lng":"77.1843","name":"MNALMNALESR011","address":"Sap : I-HP-MNAL-ENB-6001<br\/>Loopback : 172.22.165.233<br\/>Up-Time : 55 days, 5:04:33.33","type":"ESR","status":"1","hoto":"1"},{"lat":"31.7006","lng":"76.9535","name":"MNDIMNDIESR008","address":"Sap : I-HP-MNDI-ENB-0005<br\/>Loopback : 172.22.168.111<br\/>Up-Time : 61 days, 1:59:42.55","type":"ESR","status":"1","hoto":"1"},{"lat":"31.6248","lng":"76.9548","name":"MNDIMNDIESR021","address":"Sap : I-HP-MNDI-ENB-6000<br\/>Loopback : 172.22.162.23<br\/>Up-Time : 55 days, 5:46:13.88","type":"ESR","status":"1","hoto":"1"},{"lat":"31.6658","lng":"76.9512","name":"MNDIMNDIESR002","address":"Sap : I-HP-MNDI-ENB-6002<br\/>Loopback : 172.22.162.37<br\/>Up-Time : 55 days, 6:08:37.83","type":"ESR","status":"1","hoto":"1"},{"lat":"31.6464","lng":"76.8469","name":"MNDIMNDIESR020","address":"Sap : I-HP-MNDI-ENB-6004<br\/>Loopback : 172.22.161.169<br\/>Up-Time : 55 days, 5:46:21.45","type":"ESR","status":"1","hoto":"1"},{"lat":"31.7936","lng":"77.0184","name":"MNDIMNDIESR016","address":"Sap : I-HP-MNDI-ENB-6005<br\/>Loopback : 172.22.162.24<br\/> ","type":"ESR","status":"0","hoto":"1"},{"lat":"31.7159","lng":"76.9402","name":"MNDIMNDIESR001","address":"Sap : I-HP-MNDI-ENB-6006<br\/>Loopback : 172.22.168.109<br\/>Up-Time : 61 days, 2:02:44.43","type":"ESR","status":"1","hoto":"1"},{"lat":"31.6941","lng":"76.9329","name":"MNDIMNDIESR013","address":"Sap : I-HP-MNDI-ENB-6007<br\/>Loopback : 172.22.168.114<br\/>Up-Time : 30 days, 16:22:09.79","type":"ESR","status":"1","hoto":"1"},{"lat":"31.7042","lng":"76.9455","name":"MNDIMNDIESR010","address":"Sap : I-HP-MNDI-ENB-6008<br\/>Loopback : 172.22.168.11<br\/>Up-Time : 61 days, 1:58:13.78","type":"ESR","status":"1","hoto":"1"},{"lat":"31.7073","lng":"76.9329","name":"MNDIMNDIESR011","address":"Sap : I-HP-MNDI-ENB-6010<br\/>Loopback : 172.22.168.112<br\/>Up-Time : 44 days, 3:04:16.52","type":"ESR","status":"1","hoto":"1"},{"lat":"31.7103","lng":"76.926","name":"MNDIMNDIESR012","address":"Sap : I-HP-MNDI-ENB-6011<br\/>Loopback : 172.22.168.113<br\/>Up-Time : 44 days, 3:14:29.76","type":"ESR","status":"1","hoto":"1"},{"lat":"31.6317","lng":"76.863","name":"MNDIMNDIESR015","address":"Sap : I-HP-MNDI-ENB-6013<br\/>Loopback : 172.22.161.167<br\/>Up-Time : 55 days, 5:43:57.87","type":"ESR","status":"1","hoto":"1"},{"lat":"31.6143","lng":"76.9109","name":"MNDIMNDIESR006","address":"Sap : I-HP-MNDI-ENB-6014<br\/>Loopback : 172.22.162.89<br\/>Up-Time : 13 days, 17:46:35.96","type":"ESR","status":"1","hoto":"1"},{"lat":"31.6324","lng":"76.8195","name":"MNDIMNDIESR017","address":"Sap : I-HP-MNDI-ENB-6015<br\/>Loopback : 172.22.161.166<br\/>Up-Time : 45 days, 18:48:53.13","type":"ESR","status":"1","hoto":"1"},{"lat":"31.7602","lng":"76.9155","name":"MNDIMNDIESR007","address":"Sap : I-HP-MNDI-ENB-6017<br\/>Loopback : 172.22.162.64<br\/>Up-Time : 53 days, 13:45:28.05","type":"ESR","status":"1","hoto":"1"},{"lat":"31.6299","lng":"76.9443","name":"MNDIMNDIESR005","address":"Sap : I-HP-MNDI-ENB-9015<br\/>Loopback : 172.22.162.34<br\/>Up-Time : 30 days, 15:38:40.60","type":"ESR","status":"1","hoto":"1"},{"lat":"31.7269","lng":"77.0188","name":"MNDIMNDIESR014","address":"Sap : I-HP-MNDI-ENB-9017<br\/>Loopback : 172.22.163.101<br\/>Up-Time : 55 days, 6:07:24.96","type":"ESR","status":"1","hoto":"1"},{"lat":"31.7202","lng":"76.9378","name":"MNDIMNDIESR009","address":"Sap : I-HP-MNDI-ENB-A001<br\/>Loopback : 172.22.168.108<br\/>Up-Time : 44 days, 2:42:43.81","type":"ESR","status":"1","hoto":"1"},{"lat":"31.6964","lng":"76.9277","name":"MNDISNYDESR001","address":"Sap : I-HP-MNDI-ENB-A002<br\/>Loopback : 172.22.162.92<br\/>Up-Time : 48 days, 13:48:59.98","type":"ESR","status":"1","hoto":"1"},{"lat":"31.697","lng":"77.0537","name":"MNDIMNDIESR026","address":"Sap : I-HP-MNDI-ENB-H001<br\/>Loopback : 172.22.165.153<br\/>Up-Time : 5 days, 7:10:20.94","type":"ESR","status":"1","hoto":"1"},{"lat":"31.7063","lng":"76.9736","name":"MNDIMNDIESR027","address":"Sap : I-HP-MNDI-ENB-H002<br\/>Loopback : 172.22.163.100<br\/>Up-Time : 55 days, 6:15:11.62","type":"ESR","status":"1","hoto":"1"},{"lat":"30.5592","lng":"77.3","name":"NHANNHANESR003","address":"Sap : I-HP-NHAN-ENB-0002<br\/>Loopback : 172.22.169.55<br\/>Up-Time : 2 days, 10:52:56.37","type":"ESR","status":"1","hoto":"1"},{"lat":"30.5125","lng":"77.2154","name":"NHANNHANESR009","address":"Sap : I-HP-NHAN-ENB-6002<br\/>Loopback : 172.22.163.203<br\/>Up-Time : 41 days, 23:21:42.71","type":"ESR","status":"1","hoto":"1"},{"lat":"30.4983","lng":"77.2133","name":"KLABKLABESR001","address":"Sap : I-HP-NHAN-ENB-6003<br\/>Loopback : 172.22.163.198<br\/>Up-Time : 53 days, 18:36:52.27","type":"ESR","status":"1","hoto":"1"},{"lat":"30.5605","lng":"77.2956","name":"NHANNHANESR002","address":"Sap : I-HP-NHAN-ENB-6004<br\/>Loopback : 172.22.169.54<br\/>Up-Time : 61 days, 1:51:12.61","type":"ESR","status":"1","hoto":"1"},{"lat":"30.5594","lng":"77.2904","name":"NHANNHANESR015","address":"Sap : I-HP-NHAN-ENB-6005<br\/>Loopback : 172.22.169.64<br\/>Up-Time : 44 days, 2:34:44.08","type":"ESR","status":"1","hoto":"1"},{"lat":"30.531","lng":"77.2695","name":"NHANNHANESR019","address":"Sap : I-HP-NHAN-ENB-6006<br\/>Loopback : 172.22.166.91<br\/>Up-Time : 61 days, 2:00:23.25","type":"ESR","status":"1","hoto":"1"},{"lat":"30.5408","lng":"77.1996","name":"NHANNHANESR001","address":"Sap : I-HP-NHAN-ENB-6007<br\/>Loopback : 172.22.163.202<br\/>Up-Time : 53 days, 3:26:52.40","type":"ESR","status":"1","hoto":"1"},{"lat":"30.5175","lng":"77.3425","name":"NHANNHANESR013","address":"Sap : I-HP-NHAN-ENB-9004<br\/>Loopback : 172.22.169.60<br\/>Up-Time : 23 days, 16:28:10.38","type":"ESR","status":"1","hoto":"1"},{"lat":"30.5297","lng":"77.2999","name":"NHANNHANESR012","address":"Sap : I-HP-NHAN-ENB-9005<br\/>Loopback : 172.22.169.59<br\/>Up-Time : 61 days, 1:58:47.46","type":"ESR","status":"1","hoto":"1"},{"lat":"30.5208","lng":"77.2467","name":"NHANNHANESR014","address":"Sap : I-HP-NHAN-ENB-9006<br\/>Loopback : 172.22.169.103<br\/>Up-Time : 44 days, 3:23:21.84","type":"ESR","status":"1","hoto":"1"},{"lat":"30.559","lng":"77.305","name":"NHANNHANESR016","address":"Sap : I-HP-NHAN-ENB-B001<br\/>Loopback : 172.22.169.67<br\/>Up-Time : 42 days, 12:00:13.95","type":"ESR","status":"1","hoto":"1"},{"lat":"30.5593","lng":"77.2868","name":"NHANNHANESR017","address":"Sap : I-HP-NHAN-ENB-H001<br\/>Loopback : 172.22.171.32<br\/>Up-Time : 4 days, 18:01:23.56","type":"ESR","status":"1","hoto":"1"},{"lat":"30.5085","lng":"77.2383","name":"NHANNHANESR018","address":"Sap : I-HP-NHAN-ENB-H002<br\/>Loopback : 172.22.165.113<br\/>Up-Time : 37 days, 17:54:21.61","type":"ESR","status":"1","hoto":"1"},{"lat":"31.2598","lng":"76.8466","name":"NMHLNMHLESR001","address":"Sap : I-HP-NMHL-ENB-6000<br\/>Loopback : 172.22.163.157<br\/>Up-Time : 9 days, 18:26:42.55","type":"ESR","status":"1","hoto":"1"},{"lat":"31.3062","lng":"76.5359","name":"NNDVNNDVESR005","address":"Sap : I-HP-NNDV-ENB-6000<br\/>Loopback : 172.22.161.227<br\/>Up-Time : 9 days, 21:56:52.48","type":"ESR","status":"1","hoto":"1"},{"lat":"31.3","lng":"76.5551","name":"NNDVNNDVESR004","address":"Sap : I-HP-NNDV-ENB-6001<br\/>Loopback : 172.22.161.170<br\/>Up-Time : 53 days, 18:27:30.24","type":"ESR","status":"1","hoto":"1"},{"lat":"31.2396","lng":"76.6942","name":"NNDVNNDVESR002","address":"Sap : I-HP-NNDV-ENB-6002<br\/>Loopback : 172.22.165.74<br\/>Up-Time : 26 days, 18:23:40.52","type":"ESR","status":"1","hoto":"1"},{"lat":"31.2344","lng":"76.7152","name":"NNDVNNDVESR003","address":"Sap : I-HP-NNDV-ENB-6003<br\/>Loopback : 172.22.162.180<br\/>Up-Time : 47 days, 15:45:24.50","type":"ESR","status":"1","hoto":"1"},{"lat":"31.3091","lng":"76.5361","name":"NNDVNNDVESR001","address":"Sap : I-HP-NNDV-ENB-V001<br\/>Loopback : 172.22.161.228<br\/>Up-Time : 55 days, 6:17:24.04","type":"ESR","status":"1","hoto":"1"},{"lat":"32.2952","lng":"75.8791","name":"NPPRNPPRESR005","address":"Sap : I-HP-NPPR-ENB-0002<br\/>Loopback : 172.22.167.121<br\/>Up-Time : 26 days, 9:07:03.70","type":"ESR","status":"1","hoto":"1"},{"lat":"32.2781","lng":"75.8496","name":"NPPRNPPRESR008","address":"Sap : I-HP-NPPR-ENB-6002<br\/>Loopback : 172.22.166.241<br\/>Up-Time : 44 days, 3:03:05.39","type":"ESR","status":"1","hoto":"1"},{"lat":"32.263","lng":"76.002","name":"NPPRNPPRESR003","address":"Sap : I-HP-NPPR-ENB-6003<br\/>Loopback : 172.22.161.177<br\/>Up-Time : 17 days, 16:51:11.97","type":"ESR","status":"1","hoto":"1"},{"lat":"32.2993","lng":"75.8873","name":"NPPRNPPRPAR001","address":"Sap : I-HP-NPPR-ENB-6005<br\/>Loopback : 172.16.41.103<br\/>Up-Time : 68 days, 22:16:07.22","type":"PAR","status":"1","hoto":"1"},{"lat":"32.2993","lng":"75.8873","name":"NPPRNPPRPAR002","address":"Sap : I-HP-NPPR-ENB-6005<br\/>Loopback : 172.16.41.104<br\/>Up-Time : 68 days, 22:15:36.02","type":"PAR","status":"1","hoto":"1"},{"lat":"32.2109","lng":"75.9135","name":"NPPRNPPRESR009","address":"Sap : I-HP-NPPR-ENB-9005<br\/>Loopback : 172.22.170.44<br\/>Up-Time : 51 days, 5:05:24.77","type":"ESR","status":"1","hoto":"1"},{"lat":"32.3011","lng":"75.8818","name":"NPPRNPPRESR004","address":"Sap : I-HP-NPPR-ENB-H001<br\/>Loopback : 172.22.167.119<br\/>Up-Time : 44 days, 2:49:48.25","type":"ESR","status":"1","hoto":"1"},{"lat":"32.2995","lng":"75.8935","name":"NPPRNPPRESR007","address":"Sap : I-HP-NPPR-ENB-H002<br\/>Loopback : 172.22.166.242<br\/>Up-Time : 44 days, 3:10:15.93","type":"ESR","status":"1","hoto":"1"},{"lat":"31.783","lng":"76.3446","name":"NUDNNUDNESR008","address":"Sap : I-HP-NUDN-ENB-0001<br\/>Loopback : 172.22.160.94<br\/>Up-Time : 21 days, 14:58:51.14","type":"ESR","status":"1","hoto":"1"},{"lat":"31.7133","lng":"76.4727","name":"HMRPHMRPESR010","address":"Sap : I-HP-NUDN-ENB-6000<br\/>Loopback : 172.22.164.156<br\/>Up-Time : 61 days, 1:55:18.68","type":"ESR","status":"1","hoto":"1"},{"lat":"31.7199","lng":"76.3867","name":"NUDNNUDNESR002","address":"Sap : I-HP-NUDN-ENB-6001<br\/>Loopback : 172.22.165.244<br\/>Up-Time : 45 days, 18:27:46.54","type":"ESR","status":"1","hoto":"1"},{"lat":"31.7799","lng":"76.4594","name":"NUDNNUDNESR009","address":"Sap : I-HP-NUDN-ENB-6002<br\/>Loopback : 172.22.168.227<br\/>Up-Time : 61 days, 1:51:46.55","type":"ESR","status":"1","hoto":"1"},{"lat":"31.7175","lng":"76.4168","name":"NUDNNUDNESR003","address":"Sap : I-HP-NUDN-ENB-6004<br\/>Loopback : 172.22.160.97<br\/>Up-Time : 44 days, 1:40:31.92","type":"ESR","status":"1","hoto":"1"},{"lat":"31.6274","lng":"76.4665","name":"HMRPHMRPESR011","address":"Sap : I-HP-NUDN-ENB-6005<br\/>Loopback : 172.22.163.184<br\/>Up-Time : 55 days, 5:12:53.00","type":"ESR","status":"1","hoto":"1"},{"lat":"31.7237","lng":"76.4509","name":"NUDNNUDNESR006","address":"Sap : I-HP-NUDN-ENB-9005<br\/>Loopback : 172.22.160.98<br\/>Up-Time : 44 days, 3:31:40.69","type":"ESR","status":"1","hoto":"1"},{"lat":"31.7638","lng":"76.3109","name":"NUDNNUDNESR004","address":"Sap : I-HP-NUDN-ENB-9007<br\/>Loopback : 172.22.160.93<br\/>Up-Time : 19 days, 1:18:47.55","type":"ESR","status":"1","hoto":"1"},{"lat":"31.7698","lng":"76.3614","name":"NUDNNUDNESR010","address":"Sap : I-HP-NUDN-ENB-C001<br\/>Loopback : 172.22.167.64<br\/>Up-Time : 51 days, 5:08:58.85","type":"ESR","status":"1","hoto":"1"},{"lat":"30.9786","lng":"76.7594","name":"NWGRNWGRESR003","address":"Sap : I-HP-NWGR-ENB-0003<br\/>Loopback : 172.22.164.45<br\/>Up-Time : 55 days, 5:09:41.97","type":"ESR","status":"1","hoto":"1"},{"lat":"30.9536","lng":"76.8361","name":"BDDIBDDIESR023","address":"Sap : I-HP-NWGR-ENB-0007<br\/>Loopback : 172.22.164.48<br\/>Up-Time : 55 days, 5:12:07.82","type":"ESR","status":"1","hoto":"1"},{"lat":"30.9125","lng":"76.8507","name":"KSGHKSGHESR002","address":"Sap : I-HP-NWGR-ENB-0008<br\/>Loopback : 172.22.164.52<br\/>Up-Time : 55 days, 4:59:07.64","type":"ESR","status":"1","hoto":"1"},{"lat":"30.9235","lng":"76.8454","name":"BDDIBDDIESR027","address":"Sap : I-HP-NWGR-ENB-0009<br\/>Loopback : 172.22.164.50<br\/>Up-Time : 48 days, 14:56:51.82","type":"ESR","status":"1","hoto":"1"},{"lat":"30.9045","lng":"76.8646","name":"KSGHKSGHESR003","address":"Sap : I-HP-NWGR-ENB-0010<br\/>Loopback : 172.22.164.68<br\/>Up-Time : 31 days, 18:06:17.54","type":"ESR","status":"1","hoto":"1"},{"lat":"30.9887","lng":"76.7737","name":"BDDIBDDIESR012","address":"Sap : I-HP-NWGR-ENB-0011<br\/>Loopback : 172.22.164.73<br\/>Up-Time : 3 days, 8:28:16.60","type":"ESR","status":"1","hoto":"1"},{"lat":"31.0352","lng":"76.7079","name":"NWGRNWGRESR021","address":"Sap : I-HP-NWGR-ENB-0014<br\/>Loopback : 172.22.164.83<br\/>Up-Time : 6 days, 19:17:57.29","type":"ESR","status":"1","hoto":"1"},{"lat":"31.0291","lng":"76.701","name":"NWGRNWGRESR004","address":"Sap : I-HP-NWGR-ENB-0017<br\/>Loopback : 172.22.164.81<br\/>Up-Time : 6 days, 16:38:16.05","type":"ESR","status":"1","hoto":"1"},{"lat":"30.9922","lng":"76.7459","name":"NWGRNWGRESR028","address":"Sap : I-HP-NWGR-ENB-0018<br\/>Loopback : 172.22.164.78<br\/>Up-Time : 55 days, 4:51:45.80","type":"ESR","status":"1","hoto":"1"},{"lat":"30.9154","lng":"76.8364","name":"KSGHKSGHESR001","address":"Sap : I-HP-NWGR-ENB-0020<br\/>Loopback : 172.22.164.51<br\/>Up-Time : 55 days, 4:58:30.12","type":"ESR","status":"1","hoto":"1"},{"lat":"30.9344","lng":"76.8406","name":"BDDIBDDIESR007","address":"Sap : I-HP-NWGR-ENB-0021<br\/>Loopback : 172.22.164.69<br\/>Up-Time : 2 days, 14:46:01.80","type":"ESR","status":"1","hoto":"1"},{"lat":"30.9647","lng":"76.7998","name":"BDDIBDDIESR008","address":"Sap : I-HP-NWGR-ENB-0024<br\/>Loopback : 172.22.163.231<br\/>Up-Time : 55 days, 4:01:23.96","type":"ESR","status":"1","hoto":"1"},{"lat":"31.0114","lng":"76.7238","name":"NWGRNWGRESR002","address":"Sap : I-HP-NWGR-ENB-0027<br\/>Loopback : 172.22.164.79<br\/>Up-Time : 46 days, 17:39:20.04","type":"ESR","status":"1","hoto":"1"},{"lat":"30.8788","lng":"76.873","name":"KSGHKSGHESR004","address":"Sap : I-HP-NWGR-ENB-0030<br\/>Loopback : 172.22.166.211<br\/>Up-Time : 51 days, 5:22:42.42","type":"ESR","status":"1","hoto":"1"},{"lat":"30.9618","lng":"76.8191","name":"BDDIBDDIESR016","address":"Sap : I-HP-NWGR-ENB-0031<br\/>Loopback : 172.22.163.232<br\/>Up-Time : 4 days, 19:56:35.53","type":"ESR","status":"1","hoto":"1"},{"lat":"30.9776","lng":"76.7755","name":"BDDIBDDIESR010","address":"Sap : I-HP-NWGR-ENB-0032<br\/>Loopback : 172.22.164.46<br\/>Up-Time : 55 days, 5:09:52.36","type":"ESR","status":"1","hoto":"1"},{"lat":"30.9666","lng":"76.7605","name":"NWGRNWGRESR006","address":"Sap : I-HP-NWGR-ENB-6000<br\/>Loopback : 172.22.164.74<br\/>Up-Time : 44 days, 2:39:18.53","type":"ESR","status":"1","hoto":"1"},{"lat":"30.925","lng":"76.7953","name":"BDDIBDDIESR017","address":"Sap : I-HP-NWGR-ENB-6001<br\/>Loopback : 172.22.163.233<br\/>Up-Time : 55 days, 5:14:27.11","type":"ESR","status":"1","hoto":"1"},{"lat":"30.9269","lng":"76.8363","name":"BDDIBDDIESR024","address":"Sap : I-HP-NWGR-ENB-6002<br\/>Loopback : 172.22.164.49<br\/>Up-Time : 55 days, 5:12:49.89","type":"ESR","status":"1","hoto":"1"},{"lat":"31.2006","lng":"76.7016","name":"NWGRNWGRESR023","address":"Sap : I-HP-NWGR-ENB-6003<br\/>Loopback : 172.22.165.221<br\/>Up-Time : 35 days, 19:18:59.38","type":"ESR","status":"1","hoto":"1"},{"lat":"31.0602","lng":"76.6776","name":"NWGRNWGRESR001","address":"Sap : I-HP-NWGR-ENB-6004<br\/>Loopback : 172.22.164.86<br\/>Up-Time : 45 days, 18:17:46.67","type":"ESR","status":"1","hoto":"1"},{"lat":"30.9986","lng":"76.7319","name":"BDDIBDDIESR009","address":"Sap : I-HP-NWGR-ENB-6005<br\/>Loopback : 172.22.163.188<br\/>Up-Time : 55 days, 5:07:56.72","type":"ESR","status":"1","hoto":"1"},{"lat":"31.0408","lng":"76.7239","name":"NWGRNWGRESR015","address":"Sap : I-HP-NWGR-ENB-6006<br\/>Loopback : 172.22.168.95<br\/>Up-Time : 14 days, 15:03:43.50","type":"ESR","status":"1","hoto":"1"},{"lat":"31.9885","lng":"76.7535","name":"JGNDJGNDESR007","address":"Sap : I-HP-NWGR-ENB-6007<br\/>Loopback : 172.22.164.77<br\/>Up-Time : 55 days, 4:51:21.03","type":"ESR","status":"1","hoto":"1"},{"lat":"31.018","lng":"76.7157","name":"NWGRNWGRESR008","address":"Sap : I-HP-NWGR-ENB-6008<br\/>Loopback : 172.22.164.82<br\/>Up-Time : 55 days, 4:01:23.05","type":"ESR","status":"1","hoto":"1"},{"lat":"31.0235","lng":"76.7123","name":"NWGRNWGRESR005","address":"Sap : I-HP-NWGR-ENB-6009<br\/>Loopback : 172.22.164.85<br\/>Up-Time : 55 days, 4:57:11.31","type":"ESR","status":"1","hoto":"1"},{"lat":"31.0473","lng":"76.7044","name":"NWGRNWGRESR009","address":"Sap : I-HP-NWGR-ENB-6010<br\/>Loopback : 172.22.164.84<br\/>Up-Time : 36 days, 7:10:41.71","type":"ESR","status":"1","hoto":"1"},{"lat":"31.1417","lng":"76.6521","name":"NWGRNWGRESR027","address":"Sap : I-HP-NWGR-ENB-6012<br\/>Loopback : 172.22.166.28<br\/>Up-Time : 26 days, 19:05:43.76","type":"ESR","status":"1","hoto":"1"},{"lat":"31.1317","lng":"76.6631","name":"NWGRNWGRESR026","address":"Sap : I-HP-NWGR-ENB-9006<br\/>Loopback : 172.22.165.239<br\/>Up-Time : 10 days, 14:22:34.54","type":"ESR","status":"1","hoto":"1"},{"lat":"31.211","lng":"76.7233","name":"NWGRNWGRESR017","address":"Sap : I-HP-NWGR-ENB-9008<br\/>Loopback : 172.22.162.253<br\/>Up-Time : 61 days, 4:08:18.84","type":"ESR","status":"1","hoto":"1"},{"lat":"31.164","lng":"76.682","name":"NWGRNWGRESR025","address":"Sap : I-HP-NWGR-ENB-9009<br\/>Loopback : 172.22.165.240<br\/>Up-Time : 55 days, 5:14:39.13","type":"ESR","status":"1","hoto":"1"},{"lat":"30.9203","lng":"76.8301","name":"BDDIBDDIESR029","address":"Sap : I-HP-NWGR-ENB-9012<br\/>Loopback : 172.22.164.70<br\/>Up-Time : 55 days, 4:00:51.48","type":"ESR","status":"1","hoto":"1"},{"lat":"31.0383","lng":"76.6903","name":"NWGRNWGRESR012","address":"Sap : I-HP-NWGR-ENB-9013<br\/>Loopback : 172.22.164.80<br\/>Up-Time : 55 days, 4:52:28.21","type":"ESR","status":"1","hoto":"1"},{"lat":"31.0037","lng":"76.7704","name":"BDDIBDDIESR028","address":"Sap : I-HP-NWGR-ENB-A001<br\/>Loopback : 172.22.167.81<br\/>Up-Time : 53 days, 3:23:33.30","type":"ESR","status":"1","hoto":"1"},{"lat":"31.0976","lng":"76.689","name":"NWGRNWGRESR020","address":"Sap : I-HP-NWGR-ENB-C001<br\/>Loopback : 172.22.162.32<br\/>Up-Time : 35 days, 10:40:41.08","type":"ESR","status":"1","hoto":"1"},{"lat":"31.0513","lng":"76.7082","name":"NWGRNWGRESR029","address":"Sap : I-HP-NWGR-ENB-E001<br\/>Loopback : 172.22.171.34<br\/>Up-Time : 51 days, 5:20:09.69","type":"ESR","status":"1","hoto":"1"},{"lat":"31.0251","lng":"76.6544","name":"NWGRNWGRESR018","address":"Sap : I-HP-NWGR-ENB-H001<br\/>Loopback : 172.22.161.244<br\/>Up-Time : 55 days, 6:09:38.67","type":"ESR","status":"1","hoto":"1"},{"lat":"30.9278","lng":"76.8307","name":"BDDIBDDIESR025","address":"Sap : I-HP-NWGR-ENB-H002<br\/>Loopback : 172.22.164.72<br\/>Up-Time : 55 days, 4:00:58.60","type":"ESR","status":"1","hoto":"1"},{"lat":"31.0445","lng":"76.7144","name":"NWGRNWGRESR022","address":"Sap : I-HP-NWGR-ENB-H004<br\/>Loopback : 172.22.162.6<br\/>Up-Time : 55 days, 6:01:11.05","type":"ESR","status":"1","hoto":"1"},{"lat":"31.0293","lng":"76.6372","name":"NWGRNWGRESR019","address":"Sap : I-HP-NWGR-ENB-H005<br\/>Loopback : 172.22.161.243<br\/>Up-Time : 55 days, 5:57:42.37","type":"ESR","status":"1","hoto":"1"},{"lat":"31.0393","lng":"76.7184","name":"NWGRNWGRESR016","address":"Sap : I-HP-NWGR-ENB-V001<br\/>Loopback : 172.22.165.64<br\/>Up-Time : 47 days, 13:36:53.59","type":"ESR","status":"1","hoto":"1"},{"lat":"31.0493","lng":"76.7222","name":"NWGRNWGRESR011","address":"Sap : I-HP-NWGR-ENB-W001<br\/>Loopback : 172.22.167.78<br\/>Up-Time : 53 days, 3:16:58.40","type":"ESR","status":"1","hoto":"1"},{"lat":"31.7377","lng":"76.9326","name":"MNDIMNDIESR023","address":"Sap : I-HP-PHAR-ENB-6000<br\/>Loopback : 172.22.166.57<br\/>Up-Time : 44 days, 2:21:34.44","type":"ESR","status":"1","hoto":"1"},{"lat":"31.854","lng":"76.9149","name":"PHARPHARESR010","address":"Sap : I-HP-PHAR-ENB-6001<br\/>Loopback : 172.22.167.113<br\/>Up-Time : 44 days, 3:03:42.52","type":"ESR","status":"1","hoto":"1"},{"lat":"31.8185","lng":"76.9354","name":"PHARPHARESR003","address":"Sap : I-HP-PHAR-ENB-6002<br\/>Loopback : 172.22.162.43<br\/>Up-Time : 55 days, 6:08:23.19","type":"ESR","status":"1","hoto":"1"},{"lat":"31.7618","lng":"76.9704","name":"PHARPHARESR007","address":"Sap : I-HP-PHAR-ENB-6003<br\/>Loopback : 172.22.161.255<br\/>Up-Time : 19 days, 22:32:35.46","type":"ESR","status":"1","hoto":"1"},{"lat":"31.8805","lng":"76.9163","name":"PHARPHARESR001","address":"Sap : I-HP-PHAR-ENB-9003<br\/>Loopback : 172.22.162.46<br\/>Up-Time : 55 days, 3:55:29.75","type":"ESR","status":"1","hoto":"1"},{"lat":"31.9287","lng":"76.8808","name":"PHARPHARESR005","address":"Sap : I-HP-PHAR-ENB-9004<br\/>Loopback : 172.22.162.52<br\/>Up-Time : 55 days, 6:09:33.11","type":"ESR","status":"1","hoto":"1"},{"lat":"31.9019","lng":"76.9008","name":"PHARPHARESR009","address":"Sap : I-HP-PHAR-ENB-9005<br\/>Loopback : 172.22.167.110<br\/>Up-Time : 23 days, 20:12:34.63","type":"ESR","status":"1","hoto":"1"},{"lat":"31.8443","lng":"76.9326","name":"PHARPHARESR006","address":"Sap : I-HP-PHAR-ENB-9006<br\/>Loopback : 172.22.162.67<br\/>Up-Time : 5 days, 21:08:46.12","type":"ESR","status":"1","hoto":"1"},{"lat":"31.7842","lng":"76.9297","name":"PHARPHARESR002","address":"Sap : I-HP-PHAR-ENB-9007<br\/>Loopback : 172.22.162.40<br\/>Up-Time : 55 days, 6:07:21.28","type":"ESR","status":"1","hoto":"1"},{"lat":"31.914","lng":"76.8874","name":"PHARPHARESR008","address":"Sap : I-HP-PHAR-ENB-9008<br\/>Loopback : 172.22.165.174<br\/>Up-Time : 55 days, 5:05:18.26","type":"ESR","status":"1","hoto":"1"},{"lat":"32.1192","lng":"76.5405","name":"PLNPPLNPESR007","address":"Sap : I-HP-PLNP-ENB-0004<br\/>Loopback : 172.22.169.123<br\/>Up-Time : 12 days, 16:17:20.58","type":"ESR","status":"1","hoto":"1"},{"lat":"32.1345","lng":"76.5623","name":"PLNPPLNPESR014","address":"Sap : I-HP-PLNP-ENB-6000<br\/>Loopback : 172.22.166.60<br\/>Up-Time : 2 days, 20:44:42.77","type":"ESR","status":"1","hoto":"1"},{"lat":"32.0129","lng":"76.5811","name":"PLNPPLNPESR010","address":"Sap : I-HP-PLNP-ENB-6002<br\/>Loopback : 172.22.165.118<br\/>Up-Time : 48 days, 4:06:07.31","type":"ESR","status":"1","hoto":"1"},{"lat":"32.1333","lng":"76.4711","name":"PLNPPLNPESR011","address":"Sap : I-HP-PLNP-ENB-6005<br\/>Loopback : 172.22.162.51<br\/>Up-Time : 55 days, 6:09:46.40","type":"ESR","status":"1","hoto":"1"},{"lat":"32.1176","lng":"76.5226","name":"PLNPPLNPESR012","address":"Sap : I-HP-PLNP-ENB-6007<br\/>Loopback : 172.22.165.119<br\/>Up-Time : 48 days, 3:58:35.55","type":"ESR","status":"1","hoto":"1"},{"lat":"32.1104","lng":"76.5362","name":"PLNPPLNPESR005","address":"Sap : I-HP-PLNP-ENB-6009<br\/>Loopback : 172.22.169.120<br\/>Up-Time : 3 days, 22:09:27.28","type":"ESR","status":"1","hoto":"1"},{"lat":"32.0675","lng":"76.5597","name":"PLNPPLNPESR013","address":"Sap : I-HP-PLNP-ENB-6010<br\/>Loopback : 172.22.165.120<br\/>Up-Time : 35 days, 13:21:33.30","type":"ESR","status":"1","hoto":"1"},{"lat":"31.9839","lng":"76.5989","name":"PLNPPLNPESR015","address":"Sap : I-HP-PLNP-ENB-6011<br\/>Loopback : 172.22.163.116<br\/>Up-Time : 55 days, 16:49:56.84","type":"ESR","status":"1","hoto":"1"},{"lat":"32.0826","lng":"76.4859","name":"PLNPPLNPESR002","address":"Sap : I-HP-PLNP-ENB-9009<br\/>Loopback : 172.22.168.242<br\/>Up-Time : 10 days, 9:01:18.14","type":"ESR","status":"1","hoto":"1"},{"lat":"32.0794","lng":"76.4581","name":"PLNPPLNPESR003","address":"Sap : I-HP-PLNP-ENB-9010<br\/>Loopback : 172.22.168.245<br\/>Up-Time : 25 days, 16:57:50.27","type":"ESR","status":"1","hoto":"1"},{"lat":"32.1073","lng":"76.5448","name":"PLNPPLNPESR016","address":"Sap : I-HP-PLNP-ENB-9012<br\/>Loopback : 172.22.166.59<br\/>Up-Time : 44 days, 1:37:47.06","type":"ESR","status":"1","hoto":"1"},{"lat":"32.1064","lng":"76.5351","name":"PLNPPLNPESR006","address":"Sap : I-HP-PLNP-ENB-H001<br\/>Loopback : 172.22.169.12<br\/>Up-Time : 3 days, 16:58:29.00","type":"ESR","status":"1","hoto":"1"},{"lat":"32.1144","lng":"76.5322","name":"PLNPPLNPESR008","address":"Sap : I-HP-PLNP-ENB-H002<br\/>Loopback : 172.22.169.124<br\/>Up-Time : 44 days, 2:30:07.11","type":"ESR","status":"1","hoto":"1"},{"lat":"30.4392","lng":"77.5964","name":"PNTAKDRPESR001","address":"Sap : I-HP-PNTA-ENB-0001<br\/>Loopback : 172.22.162.82<br\/>Up-Time : 55 days, 5:45:46.64","type":"ESR","status":"1","hoto":"1"},{"lat":"30.4463","lng":"77.6432","name":"PNTAPNTAESR006","address":"Sap : I-HP-PNTA-ENB-0005<br\/>Loopback : 172.22.163.168<br\/>Up-Time : 26 days, 22:52:18.57","type":"ESR","status":"1","hoto":"1"},{"lat":"30.5184","lng":"77.6612","name":"PNTAPNTAESR012","address":"Sap : I-HP-PNTA-ENB-0007<br\/>Loopback : 172.22.163.176<br\/>Up-Time : 55 days, 5:12:10.98","type":"ESR","status":"1","hoto":"1"},{"lat":"30.4778","lng":"77.6712","name":"PNTAPNTAESR009","address":"Sap : I-HP-PNTA-ENB-0008<br\/>Loopback : 172.22.163.171<br\/>Up-Time : 55 days, 4:01:50.36","type":"ESR","status":"1","hoto":"1"},{"lat":"30.4669","lng":"77.6239","name":"PNTAPNTAESR011","address":"Sap : I-HP-PNTA-ENB-0009<br\/>Loopback : 172.22.163.173<br\/>Up-Time : 3 days, 16:17:39.35","type":"ESR","status":"1","hoto":"1"},{"lat":"30.479","lng":"77.6469","name":"PNTAPNTAESR007","address":"Sap : I-HP-PNTA-ENB-0010<br\/>Loopback : 172.22.163.174<br\/>Up-Time : 55 days, 5:12:42.32","type":"ESR","status":"1","hoto":"1"},{"lat":"30.5012","lng":"77.66","name":"PNTAPNTAESR010","address":"Sap : I-HP-PNTA-ENB-0012<br\/>Loopback : 172.22.163.172<br\/>Up-Time : 53 days, 15:48:16.58","type":"ESR","status":"1","hoto":"1"},{"lat":"30.4856","lng":"77.71","name":"PNTAPNTAESR018","address":"Sap : I-HP-PNTA-ENB-6000<br\/>Loopback : 172.22.167.54<br\/>Up-Time : 28 days, 18:42:43.97","type":"ESR","status":"1","hoto":"1"},{"lat":"30.49","lng":"77.5275","name":"PNTAPNTAESR017","address":"Sap : I-HP-PNTA-ENB-6004<br\/>Loopback : 172.22.166.248<br\/>Up-Time : 61 days, 2:10:40.93","type":"ESR","status":"1","hoto":"1"},{"lat":"30.4713","lng":"77.6305","name":"PNTAPNTAESR013","address":"Sap : I-HP-PNTA-ENB-6005<br\/>Loopback : 172.22.163.177<br\/>Up-Time : 55 days, 5:12:52.96","type":"ESR","status":"1","hoto":"1"},{"lat":"30.4278","lng":"77.5747","name":"PNTAPNTAESR005","address":"Sap : I-HP-PNTA-ENB-6006<br\/>Loopback : 172.22.169.63<br\/>Up-Time : 61 days, 1:51:30.98","type":"ESR","status":"1","hoto":"1"},{"lat":"30.4528","lng":"77.6544","name":"PNTAPNTAESR004","address":"Sap : I-HP-PNTA-ENB-6007<br\/>Loopback : 172.22.163.175<br\/>Up-Time : 55 days, 5:12:31.34","type":"ESR","status":"1","hoto":"1"},{"lat":"30.4463","lng":"77.6035","name":"PNTAPNTAESR003","address":"Sap : I-HP-PNTA-ENB-6009<br\/>Loopback : 172.22.163.169<br\/>Up-Time : 53 days, 13:09:39.58","type":"ESR","status":"1","hoto":"1"},{"lat":"30.4638","lng":"77.6343","name":"PNTAPNTAESR001","address":"Sap : I-HP-PNTA-ENB-6010<br\/>Loopback : 172.22.162.45<br\/>Up-Time : 55 days, 6:15:49.24","type":"ESR","status":"1","hoto":"1"},{"lat":"30.5135","lng":"77.7016","name":"PNTAPNTAESR020","address":"Sap : I-HP-PNTA-ENB-9008<br\/>Loopback : 172.22.166.247<br\/>Up-Time : 53 days, 3:24:47.80","type":"ESR","status":"1","hoto":"1"},{"lat":"30.4696","lng":"77.5538","name":"PNTAPNTAESR015","address":"Sap : I-HP-PNTA-ENB-9010<br\/>Loopback : 172.22.169.61<br\/>Up-Time : 61 days, 1:58:33.36","type":"ESR","status":"1","hoto":"1"},{"lat":"30.4497","lng":"77.6277","name":"PNTAPNTAESR008","address":"Sap : I-HP-PNTA-ENB-9011<br\/>Loopback : 172.22.163.170<br\/>Up-Time : 55 days, 5:11:24.48","type":"ESR","status":"1","hoto":"1"},{"lat":"30.4413","lng":"77.5752","name":"PNTAPNTAESR016","address":"Sap : I-HP-PNTA-ENB-9012<br\/>Loopback : 172.22.169.62<br\/>Up-Time : 61 days, 0:58:49.46","type":"ESR","status":"1","hoto":"1"},{"lat":"30.4358","lng":"77.6192","name":"PNTAYMUNESR001","address":"Sap : I-HP-PNTA-ENB-B001<br\/>Loopback : 172.22.162.36<br\/>Up-Time : 55 days, 6:10:41.18","type":"ESR","status":"1","hoto":"1"},{"lat":"30.4388","lng":"77.627","name":"PNTADVNGESR002","address":"Sap : I-HP-PNTA-ENB-G001<br\/>Loopback : 172.22.162.57<br\/>Up-Time : 55 days, 6:09:15.02","type":"ESR","status":"1","hoto":"1"},{"lat":"30.4398","lng":"77.6228","name":"PNTADVNGESR001","address":"Sap : I-HP-PNTA-ENB-H002<br\/>Loopback : 172.22.163.166<br\/>Up-Time : 56 days, 9:36:30.56","type":"ESR","status":"1","hoto":"1"},{"lat":"30.4429","lng":"77.6298","name":"PNTAPNTAESR014","address":"Sap : I-HP-PNTA-ENB-W001<br\/>Loopback : 172.22.163.167<br\/>Up-Time : 55 days, 5:04:09.05","type":"ESR","status":"1","hoto":"1"},{"lat":"30.8386","lng":"76.9575","name":"PRWNPRWNESR005","address":"Sap : I-HP-PRWN-ENB-0001<br\/>Loopback : 172.22.167.101<br\/>Up-Time : 53 days, 3:17:45.34","type":"ESR","status":"1","hoto":"1"},{"lat":"30.8448","lng":"76.9532","name":"PRWNPRWNESR003","address":"Sap : I-HP-PRWN-ENB-0003<br\/>Loopback : 172.22.165.90<br\/>Up-Time : 44 days, 2:46:33.30","type":"ESR","status":"1","hoto":"1"},{"lat":"30.8386","lng":"76.9682","name":"PRWNPRWNESR002","address":"Sap : I-HP-PRWN-ENB-0004<br\/>Loopback : 172.22.162.145<br\/>Up-Time : 41 days, 17:49:37.11","type":"ESR","status":"1","hoto":"1"},{"lat":"30.8281","lng":"76.9718","name":"KSULKSULESR001","address":"Sap : I-HP-PRWN-ENB-0005<br\/>Loopback : 172.22.165.145<br\/>Up-Time : 61 days, 2:39:10.78","type":"ESR","status":"1","hoto":"1"},{"lat":"30.8479","lng":"76.9577","name":"PRWNPRWNESR004","address":"Sap : I-HP-PRWN-ENB-6000<br\/>Loopback : 172.22.167.57<br\/>Up-Time : 44 days, 3:20:38.23","type":"ESR","status":"1","hoto":"1"},{"lat":"31.8065","lng":"76.2273","name":"RKKRRKKRESR002","address":"Sap : I-HP-RKKR-ENB-6000<br\/>Loopback : 172.22.168.5<br\/>Up-Time : 39 days, 16:25:44.64","type":"ESR","status":"1","hoto":"1"},{"lat":"31.7811","lng":"76.2316","name":"RKKRRKKRESR001","address":"Sap : I-HP-RKKR-ENB-6001<br\/>Loopback : 172.22.160.91<br\/>Up-Time : 44 days, 3:27:28.98","type":"ESR","status":"1","hoto":"1"},{"lat":"31.0856","lng":"76.868","name":"RMHRRMHRESR001","address":"Sap : I-HP-RMHR-ENB-6002<br\/>Loopback : 172.22.169.142<br\/>Up-Time : 13 days, 13:08:24.87","type":"ESR","status":"1","hoto":"1"},{"lat":"31.0119","lng":"76.725","name":"NWGRNWGRESR013","address":"Sap : I-HP-RMHR-ENB-6003<br\/>Loopback : 172.22.168.93<br\/>Up-Time : 51 days, 5:14:33.17","type":"ESR","status":"1","hoto":"1"},{"lat":"31.5438","lng":"76.8955","name":"SDRNSDRNESR008","address":"Sap : I-HP-SDRN-ENB-0003<br\/>Loopback : 172.22.168.115<br\/>Up-Time : 29 days, 3:52:52.08","type":"ESR","status":"1","hoto":"1"},{"lat":"31.5648","lng":"76.9053","name":"SDRNSDRNESR009","address":"Sap : I-HP-SDRN-ENB-0004<br\/>Loopback : 172.22.168.117<br\/>Up-Time : 44 days, 3:26:51.97","type":"ESR","status":"1","hoto":"1"},{"lat":"31.5868","lng":"76.9231","name":"SDRNSDRNESR001","address":"Sap : I-HP-SDRN-ENB-0005<br\/>Loopback : 172.22.161.196<br\/>Up-Time : 55 days, 6:13:57.85","type":"ESR","status":"1","hoto":"1"},{"lat":"31.5968","lng":"76.9266","name":"MNDIMNDIESR003","address":"Sap : I-HP-SDRN-ENB-0006<br\/>Loopback : 172.22.162.28<br\/>Up-Time : 44 days, 2:25:44.13","type":"ESR","status":"1","hoto":"1"},{"lat":"31.5428","lng":"76.9055","name":"SDRNSDRNESR018","address":"Sap : I-HP-SDRN-ENB-0010<br\/>Loopback : 172.22.161.253<br\/>Up-Time : 55 days, 5:46:08.49","type":"ESR","status":"1","hoto":"1"},{"lat":"31.5918","lng":"76.9336","name":"MNDIMNDIESR004","address":"Sap : I-HP-SDRN-ENB-0011<br\/>Loopback : 172.22.162.31<br\/>Up-Time : 51 days, 5:14:18.29","type":"ESR","status":"1","hoto":"1"},{"lat":"31.5356","lng":"76.8933","name":"SDRNHRNGESR001","address":"Sap : I-HP-SDRN-ENB-0013<br\/>Loopback : 172.22.162.11<br\/>Up-Time : 55 days, 5:48:09.16","type":"ESR","status":"1","hoto":"1"},{"lat":"31.4251","lng":"76.8416","name":"SDRNSDRNESR017","address":"Sap : I-HP-SDRN-ENB-6000<br\/>Loopback : 172.22.161.217<br\/>Up-Time : 44 days, 3:12:24.62","type":"ESR","status":"1","hoto":"1"},{"lat":"31.5536","lng":"76.9009","name":"SDRNSDRNESR002","address":"Sap : I-HP-SDRN-ENB-6001<br\/>Loopback : 172.22.168.116<br\/>Up-Time : 28 days, 20:53:07.59","type":"ESR","status":"1","hoto":"1"},{"lat":"31.478","lng":"76.852","name":"SDRNSDRNESR006","address":"Sap : I-HP-SDRN-ENB-6003<br\/>Loopback : 172.22.162.22<br\/>Up-Time : 55 days, 5:46:12.43","type":"ESR","status":"1","hoto":"1"},{"lat":"31.5746","lng":"76.9099","name":"SDRNSDRNESR019","address":"Sap : I-HP-SDRN-ENB-6004<br\/>Loopback : 172.22.161.254<br\/>Up-Time : 55 days, 5:45:19.29","type":"ESR","status":"1","hoto":"1"},{"lat":"31.5481","lng":"76.8887","name":"SDRNSDRNESR014","address":"Sap : I-HP-SDRN-ENB-6006<br\/>Loopback : 172.22.168.122<br\/>Up-Time : 44 days, 2:58:47.39","type":"ESR","status":"1","hoto":"1"},{"lat":"31.5368","lng":"76.8979","name":"SDRNSDRNESR016","address":"Sap : I-HP-SDRN-ENB-6007<br\/>Loopback : 172.22.168.124<br\/>Up-Time : 44 days, 3:06:41.22","type":"ESR","status":"1","hoto":"1"},{"lat":"31.5309","lng":"76.8887","name":"SDRNSDRNESR013","address":"Sap : I-HP-SDRN-ENB-6009<br\/>Loopback : 172.22.168.121<br\/>Up-Time : 44 days, 3:05:13.47","type":"ESR","status":"1","hoto":"1"},{"lat":"31.5201","lng":"76.8795","name":"SDRNSDRNESR012","address":"Sap : I-HP-SDRN-ENB-6010<br\/>Loopback : 172.22.168.120<br\/>Up-Time : 11 days, 18:10:42.16","type":"ESR","status":"1","hoto":"1"},{"lat":"31.527","lng":"76.9228","name":"SDRNSDRNESR011","address":"Sap : I-HP-SDRN-ENB-6011<br\/>Loopback : 172.22.168.119<br\/>Up-Time : 44 days, 3:29:33.96","type":"ESR","status":"1","hoto":"1"},{"lat":"31.4194","lng":"76.8613","name":"SDRNSDRNESR004","address":"Sap : I-HP-SDRN-ENB-9004<br\/>Loopback : 172.22.162.13<br\/>Up-Time : 4 days, 13:56:53.30","type":"ESR","status":"1","hoto":"1"},{"lat":"31.4159","lng":"76.8527","name":"SDRNSDRNESR003","address":"Sap : I-HP-SDRN-ENB-9005<br\/>Loopback : 172.22.162.10<br\/>Up-Time : 44 days, 2:44:53.26","type":"ESR","status":"1","hoto":"1"},{"lat":"31.502","lng":"76.8686","name":"SDRNSDRNESR007","address":"Sap : I-HP-SDRN-ENB-9007<br\/>Loopback : 172.22.162.25<br\/>Up-Time : 55 days, 5:42:30.91","type":"ESR","status":"1","hoto":"1"},{"lat":"31.4501","lng":"76.8564","name":"SDRNSDRNESR005","address":"Sap : I-HP-SDRN-ENB-9008<br\/>Loopback : 172.22.162.16<br\/> ","type":"ESR","status":"0","hoto":"1"},{"lat":"31.6053","lng":"76.9182","name":"MNDIMNDIESR019","address":"Sap : I-HP-SDRN-ENB-A001<br\/>Loopback : 172.22.162.90<br\/>Up-Time : 44 days, 2:46:54.71","type":"ESR","status":"1","hoto":"1"},{"lat":"31.6096","lng":"76.9159","name":"MNDIMNDIESR018","address":"Sap : I-HP-SDRN-ENB-B001<br\/>Loopback : 172.22.162.91<br\/>Up-Time : 44 days, 2:51:13.13","type":"ESR","status":"1","hoto":"1"},{"lat":"31.5322","lng":"76.9131","name":"SDRNSDRNESR010","address":"Sap : I-HP-SDRN-ENB-H001<br\/>Loopback : 172.22.168.118<br\/>Up-Time : 44 days, 3:19:59.36","type":"ESR","status":"1","hoto":"1"},{"lat":"31.5316","lng":"76.904","name":"SDRNPNGHESR001","address":"Sap : I-HP-SDRN-ENB-V001<br\/>Loopback : 172.22.171.35<br\/>Up-Time : 44 days, 3:13:06.61","type":"ESR","status":"1","hoto":"1"},{"lat":"32.2046","lng":"76.263","name":"SHAHSHAHESR001","address":"Sap : I-HP-SHAH-ENB-6000<br\/>Loopback : 172.22.161.165<br\/>Up-Time : 11 days, 16:18:30.19","type":"ESR","status":"1","hoto":"1"},{"lat":"32.216","lng":"76.1315","name":"SHAHSHAHESR003","address":"Sap : I-HP-SHAH-ENB-9003<br\/>Loopback : 172.22.161.174<br\/>Up-Time : 4 days, 22:30:58.63","type":"ESR","status":"1","hoto":"1"},{"lat":"32.1844","lng":"76.2137","name":"YOLLYOLLESR001","address":"Sap : I-HP-SHAH-ENB-9004<br\/>Loopback : 172.22.161.168<br\/>Up-Time : 22 days, 21:29:45.45","type":"ESR","status":"1","hoto":"1"},{"lat":"31.0705","lng":"77.1822","name":"SHMLKSMTPAR001","address":"Sap : I-HP-SHML-AG2-0001<br\/>Loopback : 172.16.40.1<br\/>Up-Time : 48 days, 14:56:02.81","type":"PAR","status":"1","hoto":"1"},{"lat":"31.0705","lng":"77.1822","name":"SHMLKSMTPAR002","address":"Sap : I-HP-SHML-AG2-0001<br\/>Loopback : 172.16.40.135<br\/>Up-Time : 48 days, 14:55:57.27","type":"PAR","status":"1","hoto":"1"},{"lat":"31.0705","lng":"77.1822","name":"SHMLKSMTPAR004","address":"Sap : I-HP-SHML-AG2-0001<br\/>Loopback : 172.16.41.137<br\/>Up-Time : 48 days, 14:54:49.42","type":"PAR","status":"1","hoto":"1"},{"lat":"31.0902","lng":"77.171","name":"SHMLSMPSAAR001","address":"Sap : I-HP-SHML-AG2-0002<br\/>Loopback : 49.44.3.126<br\/>Up-Time : 74 days, 6:04:00.47","type":"AAR","status":"1","hoto":"0"},{"lat":"31.0902","lng":"77.171","name":"SHMLSMPSPAR001","address":"Sap : I-HP-SHML-AG2-0002<br\/>Loopback : 172.16.41.6<br\/>Up-Time : 38 days, 2:18:44.31","type":"PAR","status":"1","hoto":"1"},{"lat":"31.0715","lng":"77.1855","name":"SHMLKSMTESR002","address":"Sap : I-HP-SHML-ENB-0002<br\/>Loopback : 172.22.170.221<br\/>Up-Time : 31 days, 19:27:51.63","type":"ESR","status":"1","hoto":"1"},{"lat":"31.0965","lng":"77.1727","name":"SHMLKNLGESR001","address":"Sap : I-HP-SHML-ENB-0007<br\/>Loopback : 172.22.165.82<br\/>Up-Time : 55 days, 5:13:53.96","type":"ESR","status":"1","hoto":"1"},{"lat":"31.0965","lng":"77.1727","name":"SHMLKSMTESR001","address":"Sap : I-HP-SHML-ENB-0007<br\/>Loopback : 172.22.160.29<br\/> ","type":"ESR","status":"0","hoto":"1"},{"lat":"31.1031","lng":"77.1546","name":"SHMLLHRIESR001","address":"Sap : I-HP-SHML-ENB-0009<br\/>Loopback : 172.22.166.89<br\/>Up-Time : 44 days, 3:20:58.83","type":"ESR","status":"1","hoto":"1"},{"lat":"31.0978","lng":"77.1512","name":"SHMLPNJIPAR001","address":"Sap : I-HP-SHML-ENB-0010<br\/>Loopback : 172.16.40.7<br\/>Up-Time : 70 days, 1:28:06.70","type":"PAR","status":"1","hoto":"1"},{"lat":"31.1085","lng":"77.1394","name":"SHMLTEHRPAR001","address":"Sap : I-HP-SHML-ENB-0013<br\/>Loopback : 172.16.41.1<br\/>Up-Time : 70 days, 1:28:34.57","type":"PAR","status":"1","hoto":"1"},{"lat":"31.0861","lng":"77.1902","name":"SHMLDHBIESR001","address":"Sap : I-HP-SHML-ENB-0017<br\/>Loopback : 172.22.160.21<br\/>Up-Time : 5 days, 12:33:38.28","type":"ESR","status":"1","hoto":"1"},