var maplatlng = {"latlng":[{"lat":"33.7361","lng":"75.1401","name":"ANNGZDPRPAR001","address":"Sap : I-JK-ANNG-ENB-0014<br\/>Loopback : 172.16.78.32<br\/>Up-Time : ","type":"PAR","status":"1","hoto":"1"},{"lat":"33.7361","lng":"75.1401","name":"ANNGZDPRPAR002","address":"Sap : I-JK-ANNG-ENB-0014<br\/>Loopback : 172.16.78.33<br\/>Up-Time : 69 days, 1:48:12.83","type":"PAR","status":"1","hoto":"1"},{"lat":"33.7361","lng":"75.1401","name":"ANNGZDPRPAR003","address":"Sap : I-JK-ANNG-ENB-0014<br\/>Loopback : 172.16.78.72<br\/> ","type":"PAR","status":"0","hoto":"1"},{"lat":"33.7409","lng":"75.1253","name":"ANNGMTANESR002","address":"Sap : I-JK-ANNG-ENB-0026<br\/>Loopback : 172.23.230.186<br\/>Up-Time : 46 days, 4:13:36.02","type":"ESR","status":"1","hoto":"1"},{"lat":"33.7236","lng":"75.1508","name":"ANNGJGLTESR002","address":"Sap : I-JK-ANNG-ENB-0029<br\/>Loopback : 172.23.230.170<br\/>Up-Time : 30 days, 11:42:30.34","type":"ESR","status":"1","hoto":"1"},{"lat":"33.728","lng":"75.1059","name":"KUAMKUAMESR003","address":"Sap : I-JK-ANNG-ENB-6003<br\/>Loopback : 172.23.230.61<br\/>Up-Time : 46 days, 4:25:31.22","type":"ESR","status":"1","hoto":"1"},{"lat":"33.7274","lng":"75.1496","name":"ANNGJGLTESR001","address":"Sap : I-JK-ANNG-ENB-6009<br\/>Loopback : 172.23.230.166<br\/>Up-Time : 45 days, 14:35:21.58","type":"ESR","status":"1","hoto":"1"},{"lat":"33.7372","lng":"75.147","name":"ANNGQZBGESR001","address":"Sap : I-JK-ANNG-ENB-6010<br\/>Loopback : 172.23.231.58<br\/>Up-Time : 3 days, 13:51:12.81","type":"ESR","status":"1","hoto":"1"},{"lat":"33.7178","lng":"75.1507","name":"ANNGHVENESR001","address":"Sap : I-JK-ANNG-ENB-6014<br\/>Loopback : 172.23.230.26<br\/>Up-Time : 0:54:56.06","type":"ESR","status":"1","hoto":"1"},{"lat":"33.7937","lng":"75.0978","name":"BJBRBJBRESR001","address":"Sap : I-JK-ANNG-ENB-6017<br\/>Loopback : 172.23.230.91<br\/>Up-Time : 22 days, 8:14:21.59","type":"ESR","status":"1","hoto":"1"},{"lat":"33.7961","lng":"75.1054","name":"BJBRBJBRESR002","address":"Sap : I-JK-ANNG-ENB-6019<br\/>Loopback : 172.23.230.116<br\/>Up-Time : 15:04:12.47","type":"ESR","status":"1","hoto":"1"},{"lat":"33.6777","lng":"75.1716","name":"DRVGDRVGESR001","address":"Sap : I-JK-ANNG-ENB-6023<br\/>Loopback : 172.23.230.149<br\/>Up-Time : 58 days, 8:13:31.54","type":"ESR","status":"1","hoto":"1"},{"lat":"33.7262","lng":"75.1292","name":"ANNGTKIBESR001","address":"Sap : I-JK-ANNG-ENB-6025<br\/>Loopback : 172.23.231.4<br\/>Up-Time : 53 days, 3:55:49.52","type":"ESR","status":"1","hoto":"1"},{"lat":"33.8446","lng":"75.264","name":"PAAMPAAMESR002","address":"Sap : I-JK-ANNG-ENB-6039<br\/>Loopback : 172.23.230.199<br\/>Up-Time : 26 days, 8:18:09.55","type":"ESR","status":"1","hoto":"1"},{"lat":"33.8361","lng":"74.9272","name":"PUMAPUMAESR009","address":"Sap : I-JK-ANNG-ENB-6040<br\/>Loopback : 172.23.231.139<br\/>Up-Time : 2 days, 8:01:40.45","type":"ESR","status":"1","hoto":"1"},{"lat":"33.7112","lng":"75.1814","name":"ANNGANNGESR001","address":"Sap : I-JK-ANNG-ENB-6046<br\/>Loopback : 172.23.230.43<br\/>Up-Time : 26 days, 6:02:04.48","type":"ESR","status":"1","hoto":"1"},{"lat":"33.6918","lng":"75.2455","name":"ANNGANNGESR004","address":"Sap : I-JK-ANNG-ENB-6049<br\/>Loopback : 172.23.230.114<br\/>Up-Time : 23 days, 17:59:50.93","type":"ESR","status":"1","hoto":"1"},{"lat":"34.0402","lng":"74.8981","name":"SGARSGARESR003","address":"Sap : I-JK-ANNG-ENB-6068<br\/>Loopback : 172.23.228.107<br\/>Up-Time : 11 days, 7:09:26.02","type":"ESR","status":"1","hoto":"1"},{"lat":"34.0564","lng":"74.9496","name":"SGRHSGRHESR001","address":"Sap : I-JK-ANNG-ENB-6070<br\/>Loopback : 172.23.231.67<br\/>Up-Time : 46 days, 4:07:35.00","type":"ESR","status":"1","hoto":"1"},{"lat":"34.0247","lng":"74.9174","name":"SGRHSGRHESR003","address":"Sap : I-JK-ANNG-ENB-6071<br\/>Loopback : 172.23.231.23<br\/>Up-Time : 30 days, 10:00:52.09","type":"ESR","status":"1","hoto":"1"},{"lat":"34.0161","lng":"74.913","name":"PMPOPMPOPAR001","address":"Sap : I-JK-ANNG-ENB-6072<br\/>Loopback : 172.16.78.102<br\/>Up-Time : 15 days, 15:56:07.18","type":"PAR","status":"1","hoto":"1"},{"lat":"33.7822","lng":"75.0671","name":"KUAMKUAMESR002","address":"Sap : I-JK-ANNG-ENB-6076<br\/>Loopback : 172.23.230.87<br\/>Up-Time : 61 days, 2:33:06.25","type":"ESR","status":"1","hoto":"1"},{"lat":"33.9282","lng":"75.0061","name":"AWTPAWTPPAR001","address":"Sap : I-JK-AWTP-ENB-9003<br\/>Loopback : 172.16.78.71<br\/>Up-Time : 4 days, 22:57:31.72","type":"PAR","status":"1","hoto":"1"},{"lat":"32.4995","lng":"75.8174","name":"BASHBASHESR002","address":"Sap : I-JK-BASH-ENB-6000<br\/>Loopback : 172.23.231.209<br\/> ","type":"ESR","status":"0","hoto":"1"},{"lat":"33.8534","lng":"74.8292","name":"PUMAPUMAESR008","address":"Sap : I-JK-BDGM-ENB-6001<br\/>Loopback : 172.23.231.133<br\/>Up-Time : 13 days, 21:51:30.60","type":"ESR","status":"1","hoto":"1"},{"lat":"34.0421","lng":"74.7057","name":"BDGMBDGMESR010","address":"Sap : I-JK-BDGM-ENB-6008<br\/>Loopback : 172.23.231.83<br\/>Up-Time : 53 days, 3:45:43.14","type":"ESR","status":"1","hoto":"1"},{"lat":"34.0444","lng":"74.7581","name":"BDGMNMBLESR001","address":"Sap : I-JK-BDGM-ENB-6011<br\/>Loopback : 172.23.230.65<br\/>Up-Time : 46 days, 4:24:13.82","type":"ESR","status":"1","hoto":"1"},{"lat":"34.0311","lng":"74.7391","name":"BDGMBUGMESR001","address":"Sap : I-JK-BDGM-ENB-6012<br\/>Loopback : 172.23.228.171<br\/>Up-Time : 10 days, 15:02:35.89","type":"ESR","status":"1","hoto":"1"},{"lat":"34.0161","lng":"74.7174","name":"KNSHKNSHESR001","address":"Sap : I-JK-BDGM-ENB-6013<br\/>Loopback : 172.23.230.20<br\/>Up-Time : 46 days, 3:28:25.56","type":"ESR","status":"1","hoto":"1"},{"lat":"33.9809","lng":"74.8105","name":"SGARMCHWESR003","address":"Sap : I-JK-BDGM-ENB-6022<br\/>Loopback : 172.23.231.122<br\/>Up-Time : 46 days, 4:31:48.30","type":"ESR","status":"1","hoto":"1"},{"lat":"34.2586","lng":"74.3909","name":"RFIBRFIBESR004","address":"Sap : I-JK-BDGM-ENB-6032<br\/>Loopback : 172.23.237.5<br\/>Up-Time : 51 days, 3:16:25.16","type":"ESR","status":"1","hoto":"1"},{"lat":"33.8605","lng":"74.8989","name":"PUMAPUMAESR005","address":"Sap : I-JK-BDGM-ENB-6065<br\/>Loopback : 172.23.231.140<br\/>Up-Time : 42 days, 4:37:29.65","type":"ESR","status":"1","hoto":"1"},{"lat":"33.8203","lng":"74.8153","name":"SOPNSOPNESR004","address":"Sap : I-JK-BDGM-ENB-6068<br\/>Loopback : 172.23.231.173<br\/>Up-Time : 37 days, 5:06:43.03","type":"ESR","status":"1","hoto":"1"},{"lat":"33.8239","lng":"74.8522","name":"PUMAPUMAESR006","address":"Sap : I-JK-BDGM-ENB-6069<br\/>Loopback : 172.23.231.172<br\/>Up-Time : 42 days, 3:38:12.38","type":"ESR","status":"1","hoto":"1"},{"lat":"34.2587","lng":"74.4284","name":"BRMLBRMLESR003","address":"Sap : I-JK-BDGM-ENB-6074<br\/>Loopback : 172.23.230.51<br\/>Up-Time : 9 days, 8:32:41.02","type":"ESR","status":"1","hoto":"1"},{"lat":"34.0248","lng":"74.8282","name":"BDGMBDGMESR003","address":"Sap : I-JK-BDGM-ENB-6080<br\/>Loopback : 172.23.228.111<br\/>Up-Time : 35 days, 10:49:10.43","type":"ESR","status":"1","hoto":"1"},{"lat":"34.0188","lng":"74.7695","name":"BDGMHMHMPAR001","address":"Sap : I-JK-BDGM-ENB-6084<br\/>Loopback : 172.16.78.49<br\/>Up-Time : 68 days, 7:32:10.84","type":"PAR","status":"1","hoto":"1"},{"lat":"34.0097","lng":"74.7902","name":"BDGMHMHMESR001","address":"Sap : I-JK-BDGM-ENB-6086<br\/>Loopback : 172.23.228.76<br\/>Up-Time : 46 days, 4:23:46.18","type":"ESR","status":"1","hoto":"1"},{"lat":"33.8656","lng":"74.901","name":"PUMAPUMAPAR004","address":"Sap : I-JK-BDGM-ENB-9005<br\/>Loopback : 172.16.78.63<br\/>Up-Time : ","type":"PAR","status":"1","hoto":"1"},{"lat":"33.9456","lng":"74.7981","name":"CHDRCHDRESR003","address":"Sap : I-JK-BDGM-ENB-H001<br\/>Loopback : 172.23.231.123<br\/>Up-Time : 22 days, 16:47:26.60","type":"ESR","status":"1","hoto":"1"},{"lat":"34.2123","lng":"74.3461","name":"BRMLIBCLESR001","address":"Sap : I-JK-BRML-ENB-0003<br\/>Loopback : 172.23.231.177<br\/>Up-Time : 51 days, 17:57:01.96","type":"ESR","status":"1","hoto":"1"},{"lat":"34.1954","lng":"74.3598","name":"BRMLARFMESR001","address":"Sap : I-JK-BRML-ENB-0005<br\/>Loopback : 172.23.230.103<br\/>Up-Time : 46 days, 4:26:37.17","type":"ESR","status":"1","hoto":"1"},{"lat":"34.1993","lng":"74.3584","name":"BRMLRHMTPAR001","address":"Sap : I-JK-BRML-ENB-0011<br\/>Loopback : 172.16.78.56<br\/>Up-Time : 10 days, 17:31:43.76","type":"PAR","status":"1","hoto":"1"},{"lat":"34.1993","lng":"74.3584","name":"BRMLRHMTPAR002","address":"Sap : I-JK-BRML-ENB-0011<br\/>Loopback : 172.16.78.59<br\/>Up-Time : 10 days, 17:31:46.43","type":"PAR","status":"1","hoto":"1"},{"lat":"34.2069","lng":"74.3442","name":"BRMLRSHDESR001","address":"Sap : I-JK-BRML-ENB-6008<br\/>Loopback : 172.23.230.212<br\/>Up-Time : 46 days, 4:26:41.23","type":"ESR","status":"1","hoto":"1"},{"lat":"32.7585","lng":"74.8493","name":"JMMUJNPRAAR001","address":"Sap : I-JK-JMMU-AG2-0002<br\/>Loopback : 49.44.3.81<br\/>Up-Time : 75 days, 4:04:02.54","type":"AAR","status":"1","hoto":"0"},{"lat":"32.7585","lng":"74.8493","name":"JMMUJNPRAMR001","address":"Sap : I-JK-JMMU-AG2-0002<br\/>Loopback : 10.198.38.24<br\/>Up-Time : ","type":"AMR","status":"1","hoto":"1"},{"lat":"32.6771","lng":"74.8795","name":"JMMUGNGCPAR002","address":"Sap : I-JK-JMMU-ENB-0039<br\/>Loopback : 172.16.78.73<br\/>Up-Time : 37 days, 11:27:47.03","type":"PAR","status":"1","hoto":"1"},{"lat":"32.6729","lng":"74.8741","name":"JMMUGNGCPAR001","address":"Sap : I-JK-JMMU-ENB-0040<br\/>Loopback : 172.16.78.75<br\/>Up-Time : 2 days, 20:24:10.29","type":"PAR","status":"1","hoto":"1"},{"lat":"32.7291","lng":"74.8629","name":"JMMULLKNESR001","address":"Sap : I-JK-JMMU-ENB-0053<br\/>Loopback : 172.23.231.193<br\/> ","type":"ESR","status":"0","hoto":"1"},{"lat":"32.7661","lng":"74.8435","name":"JMMUGJRBPAR001","address":"Sap : I-JK-JMMU-ENB-0076<br\/>Loopback : 172.16.78.80<br\/>Up-Time : ","type":"PAR","status":"1","hoto":"1"},{"lat":"32.7705","lng":"74.8531","name":"JMMUBHWNESR001","address":"Sap : I-JK-JMMU-ENB-0077<br\/>Loopback : 172.23.230.172<br\/>Up-Time : 26 days, 19:34:06.10","type":"ESR","status":"1","hoto":"1"},{"lat":"32.6744","lng":"74.8446","name":"JMMUAJTNESR001","address":"Sap : I-JK-JMMU-ENB-0081<br\/>Loopback : 172.23.230.217<br\/>Up-Time : 6 days, 22:06:26.05","type":"ESR","status":"1","hoto":"1"},{"lat":"32.7181","lng":"74.891","name":"JMMUNRWMPAR001","address":"Sap : I-JK-JMMU-ENB-0101<br\/>Loopback : 172.16.78.94<br\/>Up-Time : 29 days, 0:43:32.56","type":"PAR","status":"1","hoto":"1"},{"lat":"32.6409","lng":"74.9414","name":"JMMUKRTIESR001","address":"Sap : I-JK-JMMU-ENB-0118<br\/>Loopback : 172.23.231.103<br\/> ","type":"ESR","status":"0","hoto":"1"},{"lat":"32.766","lng":"74.8075","name":"JMMUDHRLPAR001","address":"Sap : I-JK-JMMU-ENB-0124<br\/>Loopback : 172.16.78.81<br\/>Up-Time : ","type":"PAR","status":"1","hoto":"1"},{"lat":"32.7723","lng":"74.8237","name":"JMMURPNGESR001","address":"Sap : I-JK-JMMU-ENB-0126<br\/>Loopback : 172.23.231.87<br\/>Up-Time : ","type":"ESR","status":"1","hoto":"1"},{"lat":"32.7487","lng":"74.8344","name":"JMMUSBHNESR001","address":"Sap : I-JK-JMMU-ENB-0133<br\/>Loopback : 172.23.231.198<br\/>Up-Time : 46 days, 4:33:19.13","type":"ESR","status":"1","hoto":"1"},{"lat":"32.6864","lng":"74.9177","name":"JMMUSJWNPAR001","address":"Sap : I-JK-JMMU-ENB-0139<br\/>Loopback : 172.16.78.76<br\/>Up-Time : 3 days, 1:04:12.75","type":"PAR","status":"1","hoto":"1"},{"lat":"32.6973","lng":"74.9223","name":"JMMUCHNRESR001","address":"Sap : I-JK-JMMU-ENB-0142<br\/>Loopback : 172.23.231.38<br\/> ","type":"ESR","status":"0","hoto":"1"},{"lat":"32.7563","lng":"74.8074","name":"JMMUMNCKPAR001","address":"Sap : I-JK-JMMU-ENB-0148<br\/>Loopback : 172.16.78.82<br\/>Up-Time : 58 days, 7:41:52.45","type":"PAR","status":"1","hoto":"1"},{"lat":"32.6541","lng":"74.8786","name":"JMMUBDRKESR001","address":"Sap : I-JK-JMMU-ENB-0153<br\/>Loopback : 172.23.231.80<br\/>Up-Time : 17 days, 18:23:43.88","type":"ESR","status":"1","hoto":"1"},{"lat":"32.7044","lng":"74.9132","name":"JMMUCHNRESR002","address":"Sap : I-JK-JMMU-ENB-0184<br\/>Loopback : 172.23.231.73<br\/>Up-Time : 10 days, 16:09:54.27","type":"ESR","status":"1","hoto":"1"},{"lat":"32.7068","lng":"74.9064","name":"JMMUBTHDESR006","address":"Sap : I-JK-JMMU-ENB-0191<br\/>Loopback : 172.23.231.117<br\/>Up-Time : ","type":"ESR","status":"1","hoto":"1"},{"lat":"32.6693","lng":"74.821","name":"JMMURIPGESR001","address":"Sap : I-JK-JMMU-ENB-6003<br\/>Loopback : 172.23.231.45<br\/>Up-Time : 20:55:30.58","type":"ESR","status":"1","hoto":"1"},{"lat":"32.588","lng":"74.7828","name":"RNSGRNSGESR001","address":"Sap : I-JK-JMMU-ENB-6004<br\/>Loopback : 172.23.231.70<br\/> ","type":"ESR","status":"0","hoto":"1"},{"lat":"32.6336","lng":"74.9119","name":"JMMUBRPUESR001","address":"Sap : I-JK-JMMU-ENB-6006<br\/>Loopback : 172.23.231.17<br\/>Up-Time : 46 days, 4:32:55.72","type":"ESR","status":"1","hoto":"1"},{"lat":"32.631","lng":"74.9324","name":"JMMUKRTIESR003","address":"Sap : I-JK-JMMU-ENB-6007<br\/>Loopback : 172.23.231.114<br\/>Up-Time : 46 days, 4:27:14.80","type":"ESR","status":"1","hoto":"1"},{"lat":"32.6422","lng":"74.9078","name":"JMMUSHVCESR001","address":"Sap : I-JK-JMMU-ENB-6008<br\/>Loopback : 172.23.231.111<br\/>Up-Time : 18:38:22.64","type":"ESR","status":"1","hoto":"1"},{"lat":"34.625","lng":"73.836","name":"KURAKURAESR001","address":"Sap : I-JK-JMMU-ENB-6016<br\/>Loopback : 172.23.231.218<br\/>Up-Time : 14:49:52.13","type":"ESR","status":"1","hoto":"1"},{"lat":"32.8024","lng":"74.8116","name":"JMMUJMMUESR003","address":"Sap : I-JK-JMMU-ENB-6020<br\/>Loopback : 172.23.230.181<br\/>Up-Time : 18 days, 5:56:28.07","type":"ESR","status":"1","hoto":"1"},{"lat":"32.7336","lng":"74.8394","name":"JMMUKLANESR001","address":"Sap : I-JK-JMMU-ENB-6025<br\/>Loopback : 172.23.231.74<br\/>Up-Time : 16:25:10.29","type":"ESR","status":"1","hoto":"1"},{"lat":"32.7137","lng":"74.8827","name":"JMMUWVMLESR001","address":"Sap : I-JK-JMMU-ENB-6027<br\/>Loopback : 172.23.231.130<br\/>Up-Time : 30 days, 12:16:58.12","type":"ESR","status":"1","hoto":"1"},{"lat":"32.6621","lng":"74.9248","name":"JMMUSINKESR002","address":"Sap : I-JK-JMMU-ENB-6029<br\/>Loopback : 172.23.230.221<br\/>Up-Time : 12:28:17.71","type":"ESR","status":"1","hoto":"1"},{"lat":"32.6481","lng":"74.9013","name":"JMMUSDCFESR001","address":"Sap : I-JK-JMMU-ENB-6030<br\/>Loopback : 172.23.231.72<br\/> ","type":"ESR","status":"0","hoto":"1"},{"lat":"32.6958","lng":"74.8934","name":"JMMUCNNHESR001","address":"Sap : I-JK-JMMU-ENB-6032<br\/>Loopback : 172.23.230.192<br\/>Up-Time : 16:03:42.67","type":"ESR","status":"1","hoto":"1"},{"lat":"32.6863","lng":"74.9042","name":"JMMUTKNGESR001","address":"Sap : I-JK-JMMU-ENB-6033<br\/>Loopback : 172.23.231.82<br\/>Up-Time : 14 days, 12:27:01.92","type":"ESR","status":"1","hoto":"1"},{"lat":"32.7761","lng":"74.8384","name":"JMMUUERRESR001","address":"Sap : I-JK-JMMU-ENB-6034<br\/>Loopback : 172.23.230.175<br\/>Up-Time : 7:15:15.94","type":"ESR","status":"1","hoto":"1"},{"lat":"32.7073","lng":"74.9197","name":"JMMUCHNRESR003","address":"Sap : I-JK-JMMU-ENB-6035<br\/>Loopback : 172.23.231.39<br\/> ","type":"ESR","status":"0","hoto":"1"},{"lat":"32.6932","lng":"74.8582","name":"JMMUSSTNESR002","address":"Sap : I-JK-JMMU-ENB-6040<br\/>Loopback : 172.23.231.88<br\/>Up-Time : 12 days, 14:51:48.50","type":"ESR","status":"1","hoto":"1"},{"lat":"32.6792","lng":"74.8701","name":"JMMUGNFLPAR001","address":"Sap : I-JK-JMMU-ENB-6041<br\/>Loopback : 172.16.78.84<br\/>Up-Time : 26 days, 22:36:04.99","type":"PAR","status":"1","hoto":"1"},{"lat":"32.7874","lng":"74.8267","name":"JMMUCINRESR002","address":"Sap : I-JK-JMMU-ENB-6043<br\/>Loopback : 172.23.230.174<br\/>Up-Time : 13:14:53.33","type":"ESR","status":"1","hoto":"1"},{"lat":"32.7682","lng":"74.8473","name":"JMMUGJRBESR001","address":"Sap : I-JK-JMMU-ENB-6044<br\/>Loopback : 172.23.230.173<br\/> ","type":"ESR","status":"0","hoto":"1"},{"lat":"32.709","lng":"74.91","name":"JMMUBTHDESR003","address":"Sap : I-JK-JMMU-ENB-6046<br\/>Loopback : 172.23.231.109<br\/>Up-Time : 19 days, 15:07:00.72","type":"ESR","status":"1","hoto":"1"},{"lat":"32.6832","lng":"74.9155","name":"JMMUSJWNESR001","address":"Sap : I-JK-JMMU-ENB-6047<br\/>Loopback : 172.23.231.134<br\/>Up-Time : 9 days, 13:11:45.77","type":"ESR","status":"1","hoto":"1"},{"lat":"32.6704","lng":"74.8697","name":"JMMUVKNDESR001","address":"Sap : I-JK-JMMU-ENB-6054<br\/>Loopback : 172.23.231.113<br\/>Up-Time : 13:11:49.92","type":"ESR","status":"1","hoto":"1"},{"lat":"32.7245","lng":"74.8652","name":"JMMUTIKTESR004","address":"Sap : I-JK-JMMU-ENB-6059<br\/>Loopback : 172.23.230.229<br\/>Up-Time : 17:42:35.64","type":"ESR","status":"1","hoto":"1"},{"lat":"32.7378","lng":"74.8629","name":"JMMUARHIESR001","address":"Sap : I-JK-JMMU-ENB-6062<br\/>Loopback : 172.23.231.223<br\/>Up-Time : 15:37:58.49","type":"ESR","status":"1","hoto":"1"},{"lat":"32.6566","lng":"74.8949","name":"JMMUJLCKESR002","address":"Sap : I-JK-JMMU-ENB-6063<br\/>Loopback : 172.23.230.253<br\/>Up-Time : 1 day, 13:24:18.23","type":"ESR","status":"1","hoto":"1"},{"lat":"32.705","lng":"74.8966","name":"JMMUBTHDESR004","address":"Sap : I-JK-JMMU-ENB-6066<br\/>Loopback : 172.23.231.162<br\/>Up-Time : 26 days, 21:21:22.34","type":"ESR","status":"1","hoto":"1"},{"lat":"32.7618","lng":"74.8294","name":"JMMUMDKGESR002","address":"Sap : I-JK-JMMU-ENB-6069<br\/>Loopback : 172.23.231.3<br\/>Up-Time : 5 days, 14:30:42.29","type":"ESR","status":"1","hoto":"1"},{"lat":"32.7606","lng":"74.8149","name":"JMMUDHRLESR001","address":"Sap : I-JK-JMMU-ENB-6070<br\/>Loopback : 172.23.231.160<br\/>Up-Time : 15:40:19.58","type":"ESR","status":"1","hoto":"1"},{"lat":"32.7536","lng":"74.8375","name":"JMMUMDKGESR001","address":"Sap : I-JK-JMMU-ENB-6071<br\/>Loopback : 172.23.231.158<br\/>Up-Time : 48 days, 2:42:16.17","type":"ESR","status":"1","hoto":"1"},{"lat":"32.6971","lng":"74.8629","name":"JMMUNAKNESR002","address":"Sap : I-JK-JMMU-ENB-6074<br\/>Loopback : 172.23.231.164<br\/>Up-Time : 3 days, 15:25:27.08","type":"ESR","status":"1","hoto":"1"},{"lat":"32.6724","lng":"74.9146","name":"JMMUSNICESR003","address":"Sap : I-JK-JMMU-ENB-6075<br\/>Loopback : 172.23.230.198<br\/>Up-Time : 14 days, 12:30:38.26","type":"ESR","status":"1","hoto":"1"},{"lat":"32.6726","lng":"74.8805","name":"JMMUNRWLESR001","address":"Sap : I-JK-JMMU-ENB-6084<br\/>Loopback : 172.23.231.131<br\/>Up-Time : 13:11:28.74","type":"ESR","status":"1","hoto":"1"},{"lat":"32.7465","lng":"74.8527","name":"JMMUBHRTESR002","address":"Sap : I-JK-JMMU-ENB-6086<br\/>Loopback : 172.23.231.159<br\/>Up-Time : 18:12:41.18","type":"ESR","status":"1","hoto":"1"},{"lat":"32.7346","lng":"74.8466","name":"JMMURJPRESR001","address":"Sap : I-JK-JMMU-ENB-6089<br\/>Loopback : 172.23.230.231<br\/>Up-Time : 7 days, 19:15:40.76","type":"ESR","status":"1","hoto":"1"},{"lat":"32.6677","lng":"74.8951","name":"JMMUGTKLESR001","address":"Sap : I-JK-JMMU-ENB-6091<br\/>Loopback : 172.23.231.76<br\/>Up-Time : 27 days, 20:34:19.15","type":"ESR","status":"1","hoto":"1"},{"lat":"32.6921","lng":"74.859","name":"JMMUSSTNESR001","address":"Sap : I-JK-JMMU-ENB-6092<br\/>Loopback : 172.23.231.119<br\/>Up-Time : 2 days, 17:22:07.25","type":"ESR","status":"1","hoto":"1"},{"lat":"32.6829","lng":"74.8844","name":"JMMUTIKTESR005","address":"Sap : I-JK-JMMU-ENB-6101<br\/>Loopback : 172.23.231.98<br\/>Up-Time : 18 days, 13:28:54.37","type":"ESR","status":"1","hoto":"1"},{"lat":"32.745","lng":"74.8639","name":"JMMUKKACESR001","address":"Sap : I-JK-JMMU-ENB-6103<br\/>Loopback : 172.23.231.9<br\/>Up-Time : 26 days, 14:18:33.86","type":"ESR","status":"1","hoto":"1"},{"lat":"32.7721","lng":"74.8145","name":"JMMUBRNIESR001","address":"Sap : I-JK-JMMU-ENB-6105<br\/>Loopback : 172.23.230.248<br\/>Up-Time : 15:42:38.75","type":"ESR","status":"1","hoto":"1"},{"lat":"32.7409","lng":"74.814","name":"JMMUSURYESR001","address":"Sap : I-JK-JMMU-ENB-6109<br\/>Loopback : 172.23.230.255<br\/>Up-Time : 12 days, 10:57:09.16","type":"ESR","status":"1","hoto":"1"},{"lat":"32.7505","lng":"74.8493","name":"JMMUBHRTESR001","address":"Sap : I-JK-JMMU-ENB-6110<br\/>Loopback : 172.23.231.202<br\/>Up-Time : 20 days, 16:46:25.40","type":"ESR","status":"1","hoto":"1"},{"lat":"32.7269","lng":"74.8184","name":"JMMUAMRCESR001","address":"Sap : I-JK-JMMU-ENB-6111<br\/>Loopback : 172.23.231.11<br\/>Up-Time : 4 days, 12:00:30.52","type":"ESR","status":"1","hoto":"1"},{"lat":"32.7663","lng":"74.8018","name":"JMMULERMESR002","address":"Sap : I-JK-JMMU-ENB-6115<br\/>Loopback : 172.23.230.250<br\/>Up-Time : 15:42:27.70","type":"ESR","status":"1","hoto":"1"},{"lat":"32.7308","lng":"74.826","name":"JMMUIIRCESR001","address":"Sap : I-JK-JMMU-ENB-6116<br\/>Loopback : 172.23.231.10<br\/>Up-Time : 12 days, 15:49:42.69","type":"ESR","status":"1","hoto":"1"},{"lat":"32.681","lng":"74.8767","name":"JMMUANDEESR001","address":"Sap : I-JK-JMMU-ENB-6118<br\/>Loopback : 172.23.231.112<br\/>Up-Time : 2 days, 1:36:33.58","type":"ESR","status":"1","hoto":"1"},{"lat":"32.6632","lng":"74.8687","name":"JMMUKLCKESR002","address":"Sap : I-JK-JMMU-ENB-6119<br\/>Loopback : 172.23.231.81<br\/>Up-Time : 17 days, 9:20:36.46","type":"ESR","status":"1","hoto":"1"},{"lat":"32.6927","lng":"74.864","name":"JMMUNAKNESR001","address":"Sap : I-JK-JMMU-ENB-6122<br\/>Loopback : 172.23.231.248<br\/>Up-Time : 3 days, 15:36:33.27","type":"ESR","status":"1","hoto":"1"},{"lat":"32.6855","lng":"74.8573","name":"JMMUSJANPAR001","address":"Sap : I-JK-JMMU-ENB-6123<br\/>Loopback : 172.16.78.92<br\/>Up-Time : 62 days, 13:35:25.13","type":"PAR","status":"1","hoto":"1"},{"lat":"32.6662","lng":"74.9044","name":"JMMUSNICESR002","address":"Sap : I-JK-JMMU-ENB-6124<br\/>Loopback : 172.23.231.106<br\/>Up-Time : 17:46:52.10","type":"ESR","status":"1","hoto":"1"},{"lat":"32.6757","lng":"74.8896","name":"JMMUTIKTESR001","address":"Sap : I-JK-JMMU-ENB-6125<br\/>Loopback : 172.23.231.89<br\/>Up-Time : 26 days, 16:38:52.87","type":"ESR","status":"1","hoto":"1"},{"lat":"32.7036","lng":"74.8006","name":"JMMUJMMUESR004","address":"Sap : I-JK-JMMU-ENB-6129<br\/>Loopback : 172.23.231.129<br\/>Up-Time : 26 days, 17:38:12.52","type":"ESR","status":"1","hoto":"1"},{"lat":"32.6056","lng":"74.8076","name":"KOURKOURESR001","address":"Sap : I-JK-JMMU-ENB-6130<br\/>Loopback : 172.23.231.69<br\/> ","type":"ESR","status":"0","hoto":"1"},{"lat":"32.8222","lng":"74.8188","name":"JMMUJMMUESR006","address":"Sap : I-JK-JMMU-ENB-6132<br\/>Loopback : 172.23.230.183<br\/>Up-Time : 14:20:08.18","type":"ESR","status":"1","hoto":"1"},{"lat":"32.6213","lng":"74.927","name":"JMMUBRHMESR001","address":"Sap : I-JK-JMMU-ENB-6141<br\/>Loopback : 172.23.231.110<br\/>Up-Time : 46 days, 4:25:00.95","type":"ESR","status":"1","hoto":"1"},{"lat":"32.5911","lng":"74.9697","name":"SABASABAESR008","address":"Sap : I-JK-JMMU-ENB-6142<br\/>Loopback : 172.23.231.128<br\/>Up-Time : 15 days, 15:14:44.74","type":"ESR","status":"1","hoto":"1"},{"lat":"32.6338","lng":"74.9414","name":"JMMUKRTIESR004","address":"Sap : I-JK-JMMU-ENB-6143<br\/>Loopback : 172.23.231.107<br\/> ","type":"ESR","status":"0","hoto":"1"},{"lat":"32.621","lng":"74.9961","name":"SABASABAESR009","address":"Sap : I-JK-JMMU-ENB-6147<br\/>Loopback : 172.23.231.184<br\/>Up-Time : 46 days, 3:27:14.39","type":"ESR","status":"1","hoto":"1"},{"lat":"32.6864","lng":"74.8914","name":"JMMUCNIFESR001","address":"Sap : I-JK-JMMU-ENB-G001<br\/>Loopback : 172.23.237.4<br\/>Up-Time : 40 days, 11:09:36.42","type":"ESR","status":"1","hoto":"1"},{"lat":"32.7392","lng":"74.8675","name":"JMMUSDHRESR003","address":"Sap : I-JK-JMMU-ENB-H001<br\/>Loopback : 172.23.231.221<br\/>Up-Time : 39 days, 10:42:18.74","type":"ESR","status":"1","hoto":"1"},{"lat":"32.773","lng":"74.836","name":"JMMUUERRESR003","address":"Sap : I-JK-JMMU-ENB-H003<br\/>Loopback : 172.23.230.193<br\/>Up-Time : 53 days, 3:45:51.33","type":"ESR","status":"1","hoto":"1"},{"lat":"32.6753","lng":"74.8651","name":"JMMUPRTNESR001","address":"Sap : I-JK-JMMU-ENB-H006<br\/>Loopback : 172.23.231.108<br\/>Up-Time : 46 days, 16:09:40.83","type":"ESR","status":"1","hoto":"1"},{"lat":"32.7282","lng":"74.8463","name":"JMMUBGWNESR001","address":"Sap : I-JK-JMMU-ENB-H007<br\/>Loopback : 172.23.231.116<br\/>Up-Time : 46 days, 4:25:57.62","type":"ESR","status":"1","hoto":"1"},{"lat":"32.7478","lng":"74.8613","name":"JMMUABPLESR001","address":"Sap : I-JK-JMMU-ENB-H009<br\/>Loopback : 172.23.237.9<br\/>Up-Time : 25 days, 17:13:12.44","type":"ESR","status":"1","hoto":"1"},{"lat":"32.6429","lng":"74.7821","name":"JMMUDNDEESR002","address":"Sap : I-JK-JMMU-ENB-H010<br\/>Loopback : 172.23.237.0<br\/>Up-Time : 31 days, 23:37:51.55","type":"ESR","status":"1","hoto":"1"},{"lat":"32.6466","lng":"74.907","name":"JMMUSDCFESR002","address":"Sap : I-JK-JMMU-ENB-H015<br\/>Loopback : 172.23.231.147<br\/> ","type":"ESR","status":"0","hoto":"1"},{"lat":"32.7379","lng":"74.8479","name":"JMMUSKTNESR002","address":"Sap : I-JK-JMMU-ENB-S001<br\/>Loopback : 172.23.231.251<br\/>Up-Time : 45 days, 9:13:24.85","type":"ESR","status":"1","hoto":"1"},{"lat":"32.7293","lng":"74.8368","name":"JMMUNWBDESR001","address":"Sap : I-JK-JMMU-ENB-V003<br\/>Loopback : 172.23.231.149<br\/> ","type":"ESR","status":"0","hoto":"1"},{"lat":"32.9907","lng":"74.9333","name":"KATRKATRESR004","address":"Sap : I-JK-KATR-ENB-6000<br\/>Loopback : 172.23.230.77<br\/>Up-Time : 17 days, 16:13:59.51","type":"ESR","status":"1","hoto":"1"},{"lat":"32.991","lng":"74.9373","name":"KATRKATRESR003","address":"Sap : I-JK-KATR-ENB-6002<br\/>Loopback : 172.23.230.76<br\/>Up-Time : 46 days, 1:59:59.46","type":"ESR","status":"1","hoto":"1"},{"lat":"32.9936","lng":"74.9295","name":"KATRKATRESR002","address":"Sap : I-JK-KATR-ENB-6003<br\/>Loopback : 172.23.230.80<br\/>Up-Time : 46 days, 1:59:56.03","type":"ESR","status":"1","hoto":"1"},{"lat":"32.9881","lng":"74.9301","name":"KATRKATRESR005","address":"Sap : I-JK-KATR-ENB-6004<br\/>Loopback : 172.23.230.79<br\/>Up-Time : 46 days, 1:59:07.43","type":"ESR","status":"1","hoto":"1"},{"lat":"32.9959","lng":"74.9367","name":"KATRKATRESR001","address":"Sap : I-JK-KATR-ENB-6005<br\/>Loopback : 172.23.230.75<br\/>Up-Time : 46 days, 1:59:48.53","type":"ESR","status":"1","hoto":"1"},{"lat":"32.9856","lng":"74.9224","name":"KATRKTRRESR001","address":"Sap : I-JK-KATR-ENB-6006<br\/>Loopback : 172.23.230.115<br\/>Up-Time : 46 days, 2:00:25.95","type":"ESR","status":"1","hoto":"1"},{"lat":"32.9935","lng":"74.9323","name":"KATRKATRPAR001","address":"Sap : I-JK-KATR-ENB-9003<br\/>Loopback : 172.16.78.60<br\/>Up-Time : 69 days, 0:37:55.07","type":"PAR","status":"1","hoto":"1"},{"lat":"33.337","lng":"75.762","name":"KIARKIARESR001","address":"Sap : I-JK-KIAR-ENB-6000<br\/>Loopback : 172.23.231.168<br\/>Up-Time : 8 days, 12:18:43.98","type":"ESR","status":"1","hoto":"1"},{"lat":"33.305","lng":"75.7724","name":"KIARKIARESR003","address":"Sap : I-JK-KIAR-ENB-6001<br\/>Loopback : 172.23.231.169<br\/>Up-Time : 48 days, 3:43:37.10","type":"ESR","status":"1","hoto":"1"},{"lat":"33.3207","lng":"75.7634","name":"KIARKIARESR002","address":"Sap : I-JK-KIAR-ENB-6003<br\/>Loopback : 172.23.231.167<br\/>Up-Time : 39 days, 12:32:36.47","type":"ESR","status":"1","hoto":"1"},{"lat":"32.3704","lng":"75.5208","name":"KTHUCHKDPAR001","address":"Sap : I-JK-KTHU-ENB-0001<br\/>Loopback : 172.16.78.68<br\/>Up-Time : 58 days, 1:18:07.95","type":"PAR","status":"1","hoto":"1"},{"lat":"32.3704","lng":"75.5208","name":"KTHUCHKDPAR002","address":"Sap : I-JK-KTHU-ENB-0001<br\/>Loopback : 172.16.78.69<br\/>Up-Time : 69 days, 0:11:15.44","type":"PAR","status":"1","hoto":"1"},{"lat":"32.3864","lng":"75.5496","name":"KTHUSDCCESR001","address":"Sap : I-JK-KTHU-ENB-0004<br\/>Loopback : 172.23.230.196<br\/>Up-Time : 23 days, 16:34:44.90","type":"ESR","status":"1","hoto":"1"},{"lat":"32.5213","lng":"75.6874","name":"BASHBASHESR001","address":"Sap : I-JK-KTHU-ENB-6008<br\/>Loopback : 172.23.231.208<br\/> ","type":"ESR","status":"0","hoto":"1"},{"lat":"32.3757","lng":"75.5563","name":"KTHUTRNGESR001","address":"Sap : I-JK-KTHU-ENB-6020<br\/>Loopback : 172.23.230.131<br\/>Up-Time : 26 days, 20:39:29.87","type":"ESR","status":"1","hoto":"1"},{"lat":"32.3645","lng":"75.5228","name":"KTHUITIIESR001","address":"Sap : I-JK-KTHU-ENB-6021<br\/>Loopback : 172.23.230.206<br\/>Up-Time : 46 days, 2:01:52.60","type":"ESR","status":"1","hoto":"1"},{"lat":"32.3735","lng":"75.521","name":"KTHUCHKDESR001","address":"Sap : I-JK-KTHU-ENB-6023<br\/>Loopback : 172.23.230.124<br\/>Up-Time : 46 days, 2:00:44.99","type":"ESR","status":"1","hoto":"1"},{"lat":"32.3684","lng":"75.5311","name":"KTHUODBSESR001","address":"Sap : I-JK-KTHU-ENB-6024<br\/>Loopback : 172.23.230.123<br\/>Up-Time : 46 days, 1:59:40.33","type":"ESR","status":"1","hoto":"1"},{"lat":"32.3815","lng":"75.5262","name":"KTHUKRNNESR001","address":"Sap : I-JK-KTHU-ENB-6025<br\/>Loopback : 172.23.230.125<br\/>Up-Time : 46 days, 2:01:50.42","type":"ESR","status":"1","hoto":"1"},{"lat":"32.3858","lng":"75.5437","name":"KTHUSDCCESR002","address":"Sap : I-JK-KTHU-ENB-6026<br\/>Loopback : 172.23.230.132<br\/>Up-Time : 26 days, 19:52:16.07","type":"ESR","status":"1","hoto":"1"},{"lat":"32.3818","lng":"75.592","name":"LKENLKENESR001","address":"Sap : I-JK-KTHU-ENB-6032<br\/>Loopback : 172.23.230.133<br\/>Up-Time : 35 days, 20:16:26.09","type":"ESR","status":"1","hoto":"1"},{"lat":"32.3969","lng":"75.5496","name":"KTHUKTHUESR002","address":"Sap : I-JK-KTHU-ENB-H002<br\/>Loopback : 172.23.230.213<br\/>Up-Time : 39 days, 10:24:20.03","type":"ESR","status":"1","hoto":"1"},{"lat":"33.6467","lng":"75.0195","name":"KUAMKUAMESR004","address":"Sap : I-JK-KUAM-ENB-6000<br\/>Loopback : 172.23.230.188<br\/>Up-Time : 27 days, 17:58:27.74","type":"ESR","status":"1","hoto":"1"},{"lat":"34.5319","lng":"74.2621","name":"KURAKURAESR006","address":"Sap : I-JK-KURA-ENB-6001<br\/>Loopback : 172.23.230.240<br\/>Up-Time : 46 days, 4:25:02.70","type":"ESR","status":"1","hoto":"1"},{"lat":"33.9035","lng":"75.084","name":"TRALTRALESR003","address":"Sap : I-JK-PAAM-ENB-H001<br\/>Loopback : 172.23.230.200<br\/>Up-Time : 41 days, 22:32:29.27","type":"ESR","status":"1","hoto":"1"},{"lat":"33.2309","lng":"75.2437","name":"RAANRAANESR001","address":"Sap : I-JK-RAAN-ENB-6000<br\/>Loopback : 172.23.231.141<br\/>Up-Time : 22 days, 17:36:26.12","type":"ESR","status":"1","hoto":"1"},{"lat":"33.37","lng":"74.3161","name":"RARIGUJRESR001","address":"Sap : I-JK-RARI-ENB-6000<br\/>Loopback : 172.23.230.38<br\/>Up-Time : 11:19:00.77","type":"ESR","status":"1","hoto":"1"},{"lat":"33.3687","lng":"74.3046","name":"RARICHWWESR001","address":"Sap : I-JK-RARI-ENB-6001<br\/>Loopback : 172.23.230.35<br\/>Up-Time : 18:24:16.89","type":"ESR","status":"1","hoto":"1"},{"lat":"33.3907","lng":"74.3182","name":"RARIKHERESR001","address":"Sap : I-JK-RARI-ENB-6002<br\/>Loopback : 172.23.230.41<br\/>Up-Time : 46 days, 2:01:57.52","type":"ESR","status":"1","hoto":"1"},{"lat":"33.372","lng":"74.3101","name":"RARIMNBZESR002","address":"Sap : I-JK-RARI-ENB-6003<br\/>Loopback : 172.23.230.40<br\/>Up-Time : 8:39:58.27","type":"ESR","status":"1","hoto":"1"},{"lat":"33.366","lng":"74.3197","name":"RARIRARIESR002","address":"Sap : I-JK-RARI-ENB-6004<br\/>Loopback : 172.23.230.39<br\/>Up-Time : 5:15:07.82","type":"ESR","status":"1","hoto":"1"},{"lat":"33.3764","lng":"74.307","name":"RARIMNBZESR001","address":"Sap : I-JK-RARI-ENB-6005<br\/>Loopback : 172.23.230.37<br\/>Up-Time : 5 days, 9:52:31.17","type":"ESR","status":"1","hoto":"1"},{"lat":"32.5205","lng":"74.7071","name":"RNSGRNSGESR002","address":"Sap : I-JK-RARI-ENB-6006<br\/>Loopback : 172.23.230.36<br\/>Up-Time : 3 days, 10:59:20.07","type":"ESR","status":"1","hoto":"1"},{"lat":"33.3844","lng":"74.2924","name":"RARIGVDHESR001","address":"Sap : I-JK-RARI-ENB-6007<br\/>Loopback : 172.23.230.34<br\/>Up-Time : 7 days, 18:16:58.60","type":"ESR","status":"1","hoto":"1"},{"lat":"33.3954","lng":"74.3266","name":"RARIKHERESR002","address":"Sap : I-JK-RARI-ENB-9009<br\/>Loopback : 172.23.230.141<br\/>Up-Time : 7 days, 8:13:36.90","type":"ESR","status":"1","hoto":"1"},{"lat":"33.3842","lng":"74.3125","name":"RARIKHWJESR001","address":"Sap : I-JK-RARI-ENB-9010<br\/>Loopback : 172.23.230.67<br\/>Up-Time : 5 days, 10:51:28.28","type":"ESR","status":"1","hoto":"1"},{"lat":"33.36","lng":"74.3302","name":"RARIRARIESR003","address":"Sap : I-JK-RARI-ENB-9011<br\/>Loopback : 172.23.230.66<br\/>Up-Time : 11:47:39.91","type":"ESR","status":"1","hoto":"1"},{"lat":"33.3599","lng":"74.3239","name":"RARIKHYRESR002","address":"Sap : I-JK-RARI-ENB-9012<br\/>Loopback : 172.23.230.146<br\/>Up-Time : 18:24:28.53","type":"ESR","status":"1","hoto":"1"},{"lat":"33.3379","lng":"74.3257","name":"RARIGVDPESR001","address":"Sap : I-JK-RARI-ENB-9013<br\/>Loopback : 172.23.230.71<br\/>Up-Time : 5 days, 15:53:20.10","type":"ESR","status":"1","hoto":"1"},{"lat":"33.3669","lng":"74.3161","name":"RARIKHYRESR001","address":"Sap : I-JK-RARI-ENB-H001<br\/>Loopback : 172.23.231.121<br\/>Up-Time : 46 days, 4:30:55.53","type":"ESR","status":"1","hoto":"1"},{"lat":"32.9535","lng":"74.9232","name":"RESIRESIESR004","address":"Sap : I-JK-RESI-ENB-6000<br\/>Loopback : 172.23.230.96<br\/>Up-Time : 14:37:06.95","type":"ESR","status":"1","hoto":"1"},{"lat":"32.9839","lng":"74.9475","name":"KATRKATRESR006","address":"Sap : I-JK-RESI-ENB-6009<br\/>Loopback : 172.23.230.86<br\/>Up-Time : 11 days, 13:40:52.28","type":"ESR","status":"1","hoto":"1"},{"lat":"32.9713","lng":"74.9674","name":"RESIRESIESR003","address":"Sap : I-JK-RESI-ENB-6010<br\/>Loopback : 172.23.230.95<br\/>Up-Time : 19:45:21.44","type":"ESR","status":"1","hoto":"1"},{"lat":"33.0527","lng":"74.5766","name":"RESIRESIPAR001","address":"Sap : I-JK-RESI-ENB-6012<br\/>Loopback : 172.16.78.53<br\/>Up-Time : ","type":"PAR","status":"1","hoto":"1"},{"lat":"33.3282","lng":"74.3353","name":"RARIRARIESR001","address":"Sap : I-JK-RESI-ENB-6013<br\/>Loopback : 172.23.230.69<br\/> ","type":"ESR","status":"0","hoto":"1"},{"lat":"33.3796","lng":"74.3666","name":"RARIRARIESR004","address":"Sap : I-JK-RESI-ENB-6014<br\/>Loopback : 172.23.231.135<br\/> ","type":"ESR","status":"0","hoto":"1"},{"lat":"32.9169","lng":"75.061","name":"UMPRUMPRESR004","address":"Sap : I-JK-RESI-ENB-6017<br\/>Loopback : 172.23.230.109<br\/>Up-Time : 4 days, 11:58:37.79","type":"ESR","status":"1","hoto":"1"},{"lat":"33.2321","lng":"74.3906","name":"KAOTKAOTESR003","address":"Sap : I-JK-RESI-ENB-6020<br\/>Loopback : 172.23.231.14<br\/> ","type":"ESR","status":"0","hoto":"1"},{"lat":"33.0027","lng":"74.9456","name":"PRNDPRNDESR001","address":"Sap : I-JK-RESI-ENB-6023<br\/>Loopback : 172.23.230.74<br\/> ","type":"ESR","status":"0","hoto":"1"},{"lat":"32.8979","lng":"75.0776","name":"UMPRUMPRESR002","address":"Sap : I-JK-RESI-ENB-6024<br\/>Loopback : 172.23.230.112<br\/>Up-Time : 46 days, 2:00:36.74","type":"ESR","status":"1","hoto":"1"},{"lat":"33.1571","lng":"74.2677","name":"NORANORAESR001","address":"Sap : I-JK-RESI-ENB-6027<br\/>Loopback : 172.23.230.228<br\/>Up-Time : 15:50:38.14","type":"ESR","status":"1","hoto":"1"},{"lat":"33.3508","lng":"74.3336","name":"RARIDNIRESR001","address":"Sap : I-JK-RESI-ENB-6030<br\/>Loopback : 172.23.230.70<br\/>Up-Time : 5 days, 18:44:28.82","type":"ESR","status":"1","hoto":"1"},{"lat":"33.0022","lng":"74.9435","name":"PRNDPRNDPAR001","address":"Sap : I-JK-RESI-ENB-6046<br\/>Loopback : 172.16.78.95<br\/>Up-Time : 16:58:36.77","type":"PAR","status":"1","hoto":"1"},{"lat":"32.9467","lng":"74.9801","name":"RESIRESIESR002","address":"Sap : I-JK-RESI-ENB-6056<br\/>Loopback : 172.23.230.97<br\/>Up-Time : 30 days, 20:19:27.82","type":"ESR","status":"1","hoto":"1"},{"lat":"32.5648","lng":"75.1325","name":"SABASABAESR001","address":"Sap : I-JK-SABA-ENB-6000<br\/>Loopback : 172.23.231.175<br\/>Up-Time : 18:58:54.44","type":"ESR","status":"1","hoto":"1"},{"lat":"32.5641","lng":"75.1397","name":"SABASABAESR002","address":"Sap : I-JK-SABA-ENB-6001<br\/>Loopback : 172.23.231.197<br\/>Up-Time : 25 days, 14:44:03.59","type":"ESR","status":"1","hoto":"1"},{"lat":"32.5578","lng":"75.1205","name":"SABASABAESR005","address":"Sap : I-JK-SABA-ENB-6002<br\/>Loopback : 172.23.231.178<br\/>Up-Time : 46 days, 4:26:00.97","type":"ESR","status":"1","hoto":"1"},{"lat":"32.5674","lng":"75.118","name":"SABASABAESR004","address":"Sap : I-JK-SABA-ENB-6003<br\/>Loopback : 172.23.231.183<br\/>Up-Time : 25 days, 13:32:24.92","type":"ESR","status":"1","hoto":"1"},{"lat":"32.567","lng":"75.1273","name":"SABASABAESR003","address":"Sap : I-JK-SABA-ENB-6004<br\/>Loopback : 172.23.231.176<br\/>Up-Time : 19 days, 18:53:19.48","type":"ESR","status":"1","hoto":"1"},{"lat":"32.5591","lng":"75.1199","name":"SABASABAPAR001","address":"Sap : I-JK-SABA-ENB-9001<br\/>Loopback : 172.16.78.66<br\/>Up-Time : 52 days, 10:02:52.64","type":"PAR","status":"1","hoto":"1"},{"lat":"32.5591","lng":"75.1199","name":"SABASABAPAR002","address":"Sap : I-JK-SABA-ENB-9001<br\/>Loopback : 172.16.78.67<br\/>Up-Time : 52 days, 10:02:51.51","type":"PAR","status":"1","hoto":"1"},{"lat":"34.0305","lng":"74.7991","name":"SGARSNTNPAR001","address":"Sap : I-JK-SGAR-AG2-0001<br\/>Loopback : 172.16.78.43<br\/>Up-Time : ","type":"PAR","status":"1","hoto":"1"},{"lat":"34.1523","lng":"74.8379","name":"SGARMSTFAAR001","address":"Sap : I-JK-SGAR-AG2-0002<br\/>Loopback : 49.44.3.123<br\/>Up-Time : 67 days, 5:04:25.03","type":"AAR","status":"1","hoto":"0"},{"lat":"34.0896","lng":"74.778","name":"SGARQMRWAAR001","address":"Sap : I-JK-SGAR-AG2-0003<br\/>Loopback : 49.44.3.124<br\/>Up-Time : 64 days, 4:29:11.45","type":"AAR","status":"1","hoto":"0"},{"lat":"34.0451","lng":"74.7333","name":"SGARQMRWAMR001","address":"Sap : I-JK-SGAR-ENB-0003<br\/>Loopback : 10.198.38.20<br\/>Up-Time : ","type":"AMR","status":"1","hoto":"1"},{"lat":"34.0451","lng":"74.7333","name":"BDGMBDGMESR006","address":"Sap : I-JK-SGAR-ENB-0003<br\/>Loopback : 172.23.230.68<br\/>Up-Time : 9 days, 21:27:29.77","type":"ESR","status":"1","hoto":"1"},{"lat":"34.04","lng":"74.8753","name":"SGARSMPRESR001","address":"Sap : I-JK-SGAR-ENB-0008<br\/>Loopback : 172.23.230.225<br\/>Up-Time : 22 days, 21:17:20.86","type":"ESR","status":"1","hoto":"1"},{"lat":"34.0239","lng":"74.8383","name":"SGARKNHMESR001","address":"Sap : I-JK-SGAR-ENB-0018<br\/>Loopback : 172.23.228.112<br\/>Up-Time : 26 days, 13:11:51.86","type":"ESR","status":"1","hoto":"1"},{"lat":"34.1235","lng":"74.8202","name":"SGARBGWNESR001","address":"Sap : I-JK-SGAR-ENB-0045<br\/>Loopback : 172.23.231.63<br\/>Up-Time : 46 days, 4:07:42.40","type":"ESR","status":"1","hoto":"1"},{"lat":"34.1285","lng":"74.8203","name":"SGARBDSHESR001","address":"Sap : I-JK-SGAR-ENB-0053<br\/>Loopback : 172.23.228.217<br\/>Up-Time : 14 days, 17:06:48.98","type":"ESR","status":"1","hoto":"1"},{"lat":"34.099","lng":"74.7946","name":"SGARDNGUPAR001","address":"Sap : I-JK-SGAR-ENB-0064<br\/>Loopback : 172.16.78.119<br\/>Up-Time : ","type":"PAR","status":"1","hoto":"1"},{"lat":"34.0515","lng":"74.7918","name":"SGARRJBHPAR001","address":"Sap : I-JK-SGAR-ENB-0089<br\/>Loopback : 172.16.78.54<br\/>Up-Time : 26 days, 19:39:33.20","type":"PAR","status":"1","hoto":"1"},{"lat":"34.0353","lng":"74.8211","name":"SGARKPSGESR004","address":"Sap : I-JK-SGAR-ENB-0093<br\/>Loopback : 172.23.228.73<br\/>Up-Time : 21 days, 21:40:03.24","type":"ESR","status":"1","hoto":"1"},{"lat":"34.0684","lng":"74.8254","name":"SGARRJBGPAR001","address":"Sap : I-JK-SGAR-ENB-0115<br\/>Loopback : 172.16.78.105<br\/>Up-Time : 14 days, 18:29:56.02","type":"PAR","status":"1","hoto":"1"},{"lat":"34.0219","lng":"74.8217","name":"SGARBGEMESR001","address":"Sap : I-JK-SGAR-ENB-0139<br\/>Loopback : 172.23.231.93<br\/>Up-Time : 27 days, 13:32:47.78","type":"ESR","status":"1","hoto":"1"},{"lat":"34.0132","lng":"74.8219","name":"SGARKNPRESR002","address":"Sap : I-JK-SGAR-ENB-0140<br\/>Loopback : 172.23.228.80<br\/>Up-Time : 25 days, 14:24:14.23","type":"ESR","status":"1","hoto":"1"},{"lat":"34.1485","lng":"74.828","name":"SGARKHJBPAR001","address":"Sap : I-JK-SGAR-ENB-0163<br\/>Loopback : 172.16.78.107<br\/>Up-Time : 12 days, 10:20:37.77","type":"PAR","status":"1","hoto":"1"},{"lat":"34.1542","lng":"74.8389","name":"SGARMSTFPAR001","address":"Sap : I-JK-SGAR-ENB-0164<br\/>Loopback : 172.16.78.113<br\/>Up-Time : 26 days, 6:56:04.08","type":"PAR","status":"1","hoto":"1"},{"lat":"34.159","lng":"74.8171","name":"SGARMLBGESR002","address":"Sap : I-JK-SGAR-ENB-0165<br\/>Loopback : 172.23.231.219<br\/>Up-Time : 46 days, 4:25:32.61","type":"ESR","status":"1","hoto":"1"},{"lat":"34.1167","lng":"74.7379","name":"SGARUMERESR001","address":"Sap : I-JK-SGAR-ENB-0171<br\/>Loopback : 172.23.231.48<br\/>Up-Time : 16 days, 10:31:45.37","type":"ESR","status":"1","hoto":"1"},{"lat":"34.0932","lng":"74.7855","name":"SGARWNYRPAR001","address":"Sap : I-JK-SGAR-ENB-0182<br\/>Loopback : 172.16.78.65<br\/>Up-Time : 5 days, 17:11:26.35","type":"PAR","status":"1","hoto":"1"},{"lat":"34.0568","lng":"74.8491","name":"SGARBTWRESR002","address":"Sap : I-JK-SGAR-ENB-0190<br\/>Loopback : 172.23.228.105<br\/>Up-Time : 20 days, 20:25:17.09","type":"ESR","status":"1","hoto":"1"},{"lat":"34.0659","lng":"74.7809","name":"SGARTGNPPAR001","address":"Sap : I-JK-SGAR-ENB-0212<br\/>Loopback : 172.16.78.104<br\/>Up-Time : 15:34:52.50","type":"PAR","status":"1","hoto":"1"},{"lat":"34.0025","lng":"74.8278","name":"SGARMCHWESR001","address":"Sap : I-JK-SGAR-ENB-0218<br\/>Loopback : 172.23.228.81<br\/>Up-Time : 38 days, 22:06:11.39","type":"ESR","status":"1","hoto":"1"},{"lat":"34.1388","lng":"74.8012","name":"SGARBLCRPAR001","address":"Sap : I-JK-SGAR-ENB-0219<br\/>Loopback : 172.16.78.109<br\/>Up-Time : 68 days, 7:32:24.23","type":"PAR","status":"1","hoto":"1"},{"lat":"34.0264","lng":"74.7233","name":"BDGMBDGMESR005","address":"Sap : I-JK-SGAR-ENB-0221<br\/>Loopback : 172.23.230.19<br\/>Up-Time : 6 days, 16:39:31.99","type":"ESR","status":"1","hoto":"1"},{"lat":"34.057","lng":"74.7801","name":"SGARHYDRPAR001","address":"Sap : I-JK-SGAR-ENB-0244<br\/>Loopback : 172.16.78.48<br\/>Up-Time : 68 days, 7:32:17.55","type":"PAR","status":"1","hoto":"1"},{"lat":"34.1292","lng":"74.8322","name":"SGARHZBLPAR001","address":"Sap : I-JK-SGAR-ENB-6009<br\/>Loopback : 172.16.78.78<br\/>Up-Time : 26 days, 22:02:57.76","type":"PAR","status":"1","hoto":"1"},{"lat":"34.1301","lng":"74.8144","name":"SGARMDBLESR001","address":"Sap : I-JK-SGAR-ENB-6010<br\/>Loopback : 172.23.228.219<br\/>Up-Time : 32 days, 15:54:36.19","type":"ESR","status":"1","hoto":"1"},{"lat":"34.1522","lng":"74.8288","name":"SGARKHJBPAR002","address":"Sap : I-JK-SGAR-ENB-6012<br\/>Loopback : 172.16.78.100<br\/>Up-Time : 9 days, 19:54:53.48","type":"PAR","status":"1","hoto":"1"},{"lat":"34.0533","lng":"74.8586","name":"SGARBTWRESR001","address":"Sap : I-JK-SGAR-ENB-6013<br\/>Loopback : 172.23.228.109<br\/>Up-Time : 40 days, 2:38:31.75","type":"ESR","status":"1","hoto":"1"},{"lat":"34.1335","lng":"74.8232","name":"SGAROMERESR006","address":"Sap : I-JK-SGAR-ENB-6018<br\/>Loopback : 172.23.237.7<br\/>Up-Time : 41 days, 16:32:00.40","type":"ESR","status":"1","hoto":"1"},{"lat":"34.0729","lng":"74.7888","name":"SGARNWCLESR001","address":"Sap : I-JK-SGAR-ENB-6028<br\/>Loopback : 172.23.228.131<br\/> ","type":"ESR","status":"0","hoto":"1"},{"lat":"34.1198","lng":"74.8158","name":"SGARZHIDESR002","address":"Sap : I-JK-SGAR-ENB-6029<br\/>Loopback : 172.23.228.226<br\/>Up-Time : ","type":"ESR","status":"1","hoto":"1"},{"lat":"34.0637","lng":"74.8488","name":"SGARBDMIESR001","address":"Sap : I-JK-SGAR-ENB-6045<br\/>Loopback : 172.23.228.57<br\/>Up-Time : 16 days, 13:45:22.29","type":"ESR","status":"1","hoto":"1"},{"lat":"34.0927","lng":"74.8012","name":"SGARMSBLPAR001","address":"Sap : I-JK-SGAR-ENB-6048<br\/>Loopback : 172.16.78.99<br\/>Up-Time : 17 days, 17:33:18.19","type":"PAR","status":"1","hoto":"1"},{"lat":"34.0981","lng":"74.8236","name":"SGARHSIBPAR001","address":"Sap : I-JK-SGAR-ENB-6052<br\/>Loopback : 172.16.78.108<br\/>Up-Time : ","type":"PAR","status":"1","hoto":"1"},{"lat":"34.1385","lng":"74.8189","name":"SGAROMERESR002","address":"Sap : I-JK-SGAR-ENB-6061<br\/>Loopback : 172.23.228.220<br\/>Up-Time : 24 days, 11:12:33.82","type":"ESR","status":"1","hoto":"1"},{"lat":"34.1188","lng":"74.7956","name":"SGARTGPRPAR001","address":"Sap : I-JK-SGAR-ENB-6066<br\/>Loopback : 172.16.78.77<br\/>Up-Time : 6 days, 21:52:37.46","type":"PAR","status":"1","hoto":"1"},{"lat":"34.0941","lng":"74.8079","name":"SGARSKLPPAR001","address":"Sap : I-JK-SGAR-ENB-6069<br\/>Loopback : 172.16.78.112<br\/>Up-Time : 26 days, 6:55:40.27","type":"PAR","status":"1","hoto":"1"},{"lat":"34.0996","lng":"74.7701","name":"SGARHMDNPAR001","address":"Sap : I-JK-SGAR-ENB-6070<br\/>Loopback : 172.16.78.64<br\/>Up-Time : 69 days, 1:47:40.88","type":"PAR","status":"1","hoto":"1"},{"lat":"34.0732","lng":"74.773","name":"SGARAMDRESR002","address":"Sap : I-JK-SGAR-ENB-6073<br\/>Loopback : 172.23.228.132<br\/> ","type":"ESR","status":"0","hoto":"1"},{"lat":"34.0258","lng":"74.7782","name":"BDGMRWLPESR001","address":"Sap : I-JK-SGAR-ENB-6079<br\/>Loopback : 172.23.228.176<br\/>Up-Time : ","type":"ESR","status":"1","hoto":"1"},{"lat":"34.038","lng":"74.8111","name":"SGARNTPRESR003","address":"Sap : I-JK-SGAR-ENB-6080<br\/>Loopback : 172.23.228.72<br\/>Up-Time : 27 days, 6:16:04.28","type":"ESR","status":"1","hoto":"1"},{"lat":"34.0048","lng":"74.854","name":"SGARKHTIESR001","address":"Sap : I-JK-SGAR-ENB-6081<br\/>Loopback : 172.23.228.113<br\/>Up-Time : 21 days, 12:15:02.05","type":"ESR","status":"1","hoto":"1"},{"lat":"34.0382","lng":"74.8038","name":"SGARSNTNESR001","address":"Sap : I-JK-SGAR-ENB-6082<br\/>Loopback : 172.23.228.101<br\/>Up-Time : 17 days, 13:10:49.64","type":"ESR","status":"1","hoto":"1"},{"lat":"33.9958","lng":"74.8144","name":"SGARRGRTESR001","address":"Sap : I-JK-SGAR-ENB-6087<br\/>Loopback : 172.23.228.83<br\/>Up-Time : 46 days, 4:23:40.61","type":"ESR","status":"1","hoto":"1"},{"lat":"34.0328","lng":"74.8096","name":"SGARNTPRESR002","address":"Sap : I-JK-SGAR-ENB-6089<br\/>Loopback : 172.23.228.67<br\/>Up-Time : 18 days, 9:51:45.88","type":"ESR","status":"1","hoto":"1"},{"lat":"34.0425","lng":"74.8197","name":"SGARKPSGPAR001","address":"Sap : I-JK-SGAR-ENB-6091<br\/>Loopback : 172.16.78.79<br\/>Up-Time : 48 days, 12:43:23.01","type":"PAR","status":"1","hoto":"1"},{"lat":"34.0681","lng":"74.7748","name":"SGARAMDRESR001","address":"Sap : I-JK-SGAR-ENB-6093<br\/>Loopback : 172.23.228.133<br\/> ","type":"ESR","status":"0","hoto":"1"},{"lat":"34.0254","lng":"74.8174","name":"SGARNTPRPAR001","address":"Sap : I-JK-SGAR-ENB-6094<br\/>Loopback : 172.16.78.58<br\/>Up-Time : 3 days, 18:12:45.32","type":"PAR","status":"1","hoto":"1"},{"lat":"34.1361","lng":"74.7974","name":"SGARBLCRESR002","address":"Sap : I-JK-SGAR-ENB-6100<br\/>Loopback : 172.23.231.252<br\/> ","type":"ESR","status":"0","hoto":"1"},{"lat":"34.1097","lng":"74.7288","name":"SGARMSTBESR003","address":"Sap : I-JK-SGAR-ENB-H039<br\/>Loopback : 172.23.231.55<br\/>Up-Time : 40 days, 12:22:32.55","type":"ESR","status":"1","hoto":"1"},{"lat":"34.1347","lng":"74.8126","name":"SGAROMERESR005","address":"Sap : I-JK-SGAR-ENB-H049<br\/>Loopback : 172.23.231.232<br\/>Up-Time : 51 days, 3:28:43.76","type":"ESR","status":"1","hoto":"1"},{"lat":"34.0127","lng":"74.7664","name":"BDGMBDGMESR013","address":"Sap : I-JK-SGAR-ENB-H059<br\/>Loopback : 172.23.231.84<br\/>Up-Time : 51 days, 3:20:48.96","type":"ESR","status":"1","hoto":"1"},{"lat":"34.0339","lng":"74.8171","name":"SGARNTPRESR005","address":"Sap : I-JK-SGAR-ENB-H066<br\/>Loopback : 172.23.231.229<br\/> ","type":"ESR","status":"0","hoto":"1"},{"lat":"33.7219","lng":"74.8352","name":"SOPNSOPNPAR001","address":"Sap : I-JK-SOPN-ENB-9003<br\/>Loopback : 172.16.78.40<br\/>Up-Time : 11 days, 22:48:48.62","type":"PAR","status":"1","hoto":"1"},{"lat":"34.2811","lng":"74.4623","name":"SPREUPRSPAR001","address":"Sap : I-JK-SPRE-AG1-4400<br\/>Loopback : 172.16.78.55<br\/>Up-Time : ","type":"PAR","status":"1","hoto":"1"},{"lat":"34.2543","lng":"74.4457","name":"SPREPETSESR001","address":"Sap : I-JK-SPRE-ENB-0001<br\/>Loopback : 172.23.230.50<br\/> ","type":"ESR","status":"0","hoto":"1"},{"lat":"34.2836","lng":"74.4762","name":"SPRESHRCESR001","address":"Sap : I-JK-SPRE-ENB-0010<br\/>Loopback : 172.23.231.181<br\/>Up-Time : 41 days, 13:34:53.36","type":"ESR","status":"1","hoto":"1"},{"lat":"34.2894","lng":"74.4698","name":"SPRECHKPESR001","address":"Sap : I-JK-SPRE-ENB-0012<br\/>Loopback : 172.23.230.63<br\/>Up-Time : 12:19:26.96","type":"ESR","status":"1","hoto":"1"},{"lat":"34.2454","lng":"74.4491","name":"SPREDILNESR001","address":"Sap : I-JK-SPRE-ENB-6000<br\/>Loopback : 172.23.230.49<br\/>Up-Time : 12 days, 20:47:40.36","type":"ESR","status":"1","hoto":"1"},{"lat":"34.2845","lng":"74.4687","name":"SPREGLEMESR001","address":"Sap : I-JK-SPRE-ENB-6005<br\/>Loopback : 172.23.231.35<br\/>Up-Time : 25 days, 16:10:53.81","type":"ESR","status":"1","hoto":"1"},{"lat":"34.2705","lng":"74.4646","name":"SPREKRSVESR001","address":"Sap : I-JK-SPRE-ENB-H003<br\/>Loopback : 172.23.231.239<br\/>Up-Time : 39 days, 12:50:49.58","type":"ESR","status":"1","hoto":"1"},{"lat":"34.2294","lng":"74.6497","name":"SUBLSUBLESR001","address":"Sap : I-JK-SUBL-ENB-H001<br\/>Loopback : 172.23.231.145<br\/>Up-Time : 20 days, 18:29:30.73","type":"ESR","status":"1","hoto":"1"},{"lat":"33.9269","lng":"75.1106","name":"TRALTRALESR002","address":"Sap : I-JK-TRAL-ENB-H001<br\/>Loopback : 172.23.231.101<br\/>Up-Time : 39 days, 3:47:26.42","type":"ESR","status":"1","hoto":"1"},{"lat":"32.9084","lng":"75.1315","name":"UMPRRKHKESR001","address":"Sap : I-JK-UMPR-ENB-0001<br\/>Loopback : 172.23.230.164<br\/>Up-Time : 1 day, 15:08:37.33","type":"ESR","status":"1","hoto":"1"},{"lat":"32.9187","lng":"75.1367","name":"UMPRKLRHPAR001","address":"Sap : I-JK-UMPR-ENB-0003<br\/>Loopback : 172.16.78.46<br\/>Up-Time : ","type":"PAR","status":"1","hoto":"1"},{"lat":"32.9274","lng":"75.1472","name":"UMPRBRTNESR001","address":"Sap : I-JK-UMPR-ENB-0006<br\/>Loopback : 172.23.230.158<br\/>Up-Time : 21 days, 18:11:01.99","type":"ESR","status":"1","hoto":"1"},{"lat":"33.2373","lng":"75.235","name":"RAANRAANESR002","address":"Sap : I-JK-UMPR-ENB-6016<br\/>Loopback : 172.23.231.142<br\/>Up-Time : 18:12:08.56","type":"ESR","status":"1","hoto":"1"},{"lat":"33.0362","lng":"75.2788","name":"CHANCHANPAR001","address":"Sap : I-JK-UMPR-ENB-6031<br\/>Loopback : 172.16.78.86<br\/> ","type":"PAR","status":"0","hoto":"1"},{"lat":"32.7145","lng":"75.1738","name":"MJLTMJLTESR004","address":"Sap : I-JK-UMPR-ENB-6032<br\/>Loopback : 172.23.231.156<br\/>Up-Time : 8 days, 15:39:11.08","type":"ESR","status":"1","hoto":"1"},{"lat":"32.8683","lng":"75.1464","name":"UMPRUMPRESR007","address":"Sap : I-JK-UMPR-ENB-6052<br\/>Loopback : 172.23.231.153<br\/>Up-Time : 13 days, 16:04:08.48","type":"ESR","status":"1","hoto":"1"},{"lat":"32.9166","lng":"75.131","name":"UMPROMLLESR001","address":"Sap : I-JK-UMPR-ENB-6063<br\/>Loopback : 172.23.230.23<br\/>Up-Time : 53 days, 2:25:43.38","type":"ESR","status":"1","hoto":"1"},{"lat":"32.9072","lng":"75.1096","name":"UMPRUDPTESR001","address":"Sap : I-JK-UMPR-ENB-6064<br\/>Loopback : 172.23.230.113<br\/>Up-Time : 4 days, 17:01:18.40","type":"ESR","status":"1","hoto":"1"},{"lat":"32.9263","lng":"75.1302","name":"UMPRSHVNESR001","address":"Sap : I-JK-UMPR-ENB-6065<br\/>Loopback : 172.23.230.142<br\/>Up-Time : 4 days, 21:04:24.34","type":"ESR","status":"1","hoto":"1"},{"lat":"32.9324","lng":"75.143","name":"UMPRIDRNESR001","address":"Sap : I-JK-UMPR-ENB-6066<br\/>Loopback : 172.23.230.136<br\/>Up-Time : 46 days, 2:01:02.72","type":"ESR","status":"1","hoto":"1"},{"lat":"32.9286","lng":"75.1409","name":"UMPRIDRNESR002","address":"Sap : I-JK-UMPR-ENB-6067<br\/>Loopback : 172.23.230.157<br\/>Up-Time : 53 days, 3:48:21.21","type":"ESR","status":"1","hoto":"1"},{"lat":"32.937","lng":"75.1482","name":"UMPRJKNIESR001","address":"Sap : I-JK-UMPR-ENB-6068<br\/>Loopback : 172.23.230.22<br\/>Up-Time : 29 days, 20:36:10.75","type":"ESR","status":"1","hoto":"1"},{"lat":"32.9089","lng":"75.089","name":"UMPRCHKRESR002","address":"Sap : I-JK-UMPR-ENB-6069<br\/>Loopback : 172.23.230.108<br\/>Up-Time : 4 days, 13:34:34.58","type":"ESR","status":"1","hoto":"1"},{"lat":"32.9221","lng":"75.1399","name":"UMPRBSNRESR001","address":"Sap : I-JK-UMPR-ENB-6070<br\/>Loopback : 172.23.230.24<br\/>Up-Time : 46 days, 2:00:04.11","type":"ESR","status":"1","hoto":"1"},{"lat":"32.9165","lng":"75.1092","name":"UMPRCHKRESR001","address":"Sap : I-JK-UMPR-ENB-6071<br\/>Loopback : 172.23.230.31<br\/>Up-Time : 26 days, 21:18:43.98","type":"ESR","status":"1","hoto":"1"},{"lat":"32.9242","lng":"75.1376","name":"UMPRGLMKESR001","address":"Sap : I-JK-UMPR-ENB-6073<br\/>Loopback : 172.23.230.163<br\/>Up-Time : 46 days, 2:04:56.62","type":"ESR","status":"1","hoto":"1"},{"lat":"32.9156","lng":"75.1215","name":"UMPRCHBRESR001","address":"Sap : I-JK-UMPR-ENB-6075<br\/>Loopback : 172.23.230.21<br\/>Up-Time : 16:20:47.70","type":"ESR","status":"1","hoto":"1"}],"count":275};