var maplatlng = {"latlng":[{"lat":"14.8222","lng":"75.4686","name":"AGADAGADESR001","address":"Sap : I-KA-AGAD-ENB-6000<br\/>Loopback : 172.23.198.232<br\/>Up-Time : 12 days, 18:48:48.49","type":"ESR","status":"1","hoto":"1"},{"lat":"14.6634","lng":"74.3135","name":"AKLAAKLAESR003","address":"Sap : I-KA-AKLA-ENB-6000<br\/>Loopback : 172.23.196.189<br\/>Up-Time : 42 days, 5:27:47.26","type":"ESR","status":"1","hoto":"1"},{"lat":"14.6516","lng":"74.3166","name":"AKLAAKLAESR004","address":"Sap : I-KA-AKLA-ENB-6001<br\/>Loopback : 172.23.196.52<br\/>Up-Time : 45 days, 17:35:26.93","type":"ESR","status":"1","hoto":"1"},{"lat":"14.6713","lng":"74.3058","name":"AKLAAKLAESR006","address":"Sap : I-KA-AKLA-ENB-6002<br\/>Loopback : 172.23.196.186<br\/>Up-Time : 42 days, 5:30:36.75","type":"ESR","status":"1","hoto":"1"},{"lat":"14.6572","lng":"74.3028","name":"AKLAAKLAESR002","address":"Sap : I-KA-AKLA-ENB-6003<br\/>Loopback : 172.23.196.187<br\/>Up-Time : 42 days, 5:27:42.32","type":"ESR","status":"1","hoto":"1"},{"lat":"14.7263","lng":"74.2846","name":"AKLAAKLAESR005","address":"Sap : I-KA-AKLA-ENB-6004<br\/>Loopback : 172.23.199.120<br\/>Up-Time : 42 days, 5:03:25.59","type":"ESR","status":"1","hoto":"1"},{"lat":"14.6341","lng":"74.3386","name":"AKLAAKLAESR010","address":"Sap : I-KA-AKLA-ENB-9009<br\/>Loopback : 172.23.194.196<br\/>Up-Time : 49 days, 2:16:35.92","type":"ESR","status":"1","hoto":"1"},{"lat":"14.6157","lng":"74.3529","name":"AKLAAKLAESR011","address":"Sap : I-KA-AKLA-ENB-9020<br\/>Loopback : 172.23.194.182<br\/>Up-Time : 49 days, 2:24:28.00","type":"ESR","status":"1","hoto":"1"},{"lat":"14.7049","lng":"74.2712","name":"AKLAAKLAESR007","address":"Sap : I-KA-AKLA-ENB-I001<br\/>Loopback : 172.23.194.166<br\/>Up-Time : 49 days, 2:18:52.76","type":"ESR","status":"1","hoto":"1"},{"lat":"14.5713","lng":"74.3854","name":"KMTAKMTAESR009","address":"Sap : I-KA-AKLA-ENB-I002<br\/>Loopback : 172.23.193.166<br\/>Up-Time : 49 days, 2:53:11.07","type":"ESR","status":"1","hoto":"1"},{"lat":"14.7128","lng":"74.2911","name":"AKLAAKLAESR012","address":"Sap : I-KA-AKLA-ENB-I003<br\/>Loopback : 172.23.194.146<br\/>Up-Time : 41 days, 19:54:56.98","type":"ESR","status":"1","hoto":"1"},{"lat":"14.7332","lng":"74.257","name":"AKLAAKLAESR008","address":"Sap : I-KA-AKLA-ENB-V001<br\/>Loopback : 172.23.194.170<br\/>Up-Time : 15 days, 13:10:00.06","type":"ESR","status":"1","hoto":"1"},{"lat":"13.2437","lng":"75.6529","name":"ALDRALDRESR001","address":"Sap : I-KA-ALDR-ENB-6000<br\/>Loopback : 172.23.197.164<br\/>Up-Time : 47 days, 4:27:17.53","type":"ESR","status":"1","hoto":"1"},{"lat":"12.7305","lng":"75.0909","name":"ALIKALIKESR001","address":"Sap : I-KA-ALIK-ENB-6000<br\/>Loopback : 172.23.193.44<br\/>Up-Time : 16 days, 20:42:07.12","type":"ESR","status":"1","hoto":"1"},{"lat":"17.0947","lng":"76.2206","name":"ALMEALMEESR001","address":"Sap : I-KA-ALME-ENB-6000<br\/>Loopback : 172.23.198.158<br\/> ","type":"ESR","status":"0","hoto":"1"},{"lat":"12.9784","lng":"75.9916","name":"ALURALURESR001","address":"Sap : I-KA-ALUR-ENB-6000<br\/>Loopback : 172.23.197.25<br\/>Up-Time : 45 days, 13:59:00.25","type":"ESR","status":"1","hoto":"1"},{"lat":"12.9615","lng":"75.9871","name":"ALURALURESR002","address":"Sap : I-KA-ALUR-ENB-9001<br\/>Loopback : 172.23.197.26<br\/>Up-Time : 16 days, 16:11:17.15","type":"ESR","status":"1","hoto":"1"},{"lat":"12.951","lng":"75.9346","name":"ALURALURESR003","address":"Sap : I-KA-ALUR-ENB-9002<br\/>Loopback : 172.23.194.217<br\/>Up-Time : 14 days, 21:38:40.65","type":"ESR","status":"1","hoto":"1"},{"lat":"12.7123","lng":"77.6925","name":"ANKLANKLESR017","address":"Sap : I-KA-ANKL-ENB-6002<br\/>Loopback : 172.23.128.55<br\/>Up-Time : 41 days, 23:57:46.07","type":"ESR","status":"1","hoto":"1"},{"lat":"12.7073","lng":"77.6976","name":"ANKLANKLESR001","address":"Sap : I-KA-ANKL-ENB-6003<br\/>Loopback : 172.23.128.53<br\/>Up-Time : 42 days, 6:02:52.73","type":"ESR","status":"1","hoto":"1"},{"lat":"13.3068","lng":"76.2531","name":"ARSKARSKESR003","address":"Sap : I-KA-ARSK-ENB-6000<br\/>Loopback : 172.23.196.192<br\/>Up-Time : 63 days, 4:45:19.67","type":"ESR","status":"1","hoto":"1"},{"lat":"13.3189","lng":"76.2515","name":"ARSKARSKESR002","address":"Sap : I-KA-ARSK-ENB-6001<br\/>Loopback : 172.23.196.193<br\/>Up-Time : 30 days, 18:35:14.66","type":"ESR","status":"1","hoto":"1"},{"lat":"12.0181","lng":"76.2993","name":"ATSHATSHPAR001","address":"Sap : I-KA-ATSH-ENB-6000<br\/>Loopback : 172.16.69.28<br\/>Up-Time : 58 days, 0:02:06.34","type":"PAR","status":"1","hoto":"1"},{"lat":"14.0132","lng":"75.4338","name":"AYNRAYNRESR001","address":"Sap : I-KA-AYNR-ENB-6000<br\/>Loopback : 172.23.198.255<br\/>Up-Time : 40 days, 5:51:22.16","type":"ESR","status":"1","hoto":"1"},{"lat":"17.2062","lng":"76.3606","name":"AZLPAZLPESR001","address":"Sap : I-KA-AZLP-ENB-6000<br\/>Loopback : 172.22.36.121<br\/>Up-Time : 16:10:31.56","type":"ESR","status":"1","hoto":"1"},{"lat":"13.4343","lng":"75.9658","name":"BANUBANUESR001","address":"Sap : I-KA-BANU-ENB-6000<br\/>Loopback : 172.23.198.214<br\/> ","type":"ESR","status":"0","hoto":"1"},{"lat":"16.3375","lng":"75.9035","name":"BBWDBBWDESR008","address":"Sap : I-KA-BBWD-ENB-6000<br\/>Loopback : 172.23.198.145<br\/>Up-Time : 42 days, 5:27:34.11","type":"ESR","status":"1","hoto":"1"},{"lat":"16.5674","lng":"75.9672","name":"BBWDBBWDESR003","address":"Sap : I-KA-BBWD-ENB-6001<br\/>Loopback : 172.23.196.42<br\/>Up-Time : 14 days, 16:38:32.41","type":"ESR","status":"1","hoto":"1"},{"lat":"16.5727","lng":"75.9741","name":"BBWDBBWDESR004","address":"Sap : I-KA-BBWD-ENB-6002<br\/>Loopback : 172.23.196.43<br\/>Up-Time : 3 days, 20:37:44.34","type":"ESR","status":"1","hoto":"1"},{"lat":"16.4902","lng":"75.8816","name":"BBWDBBWDESR005","address":"Sap : I-KA-BBWD-ENB-6003<br\/>Loopback : 172.23.198.143<br\/>Up-Time : 28 days, 12:52:16.45","type":"ESR","status":"1","hoto":"1"},{"lat":"16.5233","lng":"75.8172","name":"BBWDBBWDESR002","address":"Sap : I-KA-BBWD-ENB-6006<br\/>Loopback : 172.23.193.140<br\/>Up-Time : 8 days, 13:54:09.23","type":"ESR","status":"1","hoto":"1"},{"lat":"16.6562","lng":"75.8104","name":"BBWDBBWDESR015","address":"Sap : I-KA-BBWD-ENB-6008<br\/>Loopback : 172.23.198.141<br\/>Up-Time : 15 days, 6:11:48.08","type":"ESR","status":"1","hoto":"1"},{"lat":"16.5941","lng":"75.7299","name":"BBWDBBWDESR014","address":"Sap : I-KA-BBWD-ENB-6010<br\/>Loopback : 172.23.199.158<br\/>Up-Time : 1 day, 21:11:14.71","type":"ESR","status":"1","hoto":"1"},{"lat":"16.5233","lng":"75.8847","name":"BBWDBBWDESR009","address":"Sap : I-KA-BBWD-ENB-6011<br\/>Loopback : 172.23.198.142<br\/>Up-Time : 46 days, 23:58:25.72","type":"ESR","status":"1","hoto":"1"},{"lat":"16.4842","lng":"75.8304","name":"BBWDBBWDESR007","address":"Sap : I-KA-BBWD-ENB-6013<br\/>Loopback : 172.23.193.253<br\/>Up-Time : 24 days, 15:46:10.19","type":"ESR","status":"1","hoto":"1"},{"lat":"15.9174","lng":"75.68","name":"BDMIBDMIESR001","address":"Sap : I-KA-BDMI-ENB-6001<br\/>Loopback : 172.23.198.177<br\/>Up-Time : 40 days, 5:51:43.21","type":"ESR","status":"1","hoto":"1"},{"lat":"16.0015","lng":"75.6424","name":"BDMIBDMIESR011","address":"Sap : I-KA-BDMI-ENB-6006<br\/>Loopback : 172.23.198.176<br\/>Up-Time : 42 days, 13:51:56.97","type":"ESR","status":"1","hoto":"1"},{"lat":"15.9105","lng":"75.5042","name":"BDMIBDMIESR003","address":"Sap : I-KA-BDMI-ENB-6011<br\/>Loopback : 172.23.198.161<br\/>Up-Time : 14 days, 10:50:36.03","type":"ESR","status":"1","hoto":"1"},{"lat":"13.861","lng":"75.7151","name":"BDVKSIGBESR001","address":"Sap : I-KA-BDVK-ENB-0003<br\/>Loopback : 172.23.199.32<br\/>Up-Time : 25 days, 0:52:54.86","type":"ESR","status":"1","hoto":"1"},{"lat":"13.8486","lng":"75.7067","name":"BDVKODTWESR001","address":"Sap : I-KA-BDVK-ENB-0007<br\/>Loopback : 172.23.199.30<br\/>Up-Time : 47 days, 3:26:23.61","type":"ESR","status":"1","hoto":"1"},{"lat":"13.8106","lng":"75.6785","name":"BDVKCMSHESR001","address":"Sap : I-KA-BDVK-ENB-6003<br\/>Loopback : 172.23.199.100<br\/>Up-Time : 39 days, 5:44:15.93","type":"ESR","status":"1","hoto":"1"},{"lat":"13.8487","lng":"75.7024","name":"BDVKSDWRESR001","address":"Sap : I-KA-BDVK-ENB-6004<br\/>Loopback : 172.23.199.29<br\/>Up-Time : 47 days, 3:16:09.15","type":"ESR","status":"1","hoto":"1"},{"lat":"13.8487","lng":"75.7024","name":"BDVKSDWRPAR002","address":"Sap : I-KA-BDVK-ENB-6004<br\/>Loopback : 172.16.59.88<br\/> ","type":"PAR","status":"0","hoto":"1"},{"lat":"13.8368","lng":"75.6841","name":"BDVKJNPRESR001","address":"Sap : I-KA-BDVK-ENB-6005<br\/>Loopback : 172.23.199.41<br\/>Up-Time : 47 days, 3:34:13.56","type":"ESR","status":"1","hoto":"1"},{"lat":"13.8203","lng":"75.6885","name":"BDVKHUDCESR001","address":"Sap : I-KA-BDVK-ENB-6007<br\/>Loopback : 172.23.199.47<br\/>Up-Time : 26 days, 12:52:59.54","type":"ESR","status":"1","hoto":"1"},{"lat":"13.8563","lng":"75.6819","name":"BDVKKDKTESR001","address":"Sap : I-KA-BDVK-ENB-6008<br\/>Loopback : 172.23.199.40<br\/>Up-Time : 18 days, 21:58:09.85","type":"ESR","status":"1","hoto":"1"},{"lat":"13.8532","lng":"75.7185","name":"BDVKHSMNESR001","address":"Sap : I-KA-BDVK-ENB-6009<br\/>Loopback : 172.23.199.34<br\/>Up-Time : 52 days, 3:10:41.93","type":"ESR","status":"1","hoto":"1"},{"lat":"13.8537","lng":"75.7076","name":"BDVKAWRCESR001","address":"Sap : I-KA-BDVK-ENB-6010<br\/>Loopback : 172.23.199.31<br\/>Up-Time : 8 days, 14:06:37.22","type":"ESR","status":"1","hoto":"1"},{"lat":"13.8141","lng":"75.702","name":"BDVKUJPRESR001","address":"Sap : I-KA-BDVK-ENB-6011<br\/>Loopback : 172.23.199.179<br\/>Up-Time : 47 days, 4:33:53.25","type":"ESR","status":"1","hoto":"1"},{"lat":"13.8462","lng":"75.6879","name":"BDVKHUTCESR001","address":"Sap : I-KA-BDVK-ENB-6012<br\/>Loopback : 172.23.199.35<br\/>Up-Time : 47 days, 3:26:24.25","type":"ESR","status":"1","hoto":"1"},{"lat":"13.8541","lng":"75.7143","name":"BDVKVJYNESR001","address":"Sap : I-KA-BDVK-ENB-A001<br\/>Loopback : 172.23.199.33<br\/>Up-Time : 15:01:44.63","type":"ESR","status":"1","hoto":"1"},{"lat":"13.858","lng":"75.7046","name":"BDVKRMWRESR001","address":"Sap : I-KA-BDVK-ENB-I001<br\/>Loopback : 172.23.199.37<br\/>Up-Time : 47 days, 3:28:04.53","type":"ESR","status":"1","hoto":"1"},{"lat":"13.8231","lng":"75.7058","name":"BDVKPERTESR001","address":"Sap : I-KA-BDVK-ENB-I003<br\/>Loopback : 172.23.194.104<br\/>Up-Time : 24 days, 8:00:42.62","type":"ESR","status":"1","hoto":"1"},{"lat":"13.8328","lng":"75.6859","name":"BDVKJNPRESR002","address":"Sap : I-KA-BDVK-ENB-V001<br\/>Loopback : 172.23.199.39<br\/>Up-Time : 47 days, 3:25:46.85","type":"ESR","status":"1","hoto":"1"},{"lat":"13.8351","lng":"75.6755","name":"BDVKNSDPESR001","address":"Sap : I-KA-BDVK-ENB-V002<br\/>Loopback : 172.23.199.83<br\/>Up-Time : 47 days, 3:11:49.44","type":"ESR","status":"1","hoto":"1"},{"lat":"13.8449","lng":"75.6934","name":"BDVKHLKRESR001","address":"Sap : I-KA-BDVK-ENB-V003<br\/>Loopback : 172.23.199.36<br\/>Up-Time : 47 days, 3:34:24.21","type":"ESR","status":"1","hoto":"1"},{"lat":"13.8498","lng":"75.6991","name":"BDVKSDWRESR002","address":"Sap : I-KA-BDVK-ENB-V004<br\/>Loopback : 172.23.199.42<br\/>Up-Time : 15 days, 6:19:04.48","type":"ESR","status":"1","hoto":"1"},{"lat":"12.3645","lng":"75.6956","name":"BETTBETTESR001","address":"Sap : I-KA-BETT-ENB-6000<br\/>Loopback : 172.23.198.105<br\/>Up-Time : 3 days, 15:56:49.00","type":"ESR","status":"1","hoto":"1"},{"lat":"16.1782","lng":"75.6564","name":"BGLKBGLKESR007","address":"Sap : I-KA-BGLK-ENB-6000<br\/>Loopback : 172.23.198.7<br\/>Up-Time : 42 days, 5:27:38.74","type":"ESR","status":"1","hoto":"1"},{"lat":"16.1548","lng":"75.6502","name":"BGLKBGLKESR005","address":"Sap : I-KA-BGLK-ENB-6001<br\/>Loopback : 172.23.198.22<br\/>Up-Time : 42 days, 5:32:04.59","type":"ESR","status":"1","hoto":"1"},{"lat":"16.1691","lng":"75.6625","name":"BGLKBGLKESR002","address":"Sap : I-KA-BGLK-ENB-6002<br\/>Loopback : 172.23.198.5<br\/>Up-Time : 5 days, 17:11:46.28","type":"ESR","status":"1","hoto":"1"},{"lat":"16.1666","lng":"75.6539","name":"BGLKBGLKESR003","address":"Sap : I-KA-BGLK-ENB-6003<br\/>Loopback : 172.23.198.13<br\/>Up-Time : 7 days, 17:27:35.32","type":"ESR","status":"1","hoto":"1"},{"lat":"16.1625","lng":"75.6476","name":"BGLKBGLKESR013","address":"Sap : I-KA-BGLK-ENB-6004<br\/>Loopback : 172.23.198.12<br\/>Up-Time : 28 days, 17:29:02.36","type":"ESR","status":"1","hoto":"1"},{"lat":"16.1555","lng":"75.6694","name":"BGLKBGLKESR004","address":"Sap : I-KA-BGLK-ENB-6005<br\/>Loopback : 172.23.198.6<br\/>Up-Time : 42 days, 4:55:36.65","type":"ESR","status":"1","hoto":"1"},{"lat":"16.1628","lng":"75.6735","name":"BGLKBGLKESR006","address":"Sap : I-KA-BGLK-ENB-6006<br\/>Loopback : 172.23.199.171<br\/>Up-Time : 30 days, 13:36:52.49","type":"ESR","status":"1","hoto":"1"},{"lat":"16.1598","lng":"75.6563","name":"BGLKBGLKESR001","address":"Sap : I-KA-BGLK-ENB-6007<br\/>Loopback : 172.23.198.23<br\/> ","type":"ESR","status":"0","hoto":"1"},{"lat":"16.1518","lng":"75.6618","name":"BGLKBGLKESR012","address":"Sap : I-KA-BGLK-ENB-6008<br\/>Loopback : 172.23.198.11<br\/>Up-Time : 42 days, 5:34:21.78","type":"ESR","status":"1","hoto":"1"},{"lat":"16.1817","lng":"75.6638","name":"BGLKBGLKESR008","address":"Sap : I-KA-BGLK-ENB-6009<br\/>Loopback : 172.23.198.8<br\/>Up-Time : 7 days, 20:36:04.27","type":"ESR","status":"1","hoto":"1"},{"lat":"16.1896","lng":"75.7025","name":"BGLKDVSFESR001","address":"Sap : I-KA-BGLK-ENB-6010<br\/>Loopback : 172.23.197.243<br\/>Up-Time : 61 days, 3:49:48.80","type":"ESR","status":"1","hoto":"1"},{"lat":"16.1844","lng":"75.6922","name":"BGLKKLPEESR001","address":"Sap : I-KA-BGLK-ENB-6012<br\/>Loopback : 172.23.198.9<br\/>Up-Time : 42 days, 5:35:06.17","type":"ESR","status":"1","hoto":"1"},{"lat":"16.1946","lng":"75.8094","name":"BGLKBGLKESR017","address":"Sap : I-KA-BGLK-ENB-6014<br\/>Loopback : 172.23.198.146<br\/>Up-Time : 16:29:00.59","type":"ESR","status":"1","hoto":"1"},{"lat":"16.157","lng":"75.6608","name":"BGLKBGLKESR009","address":"Sap : I-KA-BGLK-ENB-A002<br\/>Loopback : 172.23.198.24<br\/>Up-Time : 42 days, 5:25:52.82","type":"ESR","status":"1","hoto":"1"},{"lat":"16.186","lng":"75.7092","name":"BGLKBSVRESR001","address":"Sap : I-KA-BGLK-ENB-I001<br\/>Loopback : 172.23.193.137<br\/>Up-Time : 7 days, 18:24:51.62","type":"ESR","status":"1","hoto":"1"},{"lat":"16.1518","lng":"75.6902","name":"BGLKBGLKESR016","address":"Sap : I-KA-BGLK-ENB-V001<br\/>Loopback : 172.23.199.172<br\/>Up-Time : 7:35:58.26","type":"ESR","status":"1","hoto":"1"},{"lat":"16.1879","lng":"75.6876","name":"BGLKBGLOESR001","address":"Sap : I-KA-BGLK-ENB-V002<br\/>Loopback : 172.23.198.10<br\/>Up-Time : 22 days, 13:32:47.06","type":"ESR","status":"1","hoto":"1"},{"lat":"16.1808","lng":"75.6949","name":"BGLKKLPEESR002","address":"Sap : I-KA-BGLK-ENB-V003<br\/>Loopback : 172.23.197.245<br\/>Up-Time : 47 days, 2:29:49.96","type":"ESR","status":"1","hoto":"1"},{"lat":"16.182","lng":"75.6536","name":"BGLKBGLKESR010","address":"Sap : I-KA-BGLK-ENB-W001<br\/>Loopback : 172.23.198.25<br\/>Up-Time : 42 days, 5:25:59.72","type":"ESR","status":"1","hoto":"1"},{"lat":"13.0424","lng":"77.5811","name":"BGLRRSDCAAR001","address":"Sap : I-KA-BGLR-AG2-0001<br\/>Loopback : 49.44.1.147<br\/>Up-Time : 70 days, 4:29:56.51","type":"AAR","status":"1","hoto":"0"},{"lat":"12.9252","lng":"77.5534","name":"BGLRBNSHAAR001","address":"Sap : I-KA-BGLR-AG2-0002<br\/>Loopback : 49.44.1.142<br\/>Up-Time : 72 days, 15:07:30.20","type":"AAR","status":"1","hoto":"0"},{"lat":"12.8393","lng":"77.6623","name":"BGLRALTKAAR001","address":"Sap : I-KA-BGLR-AG2-0003<br\/>Loopback : 49.44.1.140<br\/>Up-Time : 66 days, 23:28:50.98","type":"AAR","status":"1","hoto":"0"},{"lat":"12.9778","lng":"77.6362","name":"BGLRNSAEAAR001","address":"Sap : I-KA-BGLR-AG2-0004<br\/>Loopback : 49.44.1.145<br\/>Up-Time : 70 days, 23:34:30.60","type":"AAR","status":"1","hoto":"0"},{"lat":"13.0226","lng":"77.5416","name":"BGLRGGTAPAR002","address":"Sap : I-KA-BGLR-AG2-0005<br\/>Loopback : 172.16.59.186<br\/>Up-Time : 66 days, 1:39:08.36","type":"PAR","status":"1","hoto":"1"},{"lat":"13.0226","lng":"77.5416","name":"BGLRGGTAPAR001","address":"Sap : I-KA-BGLR-AG2-0005<br\/>Loopback : 172.16.66.4<br\/>Up-Time : 38 days, 3:17:36.82","type":"PAR","status":"1","hoto":"1"},{"lat":"12.8792","lng":"77.5953","name":"BGLRAMLTAAR001","address":"Sap : I-KA-BGLR-AG2-0006<br\/>Loopback : 49.44.1.141<br\/>Up-Time : 70 days, 1:05:06.23","type":"AAR","status":"1","hoto":"0"},{"lat":"12.9135","lng":"77.6775","name":"BGLRKDAHAAR001","address":"Sap : I-KA-BGLR-AG2-0008<br\/>Loopback : 49.44.1.144<br\/>Up-Time : 48 days, 3:45:41.48","type":"AAR","status":"1","hoto":"0"},{"lat":"13.0317","lng":"77.6357","name":"BGLRHBRBAAR001","address":"Sap : I-KA-BGLR-AG2-0009<br\/>Loopback : 49.44.1.143<br\/>Up-Time : 59 days, 4:04:23.85","type":"AAR","status":"1","hoto":"0"},{"lat":"12.9885","lng":"77.5595","name":"BGLRRINRAAR001","address":"Sap : I-KA-BGLR-AG2-0010<br\/>Loopback : 49.44.1.146<br\/>Up-Time : 68 days, 4:59:45.14","type":"AAR","status":"1","hoto":"0"},{"lat":"12.9352","lng":"77.6075","name":"BGLRVNKRAAR001","address":"Sap : I-KA-BGLR-AG2-0011<br\/>Loopback : 49.44.1.148<br\/>Up-Time : 66 days, 0:04:47.05","type":"AAR","status":"1","hoto":"0"},{"lat":"12.9831","lng":"77.7507","name":"BGLRUPKWPAR001","address":"Sap : I-KA-BGLR-AG3-0001<br\/>Loopback : 172.16.66.1<br\/>Up-Time : 58 days, 0:04:28.53","type":"PAR","status":"1","hoto":"1"},{"lat":"12.9831","lng":"77.7507","name":"BGLRUPKWPAR002","address":"Sap : I-KA-BGLR-AG3-0001<br\/>Loopback : 172.16.66.2<br\/>Up-Time : 58 days, 0:04:24.24","type":"PAR","status":"1","hoto":"1"},{"lat":"12.9831","lng":"77.7507","name":"BGLRUPKWPAR901","address":"Sap : I-KA-BGLR-AG3-0001<br\/>Loopback : 172.16.67.149<br\/>Up-Time : 56 days, 10:22:42.38","type":"PAR","status":"1","hoto":"1"},{"lat":"13.0006","lng":"77.6177","name":"BGLRPLKHPAR001","address":"Sap : I-KA-BGLR-ENB-0008<br\/>Loopback : 172.16.66.249<br\/>Up-Time : 53 days, 14:19:24.56","type":"PAR","status":"1","hoto":"1"},{"lat":"13.035","lng":"77.5306","name":"BGLRPEIAPAR001","address":"Sap : I-KA-BGLR-ENB-0042<br\/>Loopback : 172.16.66.68<br\/>Up-Time : 25 days, 12:00:22.72","type":"PAR","status":"1","hoto":"1"},{"lat":"13.057","lng":"77.5096","name":"BGLRTDSLPAR001","address":"Sap : I-KA-BGLR-ENB-0047<br\/>Loopback : 172.16.67.67<br\/>Up-Time : 33 days, 9:00:57.58","type":"PAR","status":"1","hoto":"1"},{"lat":"13.0484","lng":"77.5037","name":"BGLRDFNLPAR001","address":"Sap : I-KA-BGLR-ENB-0050<br\/>Loopback : 172.16.67.68<br\/>Up-Time : 57 days, 12:18:54.20","type":"PAR","status":"1","hoto":"1"},{"lat":"13.0651","lng":"77.5251","name":"BGLRSTHLPAR001","address":"Sap : I-KA-BGLR-ENB-0052<br\/>Loopback : 172.16.67.66<br\/>Up-Time : 22 days, 7:44:06.52","type":"PAR","status":"1","hoto":"1"},{"lat":"12.9422","lng":"77.5482","name":"BGLRGIRIPAR001","address":"Sap : I-KA-BGLR-ENB-0055<br\/>Loopback : 172.16.66.101<br\/>Up-Time : 14 days, 13:36:11.73","type":"PAR","status":"1","hoto":"1"},{"lat":"13.0435","lng":"77.5655","name":"BGLRRJMLPAR001","address":"Sap : I-KA-BGLR-ENB-0060<br\/>Loopback : 172.16.67.97<br\/>Up-Time : 69 days, 3:35:39.58","type":"PAR","status":"1","hoto":"1"},{"lat":"13.0438","lng":"77.5769","name":"BGLRRMVDPAR001","address":"Sap : I-KA-BGLR-ENB-0068<br\/>Loopback : 172.16.66.100<br\/>Up-Time : 69 days, 3:35:20.82","type":"PAR","status":"1","hoto":"1"},{"lat":"12.9575","lng":"77.5546","name":"BGLRVLMKPAR001","address":"Sap : I-KA-BGLR-ENB-0078<br\/>Loopback : 172.16.67.126<br\/>Up-Time : 7 days, 15:39:53.38","type":"PAR","status":"1","hoto":"1"},{"lat":"12.9307","lng":"77.5538","name":"BGLRBNSDPAR001","address":"Sap : I-KA-BGLR-ENB-0099<br\/>Loopback : 172.16.67.123<br\/>Up-Time : 70 days, 7:15:32.65","type":"PAR","status":"1","hoto":"1"},{"lat":"12.9621","lng":"77.5912","name":"BGLRRJRMPAR001","address":"Sap : I-KA-BGLR-ENB-0102<br\/>Loopback : 172.16.67.83<br\/>Up-Time : 43 days, 12:49:28.88","type":"PAR","status":"1","hoto":"1"},{"lat":"12.9299","lng":"77.608","name":"BGLRBOVNPAR001","address":"Sap : I-KA-BGLR-ENB-0134<br\/>Loopback : 172.16.66.23<br\/>Up-Time : 13 days, 8:39:32.17","type":"PAR","status":"1","hoto":"1"},{"lat":"12.9046","lng":"77.6249","name":"BGLRRUPNPAR001","address":"Sap : I-KA-BGLR-ENB-0145<br\/>Loopback : 172.16.67.134<br\/>Up-Time : 69 days, 3:34:45.31","type":"PAR","status":"1","hoto":"1"},{"lat":"12.9894","lng":"77.5056","name":"BGLRBHRWPAR001","address":"Sap : I-KA-BGLR-ENB-0155<br\/>Loopback : 172.16.66.7<br\/>Up-Time : 69 days, 5:07:43.84","type":"PAR","status":"1","hoto":"1"},{"lat":"12.9419","lng":"77.6","name":"BGLRGPTAPAR001","address":"Sap : I-KA-BGLR-ENB-0156<br\/>Loopback : 172.16.67.100<br\/>Up-Time : 36 days, 14:56:25.05","type":"PAR","status":"1","hoto":"1"},{"lat":"12.9534","lng":"77.6152","name":"BGLRNLSNPAR001","address":"Sap : I-KA-BGLR-ENB-0168<br\/>Loopback : 172.16.66.39<br\/>Up-Time : 70 days, 6:15:05.09","type":"PAR","status":"1","hoto":"1"},{"lat":"12.939","lng":"77.6321","name":"BGLREJPRPAR001","address":"Sap : I-KA-BGLR-ENB-0191<br\/>Loopback : 172.16.66.38<br\/>Up-Time : 70 days, 6:43:33.49","type":"PAR","status":"1","hoto":"1"},{"lat":"13.0465","lng":"77.5178","name":"BGLRPRSNPAR001","address":"Sap : I-KA-BGLR-ENB-0193<br\/>Loopback : 172.16.67.69<br\/>Up-Time : 28 days, 7:45:44.10","type":"PAR","status":"1","hoto":"1"},{"lat":"12.9282","lng":"77.5561","name":"BGLRITITPAR001","address":"Sap : I-KA-BGLR-ENB-0210<br\/>Loopback : 172.16.66.128<br\/>Up-Time : 45 days, 12:57:01.78","type":"PAR","status":"1","hoto":"1"},{"lat":"12.9818","lng":"77.6251","name":"BGLRHYSLPAR001","address":"Sap : I-KA-BGLR-ENB-0215<br\/>Loopback : 172.16.66.36<br\/>Up-Time : ","type":"PAR","status":"1","hoto":"1"},{"lat":"12.9726","lng":"77.6492","name":"BGLRTPSNPAR001","address":"Sap : I-KA-BGLR-ENB-0241<br\/>Loopback : 172.16.67.53<br\/>Up-Time : 5 days, 14:06:37.98","type":"PAR","status":"1","hoto":"1"},{"lat":"12.9348","lng":"77.5619","name":"BGLRASHOPAR001","address":"Sap : I-KA-BGLR-ENB-0243<br\/>Loopback : 172.16.66.102<br\/>Up-Time : 12 days, 11:57:00.87","type":"PAR","status":"1","hoto":"1"},{"lat":"12.9747","lng":"77.6518","name":"BGLRBHMRPAR001","address":"Sap : I-KA-BGLR-ENB-0245<br\/>Loopback : 172.16.67.73<br\/>Up-Time : 44 days, 16:39:35.63","type":"PAR","status":"1","hoto":"1"},{"lat":"13.0835","lng":"77.5606","name":"BGLRVDYFPAR001","address":"Sap : I-KA-BGLR-ENB-0254<br\/>Loopback : 172.16.67.128<br\/>Up-Time : 8 days, 9:35:37.88","type":"PAR","status":"1","hoto":"1"},{"lat":"12.9655","lng":"77.6582","name":"BGLRANDMPAR001","address":"Sap : I-KA-BGLR-ENB-0258<br\/>Loopback : 172.16.66.145<br\/>Up-Time : 42 days, 17:25:34.25","type":"PAR","status":"1","hoto":"1"},{"lat":"13.0274","lng":"77.5861","name":"BGLRVSVNPAR001","address":"Sap : I-KA-BGLR-ENB-0262<br\/>Loopback : 172.16.66.87<br\/>Up-Time : 58 days, 14:49:02.01","type":"PAR","status":"1","hoto":"1"},{"lat":"13.016","lng":"77.6054","name":"BGLRDDNNPAR001","address":"Sap : I-KA-BGLR-ENB-0302<br\/>Loopback : 172.16.66.88<br\/>Up-Time : 20 days, 14:37:15.81","type":"PAR","status":"1","hoto":"1"},{"lat":"13.0165","lng":"77.6088","name":"BGLRMSWRPAR001","address":"Sap : I-KA-BGLR-ENB-0306<br\/>Loopback : 172.16.66.89<br\/>Up-Time : ","type":"PAR","status":"1","hoto":"1"},{"lat":"13.0098","lng":"77.6186","name":"BGLRPLNNPAR001","address":"Sap : I-KA-BGLR-ENB-0323<br\/>Loopback : 172.16.66.34<br\/>Up-Time : 4 days, 18:09:31.13","type":"PAR","status":"1","hoto":"1"},{"lat":"13.0391","lng":"77.6219","name":"BGLRGVNDPAR001","address":"Sap : I-KA-BGLR-ENB-0336<br\/>Loopback : 172.16.66.90<br\/>Up-Time : 4 days, 11:43:48.54","type":"PAR","status":"1","hoto":"1"},{"lat":"13.0083","lng":"77.4998","name":"BGLRMRTRPAR001","address":"Sap : I-KA-BGLR-ENB-0379<br\/>Loopback : 172.16.66.8<br\/>Up-Time : 1 day, 6:40:59.28","type":"PAR","status":"1","hoto":"1"},{"lat":"13.0103","lng":"77.6371","name":"BGLRRMSLPAR002","address":"Sap : I-KA-BGLR-ENB-0384<br\/>Loopback : 172.16.67.74<br\/>Up-Time : 70 days, 6:04:05.47","type":"PAR","status":"1","hoto":"1"},{"lat":"12.9825","lng":"77.5657","name":"BGLROKLYPAR001","address":"Sap : I-KA-BGLR-ENB-0401<br\/>Loopback : 172.16.67.70<br\/>Up-Time : 69 days, 4:11:21.62","type":"PAR","status":"1","hoto":"1"},{"lat":"12.949","lng":"77.5934","name":"BGLRWLSNPAR001","address":"Sap : I-KA-BGLR-ENB-0453<br\/>Loopback : 172.16.66.125<br\/>Up-Time : 70 days, 5:32:34.25","type":"PAR","status":"1","hoto":"1"},{"lat":"12.8928","lng":"77.5715","name":"BGLRKNNTPAR001","address":"Sap : I-KA-BGLR-ENB-0459<br\/>Loopback : 172.16.66.74<br\/>Up-Time : 2 days, 15:15:23.21","type":"PAR","status":"1","hoto":"1"},{"lat":"12.9619","lng":"77.6425","name":"BGLRHALBPAR002","address":"Sap : I-KA-BGLR-ENB-0472<br\/>Loopback : 172.16.67.50<br\/>Up-Time : 70 days, 6:43:06.84","type":"PAR","status":"1","hoto":"1"},{"lat":"12.9898","lng":"77.5562","name":"BGLRRJJDPAR001","address":"Sap : I-KA-BGLR-ENB-0475<br\/>Loopback : 172.16.66.118<br\/>Up-Time : 23 days, 5:33:41.88","type":"PAR","status":"1","hoto":"1"},{"lat":"13.0076","lng":"77.5927","name":"BGLRJCNRPAR001","address":"Sap : I-KA-BGLR-ENB-0478<br\/>Loopback : 172.16.67.108<br\/>Up-Time : 5 days, 13:42:56.50","type":"PAR","status":"1","hoto":"1"},{"lat":"13.0071","lng":"77.6204","name":"BGLRBGLNPAR001","address":"Sap : I-KA-BGLR-ENB-0483<br\/>Loopback : 172.16.67.107<br\/>Up-Time : 67 days, 22:31:53.29","type":"PAR","status":"1","hoto":"1"},{"lat":"12.9697","lng":"77.6327","name":"BGLRSMSVPAR001","address":"Sap : I-KA-BGLR-ENB-0550<br\/>Loopback : 172.16.67.103<br\/>Up-Time : 33 days, 6:16:45.16","type":"PAR","status":"1","hoto":"1"},{"lat":"12.9591","lng":"77.598","name":"BGLRLKSHPAR001","address":"Sap : I-KA-BGLR-ENB-0561<br\/>Loopback : 172.16.66.59<br\/>Up-Time : 12 days, 14:15:29.03","type":"PAR","status":"1","hoto":"1"},{"lat":"12.9814","lng":"77.558","name":"BGLRSSIAPAR001","address":"Sap : I-KA-BGLR-ENB-0566<br\/>Loopback : 172.16.67.167<br\/>Up-Time : 34 days, 17:12:08.93","type":"PAR","status":"1","hoto":"1"},{"lat":"12.8986","lng":"77.6329","name":"BGLRHGSRPAR001","address":"Sap : I-KA-BGLR-ENB-0596<br\/>Loopback : 172.16.66.29<br\/>Up-Time : ","type":"PAR","status":"1","hoto":"1"},{"lat":"12.9304","lng":"77.6339","name":"BGLRSHNIPAR001","address":"Sap : I-KA-BGLR-ENB-0621<br\/>Loopback : 172.16.66.41<br\/>Up-Time : 30 days, 15:06:55.69","type":"PAR","status":"1","hoto":"1"},{"lat":"12.9331","lng":"77.623","name":"BGLRJOHNPAR001","address":"Sap : I-KA-BGLR-ENB-0627<br\/>Loopback : 172.16.67.129<br\/>Up-Time : 70 days, 4:03:57.35","type":"PAR","status":"1","hoto":"1"},{"lat":"12.983","lng":"77.5628","name":"BGLRRJINPAR001","address":"Sap : I-KA-BGLR-ENB-0638<br\/>Loopback : 172.16.66.140<br\/>Up-Time : 68 days, 2:52:18.13","type":"PAR","status":"1","hoto":"1"},{"lat":"12.9884","lng":"77.5654","name":"BGLRSAIBPAR001","address":"Sap : I-KA-BGLR-ENB-0646<br\/>Loopback : 172.16.66.120<br\/>Up-Time : 42 days, 16:08:52.74","type":"PAR","status":"1","hoto":"1"},{"lat":"13.085","lng":"77.546","name":"BGLRBARTPAR001","address":"Sap : I-KA-BGLR-ENB-0667<br\/>Loopback : 172.16.66.66<br\/>Up-Time : 69 days, 5:08:04.66","type":"PAR","status":"1","hoto":"1"},{"lat":"13.0531","lng":"77.644","name":"BGLRNRYRPAR001","address":"Sap : I-KA-BGLR-ENB-0677<br\/>Loopback : 172.16.66.241<br\/>Up-Time : 39 days, 15:49:24.53","type":"PAR","status":"1","hoto":"1"},{"lat":"13.0971","lng":"77.5967","name":"BGLRGNNGPAR001","address":"Sap : I-KA-BGLR-ENB-0694<br\/>Loopback : 172.16.66.161<br\/>Up-Time : 6 days, 4:21:52.83","type":"PAR","status":"1","hoto":"1"},{"lat":"13.0391","lng":"77.6454","name":"BGLRBNJRPAR001","address":"Sap : I-KA-BGLR-ENB-0703<br\/>Loopback : 172.16.66.45<br\/>Up-Time : 4 days, 14:52:38.08","type":"PAR","status":"1","hoto":"1"},{"lat":"13.0021","lng":"77.5267","name":"BGLRKMGDPAR001","address":"Sap : I-KA-BGLR-ENB-0709<br\/>Loopback : 172.16.67.61<br\/>Up-Time : 70 days, 6:36:27.47","type":"PAR","status":"1","hoto":"1"},{"lat":"13.0218","lng":"77.5203","name":"BGLRMEICPAR001","address":"Sap : I-KA-BGLR-ENB-0730<br\/>Loopback : 172.16.66.114<br\/>Up-Time : 61 days, 8:16:38.03","type":"PAR","status":"1","hoto":"1"},{"lat":"12.9401","lng":"77.5243","name":"BGLRPNRLPAR001","address":"Sap : I-KA-BGLR-ENB-0795<br\/>Loopback : 172.16.67.47<br\/>Up-Time : 69 days, 3:35:04.81","type":"PAR","status":"1","hoto":"1"},{"lat":"12.9242","lng":"77.5545","name":"BGLRBANSPAR001","address":"Sap : I-KA-BGLR-ENB-0809<br\/>Loopback : 172.16.66.255<br\/>Up-Time : 62 days, 17:52:05.77","type":"PAR","status":"1","hoto":"1"},{"lat":"12.924","lng":"77.5487","name":"BGLRITMDPAR001","address":"Sap : I-KA-BGLR-ENB-0811<br\/>Loopback : 172.16.67.46<br\/>Up-Time : 23 days, 10:40:20.13","type":"PAR","status":"1","hoto":"1"},{"lat":"12.9311","lng":"77.5748","name":"BGLRTYGJPAR001","address":"Sap : I-KA-BGLR-ENB-0815<br\/>Loopback : 172.16.66.127<br\/>Up-Time : 7 days, 11:02:33.22","type":"PAR","status":"1","hoto":"1"},{"lat":"12.9155","lng":"77.5477","name":"BGLRHNGRPAR001","address":"Sap : I-KA-BGLR-ENB-0825<br\/>Loopback : 172.16.67.80<br\/>Up-Time : 16 days, 6:36:26.89","type":"PAR","status":"1","hoto":"1"},{"lat":"12.9791","lng":"77.5758","name":"BGLRGNDIPAR001","address":"Sap : I-KA-BGLR-ENB-0856<br\/>Loopback : 172.16.66.138<br\/>Up-Time : 47 days, 17:30:44.22","type":"PAR","status":"1","hoto":"1"},{"lat":"12.9613","lng":"77.5688","name":"BGLRNWTHPAR002","address":"Sap : I-KA-BGLR-ENB-0869<br\/>Loopback : 172.16.67.148<br\/>Up-Time : 18 days, 18:24:57.83","type":"PAR","status":"1","hoto":"1"},{"lat":"12.9116","lng":"77.6005","name":"BGLRVYSYPAR001","address":"Sap : I-KA-BGLR-ENB-0893<br\/>Loopback : 172.16.67.79<br\/>Up-Time : 62 days, 14:23:15.04","type":"PAR","status":"1","hoto":"1"},{"lat":"12.8871","lng":"77.6003","name":"BGLRARKRPAR001","address":"Sap : I-KA-BGLR-ENB-0905<br\/>Loopback : 172.16.66.13<br\/>Up-Time : 40 days, 18:54:47.25","type":"PAR","status":"1","hoto":"1"},{"lat":"12.8832","lng":"77.5937","name":"BGLRJPNPPAR001","address":"Sap : I-KA-BGLR-ENB-0906<br\/>Loopback : 172.16.66.129<br\/>Up-Time : 65 days, 12:51:33.18","type":"PAR","status":"1","hoto":"1"},{"lat":"13.0435","lng":"77.5931","name":"BGLRCNJVPAR002","address":"Sap : I-KA-BGLR-ENB-0942<br\/>Loopback : 172.16.66.92<br\/>Up-Time : 56 days, 13:53:49.98","type":"PAR","status":"1","hoto":"1"},{"lat":"12.9076","lng":"77.5707","name":"BGLRILYSPAR001","address":"Sap : I-KA-BGLR-ENB-0947<br\/>Loopback : 172.16.66.124<br\/>Up-Time : 28 days, 15:36:05.58","type":"PAR","status":"1","hoto":"1"},{"lat":"13.0385","lng":"77.6259","name":"BGLRHRBEPAR001","address":"Sap : I-KA-BGLR-ENB-0962<br\/>Loopback : 172.16.67.42<br\/>Up-Time : 8 days, 12:28:57.04","type":"PAR","status":"1","hoto":"1"},{"lat":"12.8773","lng":"77.6015","name":"BGLRHLMVPAR001","address":"Sap : I-KA-BGLR-ENB-0963<br\/>Loopback : 172.16.66.194<br\/>Up-Time : 68 days, 2:52:03.38","type":"PAR","status":"1","hoto":"1"},{"lat":"13.0304","lng":"77.6532","name":"BGLRHNRUPAR002","address":"Sap : I-KA-BGLR-ENB-0973<br\/>Loopback : 172.16.66.43<br\/>Up-Time : 66 days, 9:44:14.23","type":"PAR","status":"1","hoto":"1"},{"lat":"13.0064","lng":"77.6513","name":"BGLROMBRPAR001","address":"Sap : I-KA-BGLR-ENB-0977<br\/>Loopback : 172.16.66.46<br\/>Up-Time : 18 days, 13:30:16.73","type":"PAR","status":"1","hoto":"1"},{"lat":"13.009","lng":"77.6559","name":"BGLRBNSVPAR001","address":"Sap : I-KA-BGLR-ENB-0982<br\/>Loopback : 172.16.66.47<br\/>Up-Time : 40 days, 19:07:42.18","type":"PAR","status":"1","hoto":"1"},{"lat":"12.8982","lng":"77.5748","name":"BGLRJRGNPAR001","address":"Sap : I-KA-BGLR-ENB-0991<br\/>Loopback : 172.16.66.73<br\/>Up-Time : 61 days, 9:18:46.57","type":"PAR","status":"1","hoto":"1"},{"lat":"12.9814","lng":"77.5265","name":"BGLRINDBPAR001","address":"Sap : I-KA-BGLR-ENB-0992<br\/>Loopback : 172.16.66.52<br\/>Up-Time : 68 days, 2:56:08.28","type":"PAR","status":"1","hoto":"1"},{"lat":"12.9972","lng":"77.675","name":"BGLRMTTPPAR001","address":"Sap : I-KA-BGLR-ENB-0998<br\/>Loopback : 172.16.66.44<br\/>Up-Time : 23 days, 16:25:27.29","type":"PAR","status":"1","hoto":"1"},{"lat":"13.0221","lng":"77.6881","name":"BGLRKRSNPAR001","address":"Sap : I-KA-BGLR-ENB-1014<br\/>Loopback : 172.16.66.164<br\/>Up-Time : 58 days, 14:39:56.81","type":"PAR","status":"1","hoto":"1"},{"lat":"12.9947","lng":"77.6786","name":"BGLRDFNAPAR001","address":"Sap : I-KA-BGLR-ENB-1015<br\/>Loopback : 172.16.67.72<br\/>Up-Time : 20 days, 17:27:48.58","type":"PAR","status":"1","hoto":"1"},{"lat":"12.9888","lng":"77.6815","name":"BGLRMHDVPAR001","address":"Sap : I-KA-BGLR-ENB-1019<br\/>Loopback : 172.16.67.51<br\/>Up-Time : 5 days, 14:55:33.34","type":"PAR","status":"1","hoto":"1"},{"lat":"12.9813","lng":"77.6833","name":"BGLRDNKDPAR001","address":"Sap : I-KA-BGLR-ENB-1046<br\/>Loopback : 172.16.67.52<br\/>Up-Time : 48 days, 15:57:56.34","type":"PAR","status":"1","hoto":"1"},{"lat":"12.9629","lng":"77.6697","name":"BGLRISLMPAR001","address":"Sap : I-KA-BGLR-ENB-1049<br\/>Loopback : 172.16.66.144<br\/>Up-Time : 19 days, 13:12:32.73","type":"PAR","status":"1","hoto":"1"},{"lat":"13.0078","lng":"77.7082","name":"BGLRGJNTPAR001","address":"Sap : I-KA-BGLR-ENB-1064<br\/>Loopback : 172.16.66.157<br\/>Up-Time : 13 days, 4:14:10.28","type":"PAR","status":"1","hoto":"1"},{"lat":"12.9563","lng":"77.6957","name":"BGLRMRTLPAR001","address":"Sap : I-KA-BGLR-ENB-1067<br\/>Loopback : 172.16.66.167<br\/>Up-Time : 25 days, 8:09:11.16","type":"PAR","status":"1","hoto":"1"},{"lat":"12.9781","lng":"77.7342","name":"BGLRDSWTPAR001","address":"Sap : I-KA-BGLR-ENB-1087<br\/>Loopback : 172.16.67.166<br\/> ","type":"PAR","status":"0","hoto":"1"},{"lat":"12.9554","lng":"77.72","name":"BGLRTBRHPAR001","address":"Sap : I-KA-BGLR-ENB-1095<br\/>Loopback : 172.16.66.151<br\/>Up-Time : 41 days, 10:26:19.50","type":"PAR","status":"1","hoto":"1"},{"lat":"12.983","lng":"77.7508","name":"BGLRUPKWPAR005","address":"Sap : I-KA-BGLR-ENB-1108<br\/>Loopback : 172.16.66.154<br\/>Up-Time : 30 days, 23:58:05.51","type":"PAR","status":"1","hoto":"1"},{"lat":"13.0344","lng":"77.6749","name":"BGLRAGARPAR001","address":"Sap : I-KA-BGLR-ENB-1109<br\/>Loopback : 172.16.67.101<br\/>Up-Time : 10 days, 10:09:44.49","type":"PAR","status":"1","hoto":"1"},{"lat":"13.0499","lng":"77.6004","name":"BGLRVNYKPAR001","address":"Sap : I-KA-BGLR-ENB-1114<br\/>Loopback : 172.16.66.86<br\/>Up-Time : 58 days, 0:08:46.24","type":"PAR","status":"1","hoto":"1"},{"lat":"12.9835","lng":"77.5133","name":"BGLRSJPLPAR001","address":"Sap : I-KA-BGLR-ENB-1150<br\/>Loopback : 172.16.66.108<br\/>Up-Time : 70 days, 5:55:36.43","type":"PAR","status":"1","hoto":"1"},{"lat":"12.9757","lng":"77.5136","name":"BGLRNBVBPAR001","address":"Sap : I-KA-BGLR-ENB-1151<br\/>Loopback : 172.16.66.6<br\/>Up-Time : 69 days, 4:10:45.21","type":"PAR","status":"1","hoto":"1"},{"lat":"12.9599","lng":"77.5135","name":"BGLRTCHCPAR001","address":"Sap : I-KA-BGLR-ENB-1158<br\/>Loopback : 172.16.66.5<br\/>Up-Time : 40 days, 17:13:58.17","type":"PAR","status":"1","hoto":"1"},{"lat":"12.9479","lng":"77.5244","name":"BGLRASIEPAR001","address":"Sap : I-KA-BGLR-ENB-1213<br\/>Loopback : 172.16.66.104<br\/>Up-Time : 45 days, 10:18:18.95","type":"PAR","status":"1","hoto":"1"},{"lat":"12.8772","lng":"77.569","name":"BGLRRGNPPAR001","address":"Sap : I-KA-BGLR-ENB-1215<br\/>Loopback : 172.16.66.71<br\/>Up-Time : 14:51:58.86","type":"PAR","status":"1","hoto":"1"},{"lat":"12.8773","lng":"77.5801","name":"BGLRKTHNPAR001","address":"Sap : I-KA-BGLR-ENB-1216<br\/>Loopback : 172.16.66.130<br\/>Up-Time : 62 days, 7:31:05.60","type":"PAR","status":"1","hoto":"1"},{"lat":"12.8719","lng":"77.5858","name":"BGLRKTNRPAR003","address":"Sap : I-KA-BGLR-ENB-1220<br\/>Loopback : 172.16.67.85<br\/>Up-Time : 10:44:05.17","type":"PAR","status":"1","hoto":"1"},{"lat":"12.9039","lng":"77.5441","name":"BGLRUTRLPAR001","address":"Sap : I-KA-BGLR-ENB-1228<br\/>Loopback : 172.16.66.76<br\/>Up-Time : 70 days, 5:55:11.37","type":"PAR","status":"1","hoto":"1"},{"lat":"12.8794","lng":"77.5947","name":"BGLRAMLTPAR001","address":"Sap : I-KA-BGLR-ENB-1231<br\/>Loopback : 172.16.66.131<br\/>Up-Time : 69 days, 5:08:05.58","type":"PAR","status":"1","hoto":"1"},{"lat":"12.8594","lng":"77.5878","name":"BGLRKTNRPAR001","address":"Sap : I-KA-BGLR-ENB-1233<br\/>Loopback : 172.16.66.16<br\/>Up-Time : 15:11:54.63","type":"PAR","status":"1","hoto":"1"},{"lat":"12.8627","lng":"77.6485","name":"BGLRBEGRPAR001","address":"Sap : I-KA-BGLR-ENB-1244<br\/>Loopback : 172.16.66.25<br\/>Up-Time : 13 days, 8:58:47.94","type":"PAR","status":"1","hoto":"1"},{"lat":"12.8726","lng":"77.6676","name":"BGLRDTRLPAR001","address":"Sap : I-KA-BGLR-ENB-1245<br\/>Loopback : 172.16.66.79<br\/>Up-Time : 6 days, 14:10:24.97","type":"PAR","status":"1","hoto":"1"},{"lat":"12.8763","lng":"77.6713","name":"BGLRSRLTESR001","address":"Sap : I-KA-BGLR-ENB-1248<br\/>Loopback : 172.23.131.147<br\/>Up-Time : ","type":"ESR","status":"1","hoto":"1"},{"lat":"12.8252","lng":"77.6746","name":"BGLRALTKPAR003","address":"Sap : I-KA-BGLR-ENB-1261<br\/>Loopback : 172.16.66.195<br\/>Up-Time : 69 days, 5:06:05.48","type":"PAR","status":"1","hoto":"1"},{"lat":"12.8528","lng":"77.6643","name":"BGLRALTKPAR002","address":"Sap : I-KA-BGLR-ENB-1273<br\/>Loopback : 172.16.66.19<br\/>Up-Time : 3 days, 20:51:06.07","type":"PAR","status":"1","hoto":"1"},{"lat":"12.9335","lng":"77.7007","name":"BGLRCRMLPAR001","address":"Sap : I-KA-BGLR-ENB-1285<br\/>Loopback : 172.16.66.141<br\/>Up-Time : 66 days, 1:44:02.63","type":"PAR","status":"1","hoto":"1"},{"lat":"12.9037","lng":"77.6783","name":"BGLRJNSRPAR001","address":"Sap : I-KA-BGLR-ENB-1298<br\/>Loopback : 172.16.66.142<br\/>Up-Time : 69 days, 4:12:17.22","type":"PAR","status":"1","hoto":"1"},{"lat":"13.008","lng":"77.506","name":"BGLRDDDNPAR001","address":"Sap : I-KA-BGLR-ENB-1303<br\/>Loopback : 172.16.66.9<br\/>Up-Time : 70 days, 7:18:23.15","type":"PAR","status":"1","hoto":"1"},{"lat":"12.9688","lng":"77.736","name":"BGLRKODAPAR001","address":"Sap : I-KA-BGLR-ENB-1308<br\/>Loopback : 172.16.67.124<br\/>Up-Time : 34 days, 11:04:12.10","type":"PAR","status":"1","hoto":"1"},{"lat":"13.0051","lng":"77.7572","name":"BGLRBRDNPAR001","address":"Sap : I-KA-BGLR-ENB-1317<br\/>Loopback : 172.16.66.152<br\/>Up-Time : 51 days, 20:03:24.85","type":"PAR","status":"1","hoto":"1"},{"lat":"12.9947","lng":"77.697","name":"BGLRMHWRPAR001","address":"Sap : I-KA-BGLR-ENB-1321<br\/>Loopback : 172.16.67.71<br\/>Up-Time : 69 days, 4:11:21.39","type":"PAR","status":"1","hoto":"1"},{"lat":"12.9857","lng":"77.7186","name":"BGLRSTRMPAR002","address":"Sap : I-KA-BGLR-ENB-1327<br\/>Loopback : 172.16.67.102<br\/>Up-Time : 27 days, 16:32:16.78","type":"PAR","status":"1","hoto":"1"},{"lat":"13.0032","lng":"77.7133","name":"BGLRIYPPPAR001","address":"Sap : I-KA-BGLR-ENB-1328<br\/>Loopback : 172.16.66.162<br\/>Up-Time : ","type":"PAR","status":"1","hoto":"1"},{"lat":"13.0697","lng":"77.7936","name":"HSKTHSKTESR002","address":"Sap : I-KA-BGLR-ENB-1339<br\/>Loopback : 172.23.131.252<br\/> ","type":"ESR","status":"0","hoto":"1"},{"lat":"13.0701","lng":"77.7822","name":"HSKTHSKTESR018","address":"Sap : I-KA-BGLR-ENB-1340<br\/>Loopback : 172.23.139.35<br\/>Up-Time : 26 days, 14:16:13.09","type":"ESR","status":"1","hoto":"1"},{"lat":"12.9856","lng":"77.5234","name":"BGLRVYKNPAR001","address":"Sap : I-KA-BGLR-ENB-1363<br\/>Loopback : 172.16.66.113<br\/>Up-Time : 34 days, 8:57:35.38","type":"PAR","status":"1","hoto":"1"},{"lat":"13.0171","lng":"77.5177","name":"BGLRAMBDPAR001","address":"Sap : I-KA-BGLR-ENB-1365<br\/>Loopback : 172.16.66.94<br\/>Up-Time : 38 days, 13:22:43.10","type":"PAR","status":"1","hoto":"1"},{"lat":"13.0475","lng":"77.5937","name":"BGLRCNJVPAR001","address":"Sap : I-KA-BGLR-ENB-1366<br\/>Loopback : 172.16.66.85<br\/>Up-Time : 22 days, 16:43:31.45","type":"PAR","status":"1","hoto":"1"},{"lat":"13.1646","lng":"77.6314","name":"BGLRCHJLPAR001","address":"Sap : I-KA-BGLR-ENB-1370<br\/>Loopback : 172.16.66.160<br\/>Up-Time : 7 days, 10:18:24.65","type":"PAR","status":"1","hoto":"1"},{"lat":"13.1818","lng":"77.6407","name":"BGLRDDJLPAR001","address":"Sap : I-KA-BGLR-ENB-1371<br\/>Loopback : 172.16.66.159<br\/>Up-Time : 21 days, 20:25:52.29","type":"PAR","status":"1","hoto":"1"},{"lat":"13.022","lng":"77.5595","name":"BGLRSBDPPAR001","address":"Sap : I-KA-BGLR-ENB-1413<br\/>Loopback : 172.16.66.96<br\/>Up-Time : 4 days, 12:38:54.07","type":"PAR","status":"1","hoto":"1"},{"lat":"13.0204","lng":"77.5625","name":"BGLRRMBVPAR001","address":"Sap : I-KA-BGLR-ENB-1418<br\/>Loopback : 172.16.66.99<br\/>Up-Time : 70 days, 6:04:19.76","type":"PAR","status":"1","hoto":"1"},{"lat":"12.966","lng":"77.584","name":"BGLRGNGTPAR001","address":"Sap : I-KA-BGLR-ENB-1448<br\/>Loopback : 172.16.67.82<br\/>Up-Time : 70 days, 6:42:50.05","type":"PAR","status":"1","hoto":"1"},{"lat":"12.8498","lng":"77.5959","name":"BGLRBGLRPAR002","address":"Sap : I-KA-BGLR-ENB-1463<br\/>Loopback : 172.16.67.57<br\/>Up-Time : 13 days, 4:49:07.21","type":"PAR","status":"1","hoto":"1"},{"lat":"12.9271","lng":"77.5955","name":"BGLRJAYKPAR001","address":"Sap : I-KA-BGLR-ENB-1481<br\/>Loopback : 172.16.66.243<br\/>Up-Time : 63 days, 16:39:56.80","type":"PAR","status":"1","hoto":"1"},{"lat":"12.9274","lng":"77.6692","name":"BGLRBLDRPAR001","address":"Sap : I-KA-BGLR-ENB-1487<br\/>Loopback : 172.16.67.90<br\/>Up-Time : 43 days, 9:06:26.99","type":"PAR","status":"1","hoto":"1"},{"lat":"12.9342","lng":"77.6094","name":"BGLRVNKRPAR001","address":"Sap : I-KA-BGLR-ENB-1494<br\/>Loopback : 172.16.66.27<br\/>Up-Time : 70 days, 5:32:27.80","type":"PAR","status":"1","hoto":"1"},{"lat":"12.9118","lng":"77.6767","name":"BGLRADRPPAR001","address":"Sap : I-KA-BGLR-ENB-1496<br\/>Loopback : 172.16.66.78<br\/>Up-Time : 19 days, 8:53:14.80","type":"PAR","status":"1","hoto":"1"},{"lat":"12.9595","lng":"77.6499","name":"BGLRNRLAPAR001","address":"Sap : I-KA-BGLR-ENB-1497<br\/>Loopback : 172.16.67.56<br\/>Up-Time : 69 days, 4:11:58.74","type":"PAR","status":"1","hoto":"1"},{"lat":"12.9563","lng":"77.7457","name":"BGLRKNKYPAR001","address":"Sap : I-KA-BGLR-ENB-1499<br\/>Loopback : 172.16.66.200<br\/>Up-Time : 18 days, 16:14:26.14","type":"PAR","status":"1","hoto":"1"},{"lat":"12.9936","lng":"77.5648","name":"BGLRSRMMPAR001","address":"Sap : I-KA-BGLR-ENB-1595<br\/>Loopback : 172.16.67.131<br\/>Up-Time : 18 days, 11:59:22.47","type":"PAR","status":"1","hoto":"1"},{"lat":"12.9838","lng":"77.6128","name":"BGLRSSCTPAR001","address":"Sap : I-KA-BGLR-ENB-6026<br\/>Loopback : 172.16.66.208<br\/>Up-Time : 4 days, 10:48:25.83","type":"PAR","status":"1","hoto":"1"},{"lat":"12.9879","lng":"77.6192","name":"BGLRSVNCPAR001","address":"Sap : I-KA-BGLR-ENB-6027<br\/>Loopback : 172.16.67.115<br\/>Up-Time : 45 days, 14:20:29.47","type":"PAR","status":"1","hoto":"1"},{"lat":"13.0506","lng":"77.5975","name":"BGLRHBLKPAR001","address":"Sap : I-KA-BGLR-ENB-6035<br\/>Loopback : 172.16.67.81<br\/>Up-Time : 37 days, 7:40:53.76","type":"PAR","status":"1","hoto":"1"},{"lat":"13.0459","lng":"77.547","name":"BGLRJLHLPAR001","address":"Sap : I-KA-BGLR-ENB-6042<br\/>Loopback : 172.16.66.222<br\/>Up-Time : 69 days, 4:47:57.20","type":"PAR","status":"1","hoto":"1"},{"lat":"13.0419","lng":"77.581","name":"BGLRRSDCPAR001","address":"Sap : I-KA-BGLR-ENB-6058<br\/>Loopback : 172.16.66.30<br\/>Up-Time : 42 days, 18:44:35.29","type":"PAR","status":"1","hoto":"1"},{"lat":"13.036","lng":"77.5133","name":"BGLRCKNDPAR001","address":"Sap : I-KA-BGLR-ENB-6073<br\/>Loopback : 172.16.67.62<br\/>Up-Time : 70 days, 7:19:11.17","type":"PAR","status":"1","hoto":"1"},{"lat":"13.0021","lng":"77.5533","name":"BGLRRJJBPAR001","address":"Sap : I-KA-BGLR-ENB-6093<br\/>Loopback : 172.16.66.248<br\/>Up-Time : 19 days, 16:01:31.09","type":"PAR","status":"1","hoto":"1"},{"lat":"12.9757","lng":"77.5361","name":"BGLRGVNRPAR001","address":"Sap : I-KA-BGLR-ENB-6095<br\/>Loopback : 172.16.67.113<br\/>Up-Time : 2 days, 11:51:45.67","type":"PAR","status":"1","hoto":"1"},{"lat":"12.9687","lng":"77.5424","name":"BGLRHSHLPAR001","address":"Sap : I-KA-BGLR-ENB-6098<br\/>Loopback : 172.16.67.48<br\/>Up-Time : 68 days, 20:01:03.28","type":"PAR","status":"1","hoto":"1"},{"lat":"12.98","lng":"77.5463","name":"BGLRRJJIPAR001","address":"Sap : I-KA-BGLR-ENB-6100<br\/>Loopback : 172.16.66.245<br\/>Up-Time : 35 days, 3:53:27.15","type":"PAR","status":"1","hoto":"1"},{"lat":"13.039","lng":"77.5974","name":"BGLRCLNYPAR001","address":"Sap : I-KA-BGLR-ENB-6107<br\/>Loopback : 172.16.66.247<br\/>Up-Time : 50 days, 14:56:52.00","type":"PAR","status":"1","hoto":"1"},{"lat":"13.021","lng":"77.532","name":"BGLRKNTRPAR001","address":"Sap : I-KA-BGLR-ENB-6118<br\/>Loopback : 172.16.66.197<br\/>Up-Time : 6 days, 14:08:00.77","type":"PAR","status":"1","hoto":"1"},{"lat":"12.9738","lng":"77.5438","name":"BGLRVJYAPAR001","address":"Sap : I-KA-BGLR-ENB-6141<br\/>Loopback : 172.16.67.41<br\/>Up-Time : 5 days, 15:26:59.99","type":"PAR","status":"1","hoto":"1"},{"lat":"12.9813","lng":"77.6007","name":"BGLRSVJIPAR001","address":"Sap : I-KA-BGLR-ENB-6178<br\/>Loopback : 172.16.67.64<br\/>Up-Time : 13 days, 16:01:52.46","type":"PAR","status":"1","hoto":"1"},{"lat":"13.0201","lng":"77.6367","name":"BGLRKCKLPAR001","address":"Sap : I-KA-BGLR-ENB-6183<br\/>Loopback : 172.16.67.95<br\/>Up-Time : 69 days, 4:11:41.64","type":"PAR","status":"1","hoto":"1"},{"lat":"12.9619","lng":"77.5955","name":"BGLRSHNTPAR001","address":"Sap : I-KA-BGLR-ENB-6193<br\/>Loopback : 172.16.67.99<br\/>Up-Time : 58 days, 0:05:55.12","type":"PAR","status":"1","hoto":"1"},{"lat":"12.9754","lng":"77.5632","name":"BGLRKSHYPAR001","address":"Sap : I-KA-BGLR-ENB-6231<br\/>Loopback : 172.16.67.125<br\/>Up-Time : 39 days, 10:53:11.97","type":"PAR","status":"1","hoto":"1"},{"lat":"12.9716","lng":"77.5975","name":"BGLRMCVRPAR001","address":"Sap : I-KA-BGLR-ENB-6244<br\/>Loopback : 172.16.67.98<br\/>Up-Time : 24 days, 14:17:43.42","type":"PAR","status":"1","hoto":"1"},{"lat":"13.0398","lng":"77.5531","name":"BGLRGOKLPAR001","address":"Sap : I-KA-BGLR-ENB-6248<br\/>Loopback : 172.16.66.252<br\/>Up-Time : 70 days, 6:43:20.76","type":"PAR","status":"1","hoto":"1"},{"lat":"12.9975","lng":"77.5837","name":"BGLRANYPPAR001","address":"Sap : I-KA-BGLR-ENB-6249<br\/>Loopback : 172.16.67.14<br\/>Up-Time : 41 days, 19:15:04.21","type":"PAR","status":"1","hoto":"1"},{"lat":"13.0322","lng":"77.6367","name":"BGLRVJYLPAR001","address":"Sap : I-KA-BGLR-ENB-6251<br\/>Loopback : 172.16.66.198<br\/>Up-Time : 2 days, 17:03:26.24","type":"PAR","status":"1","hoto":"1"},{"lat":"12.9757","lng":"77.6043","name":"BGLRMCVRPAR002","address":"Sap : I-KA-BGLR-ENB-6258<br\/>Loopback : 172.16.67.92<br\/>Up-Time : 11 days, 12:05:05.42","type":"PAR","status":"1","hoto":"1"},{"lat":"12.9962","lng":"77.5291","name":"BGLRSNKBPAR001","address":"Sap : I-KA-BGLR-ENB-6272<br\/>Loopback : 172.16.66.251<br\/>Up-Time : 69 days, 3:15:48.79","type":"PAR","status":"1","hoto":"1"},{"lat":"13.0063","lng":"77.6385","name":"BGLRRMSLPAR001","address":"Sap : I-KA-BGLR-ENB-6283<br\/>Loopback : 172.16.67.6<br\/>Up-Time : 70 days, 6:04:00.36","type":"PAR","status":"1","hoto":"1"},{"lat":"13.0978","lng":"77.5652","name":"BGLRBTHLPAR001","address":"Sap : I-KA-BGLR-ENB-6304<br\/>Loopback : 172.16.67.58<br\/>Up-Time : 70 days, 7:18:09.70","type":"PAR","status":"1","hoto":"1"},{"lat":"12.9752","lng":"77.6226","name":"BGLRULSOPAR001","address":"Sap : I-KA-BGLR-ENB-6318<br\/>Loopback : 172.16.67.63<br\/>Up-Time : 6 days, 15:56:34.72","type":"PAR","status":"1","hoto":"1"},{"lat":"12.9841","lng":"77.5798","name":"BGLRMDHVPAR001","address":"Sap : I-KA-BGLR-ENB-6322<br\/>Loopback : 172.16.67.65<br\/>Up-Time : 58 days, 0:04:29.50","type":"PAR","status":"1","hoto":"1"},{"lat":"13.0143","lng":"77.5834","name":"BGLRSDSVPAR001","address":"Sap : I-KA-BGLR-ENB-6343<br\/>Loopback : 172.16.66.37<br\/>Up-Time : 69 days, 3:34:28.71","type":"PAR","status":"1","hoto":"1"},{"lat":"12.9576","lng":"77.5718","name":"BGLRNWTHPAR001","address":"Sap : I-KA-BGLR-ENB-6364<br\/>Loopback : 172.16.66.139<br\/>Up-Time : 44 days, 15:19:52.92","type":"PAR","status":"1","hoto":"1"},{"lat":"12.9923","lng":"77.5943","name":"BGLRVSNTPAR001","address":"Sap : I-KA-BGLR-ENB-6369<br\/>Loopback : 172.16.66.207<br\/>Up-Time : 44 days, 5:53:11.61","type":"PAR","status":"1","hoto":"1"},{"lat":"12.8868","lng":"77.4522","name":"BGLRANPLESR001","address":"Sap : I-KA-BGLR-ENB-6392<br\/>Loopback : 172.23.140.231<br\/>Up-Time : 22 days, 7:05:01.71","type":"ESR","status":"1","hoto":"1"},{"lat":"12.917","lng":"77.6015","name":"BGLRBTMAPAR001","address":"Sap : I-KA-BGLR-ENB-6399<br\/>Loopback : 172.16.66.196<br\/>Up-Time : 14 days, 10:37:11.77","type":"PAR","status":"1","hoto":"1"},{"lat":"12.9307","lng":"77.6029","name":"BGLRBHVNPAR001","address":"Sap : I-KA-BGLR-ENB-6402<br\/>Loopback : 172.16.67.88<br\/>Up-Time : 14 days, 20:35:12.46","type":"PAR","status":"1","hoto":"1"},{"lat":"12.9165","lng":"77.6439","name":"BGLRAGRAPAR001","address":"Sap : I-KA-BGLR-ENB-6417<br\/>Loopback : 172.16.67.130<br\/>Up-Time : 26 days, 12:48:47.05","type":"PAR","status":"1","hoto":"1"},{"lat":"12.874","lng":"77.6414","name":"BGLRBEGRPAR002","address":"Sap : I-KA-BGLR-ENB-6421<br\/>Loopback : 172.16.67.43<br\/>Up-Time : 70 days, 6:38:15.87","type":"PAR","status":"1","hoto":"1"},{"lat":"12.9825","lng":"77.7325","name":"BGLRKIADPAR001","address":"Sap : I-KA-BGLR-ENB-6460<br\/>Loopback : 172.16.66.166<br\/>Up-Time : 27 days, 20:15:44.24","type":"PAR","status":"1","hoto":"1"},{"lat":"12.8946","lng":"77.4585","name":"BGLRCHLTPAR001","address":"Sap : I-KA-BGLR-ENB-6497<br\/>Loopback : 172.16.67.33<br\/>Up-Time : 13 days, 21:20:13.41","type":"PAR","status":"1","hoto":"1"},{"lat":"12.9129","lng":"77.5729","name":"BGLROMBGPAR001","address":"Sap : I-KA-BGLR-ENB-6499<br\/>Loopback : 172.16.66.244<br\/>Up-Time : 2 days, 19:51:23.02","type":"PAR","status":"1","hoto":"1"},{"lat":"12.8868","lng":"77.4524","name":"BGLRANPLESR002","address":"Sap : I-KA-BGLR-ENB-6516<br\/>Loopback : 172.23.138.134<br\/>Up-Time : 15 days, 21:58:48.77","type":"ESR","status":"1","hoto":"1"},{"lat":"12.9231","lng":"77.6182","name":"BGLRMDVLPAR001","address":"Sap : I-KA-BGLR-ENB-6540<br\/>Loopback : 172.16.67.59<br\/>Up-Time : 70 days, 6:16:10.28","type":"PAR","status":"1","hoto":"1"},{"lat":"12.8873","lng":"77.6396","name":"BGLRAMIAPAR001","address":"Sap : I-KA-BGLR-ENB-6549<br\/>Loopback : 172.16.67.60<br\/>Up-Time : 18 days, 13:59:27.61","type":"PAR","status":"1","hoto":"1"},{"lat":"12.9858","lng":"77.745","name":"BGLRUPKWPAR004","address":"Sap : I-KA-BGLR-ENB-6608<br\/>Loopback : 172.16.66.199<br\/>Up-Time : 52 days, 7:56:08.91","type":"PAR","status":"1","hoto":"1"},{"lat":"12.9165","lng":"77.6732","name":"BGLRSHBHPAR001","address":"Sap : I-KA-BGLR-ENB-6609<br\/>Loopback : 172.16.66.153<br\/>Up-Time : 25 days, 12:19:05.40","type":"PAR","status":"1","hoto":"1"},{"lat":"12.8658","lng":"77.5916","name":"BGLRKTNRPAR002","address":"Sap : I-KA-BGLR-ENB-6625<br\/>Loopback : 172.16.66.192<br\/>Up-Time : 6 days, 5:16:23.04","type":"PAR","status":"1","hoto":"1"},{"lat":"13.0339","lng":"77.6429","name":"BGLRVJYLPAR002","address":"Sap : I-KA-BGLR-ENB-6645<br\/>Loopback : 172.16.67.114<br\/>Up-Time : 70 days, 5:32:07.98","type":"PAR","status":"1","hoto":"1"},{"lat":"12.8912","lng":"77.5539","name":"BGLRSSIEPAR001","address":"Sap : I-KA-BGLR-ENB-6650<br\/>Loopback : 172.16.66.246<br\/>Up-Time : 13 days, 20:39:29.17","type":"PAR","status":"1","hoto":"1"},{"lat":"12.9296","lng":"77.543","name":"BGLRBNSBPAR001","address":"Sap : I-KA-BGLR-ENB-6653<br\/>Loopback : 172.16.67.133<br\/>Up-Time : 69 days, 5:07:33.32","type":"PAR","status":"1","hoto":"1"},{"lat":"12.9434","lng":"77.603","name":"BGLRPKRJPAR001","address":"Sap : I-KA-BGLR-ENB-6658<br\/>Loopback : 172.16.66.171<br\/>Up-Time : 14 days, 9:37:04.38","type":"PAR","status":"1","hoto":"1"},{"lat":"12.8392","lng":"77.6597","name":"BGLRALTKPAR001","address":"Sap : I-KA-BGLR-ENB-6679<br\/>Loopback : 172.16.66.193<br\/>Up-Time : 70 days, 6:38:38.27","type":"PAR","status":"1","hoto":"1"},{"lat":"12.8699","lng":"77.6568","name":"BGLRDGMLPAR001","address":"Sap : I-KA-BGLR-ENB-6682<br\/>Loopback : 172.16.67.93<br\/>Up-Time : 38 days, 17:22:23.93","type":"PAR","status":"1","hoto":"1"},{"lat":"12.9257","lng":"77.5504","name":"BGLRBNSFPAR001","address":"Sap : I-KA-BGLR-ENB-6686<br\/>Loopback : 172.16.67.86<br\/>Up-Time : 63 days, 13:17:54.83","type":"PAR","status":"1","hoto":"1"},{"lat":"12.8899","lng":"77.6734","name":"BGLRAMRTESR001","address":"Sap : I-KA-BGLR-ENB-6690<br\/>Loopback : 172.23.131.145<br\/>Up-Time : ","type":"ESR","status":"1","hoto":"1"},{"lat":"13.2707","lng":"77.7092","name":"DNPLDNPLESR007","address":"Sap : I-KA-BGLR-ENB-9020<br\/>Loopback : 172.23.136.167<br\/>Up-Time : 19 days, 21:04:40.89","type":"ESR","status":"1","hoto":"1"},{"lat":"12.8015","lng":"77.3986","name":"RGAMRGAMESR005","address":"Sap : I-KA-BGLR-ENB-9058<br\/>Loopback : 172.23.137.142<br\/>Up-Time : 42 days, 5:58:34.88","type":"ESR","status":"1","hoto":"1"},{"lat":"13.2551","lng":"77.7159","name":"DNPLDNPLESR006","address":"Sap : I-KA-BGLR-ENB-9061<br\/>Loopback : 172.23.136.136<br\/>Up-Time : 38 days, 21:42:12.64","type":"ESR","status":"1","hoto":"1"},{"lat":"12.7281","lng":"77.7076","name":"ANKLANKLESR016","address":"Sap : I-KA-BGLR-ENB-9073<br\/>Loopback : 172.23.128.54<br\/>Up-Time : 6 days, 10:12:52.82","type":"ESR","status":"1","hoto":"1"},{"lat":"13.3171","lng":"77.6953","name":"DNPLDNPLESR005","address":"Sap : I-KA-BGLR-ENB-9086<br\/>Loopback : 172.23.142.28<br\/> ","type":"ESR","status":"0","hoto":"1"},{"lat":"12.8362","lng":"77.3987","name":"RGAMRGAMESR004","address":"Sap : I-KA-BGLR-ENB-9096<br\/>Loopback : 172.23.142.7<br\/>Up-Time : ","type":"ESR","status":"1","hoto":"1"},{"lat":"12.7947","lng":"77.721","name":"ANKLANKLPAR003","address":"Sap : I-KA-BGLR-ENB-9101<br\/>Loopback : 172.16.67.172<br\/>Up-Time : ","type":"PAR","status":"1","hoto":"1"},{"lat":"12.7947","lng":"77.721","name":"ANKLANKLPAR004","address":"Sap : I-KA-BGLR-ENB-9101<br\/>Loopback : 172.16.67.173<br\/>Up-Time : 14 days, 16:33:25.15","type":"PAR","status":"1","hoto":"1"},{"lat":"12.901","lng":"77.462","name":"BGLRCHLTESR002","address":"Sap : I-KA-BGLR-ENB-I003<br\/>Loopback : 172.23.141.118<br\/>Up-Time : 44 days, 16:06:44.06","type":"ESR","status":"1","hoto":"1"},{"lat":"14.4937","lng":"76.1629","name":"BICDBICDESR001","address":"Sap : I-KA-BICD-ENB-6000<br\/>Loopback : 172.23.197.88<br\/>Up-Time : 20 days, 13:25:17.82","type":"ESR","status":"1","hoto":"1"},{"lat":"17.9093","lng":"77.5189","name":"BIDRKLHRESR001","address":"Sap : I-KA-BIDR-ENB-0002<br\/>Loopback : 172.22.128.95<br\/>Up-Time : 42 days, 19:53:06.88","type":"ESR","status":"1","hoto":"1"},{"lat":"17.9201","lng":"77.5139","name":"BIDRNTKHESR001","address":"Sap : I-KA-BIDR-ENB-0004<br\/>Loopback : 172.22.128.86<br\/>Up-Time : 31 days, 12:16:46.04","type":"ESR","status":"1","hoto":"1"},{"lat":"17.9125","lng":"77.5265","name":"BIDRSNGWESR002","address":"Sap : I-KA-BIDR-ENB-0005<br\/>Loopback : 172.22.128.119<br\/>Up-Time : 31 days, 19:27:13.07","type":"ESR","status":"1","hoto":"1"},{"lat":"17.9083","lng":"77.5271","name":"BIDRKILSESR001","address":"Sap : I-KA-BIDR-ENB-0008<br\/>Loopback : 172.22.137.94<br\/>Up-Time : 13 days, 11:28:36.10","type":"ESR","status":"1","hoto":"1"},{"lat":"17.9227","lng":"77.5196","name":"BIDRNTKHESR002","address":"Sap : I-KA-BIDR-ENB-0009<br\/>Loopback : 172.22.136.183<br\/>Up-Time : 10:38:28.40","type":"ESR","status":"1","hoto":"1"},{"lat":"17.9086","lng":"77.5108","name":"BIDRBDRCESR001","address":"Sap : I-KA-BIDR-ENB-0010<br\/>Loopback : 172.22.128.104<br\/>Up-Time : 16 days, 10:36:31.58","type":"ESR","status":"1","hoto":"1"},{"lat":"17.9168","lng":"77.508","name":"BIDRKLERESR001","address":"Sap : I-KA-BIDR-ENB-0011<br\/>Loopback : 172.22.137.105<br\/>Up-Time : 55 days, 6:26:15.99","type":"ESR","status":"1","hoto":"1"},{"lat":"17.9238","lng":"77.5077","name":"BIDRPRTNESR001","address":"Sap : I-KA-BIDR-ENB-0013<br\/>Loopback : 172.22.137.103<br\/>Up-Time : 13:56:57.76","type":"ESR","status":"1","hoto":"1"},{"lat":"17.8844","lng":"77.5144","name":"BIDRNDICESR001","address":"Sap : I-KA-BIDR-ENB-0014<br\/>Loopback : 172.22.128.120<br\/>Up-Time : 49 days, 6:15:03.56","type":"ESR","status":"1","hoto":"1"},{"lat":"17.8913","lng":"77.5239","name":"BIDRBIDRESR007","address":"Sap : I-KA-BIDR-ENB-0015<br\/>Loopback : 172.22.137.104<br\/>Up-Time : 18 days, 12:20:28.67","type":"ESR","status":"1","hoto":"1"},{"lat":"17.9064","lng":"77.5011","name":"BIDRFTHCESR001","address":"Sap : I-KA-BIDR-ENB-0017<br\/>Loopback : 172.22.128.105<br\/>Up-Time : 60 days, 11:49:37.55","type":"ESR","status":"1","hoto":"1"},{"lat":"17.9379","lng":"77.5123","name":"BIDRBIDRESR012","address":"Sap : I-KA-BIDR-ENB-0018<br\/>Loopback : 172.22.138.40<br\/>Up-Time : 1 day, 12:31:48.98","type":"ESR","status":"1","hoto":"1"},{"lat":"17.9146","lng":"77.455","name":"BIDRBIDRESR006","address":"Sap : I-KA-BIDR-ENB-0022<br\/>Loopback : 172.22.136.233<br\/>Up-Time : 1 day, 13:12:14.15","type":"ESR","status":"1","hoto":"1"},{"lat":"17.8766","lng":"77.5312","name":"BIDRBIDRESR015","address":"Sap : I-KA-BIDR-ENB-0023<br\/>Loopback : 172.22.130.81<br\/>Up-Time : 11 days, 20:37:42.57","type":"ESR","status":"1","hoto":"1"},{"lat":"17.8871","lng":"77.5451","name":"BIDRJVBMESR001","address":"Sap : I-KA-BIDR-ENB-0024<br\/>Loopback : 172.22.137.106<br\/>Up-Time : 2 days, 17:10:07.55","type":"ESR","status":"1","hoto":"1"},{"lat":"17.9032","lng":"77.5388","name":"BIDRMNYRESR002","address":"Sap : I-KA-BIDR-ENB-0026<br\/>Loopback : 172.22.136.216<br\/>Up-Time : 34 days, 21:50:08.45","type":"ESR","status":"1","hoto":"1"},{"lat":"17.8653","lng":"77.5152","name":"BIDRBIDRESR008","address":"Sap : I-KA-BIDR-ENB-0027<br\/>Loopback : 172.22.130.115<br\/>Up-Time : 11 days, 16:13:54.23","type":"ESR","status":"1","hoto":"1"},{"lat":"17.8729","lng":"77.5021","name":"BIDRBIDRESR013","address":"Sap : I-KA-BIDR-ENB-0028<br\/>Loopback : 172.22.138.9<br\/> ","type":"ESR","status":"0","hoto":"1"},{"lat":"17.9168","lng":"77.5394","name":"BIDRBIDRESR011","address":"Sap : I-KA-BIDR-ENB-0031<br\/>Loopback : 172.22.137.23<br\/>Up-Time : 19 days, 18:56:16.53","type":"ESR","status":"1","hoto":"1"},{"lat":"17.7522","lng":"77.4029","name":"BIDRBIDRESR004","address":"Sap : I-KA-BIDR-ENB-6000<br\/>Loopback : 172.22.39.32<br\/>Up-Time : 19 days, 18:28:12.06","type":"ESR","status":"1","hoto":"1"},{"lat":"17.8937","lng":"77.5165","name":"BIDRSHPRESR001","address":"Sap : I-KA-BIDR-ENB-6002<br\/>Loopback : 172.22.128.114<br\/>Up-Time : 49 days, 6:11:36.49","type":"ESR","status":"1","hoto":"1"},{"lat":"17.7925","lng":"77.5016","name":"BIDRBIDRESR005","address":"Sap : I-KA-BIDR-ENB-6003<br\/>Loopback : 172.22.128.109<br\/>Up-Time : 12 days, 14:53:04.77","type":"ESR","status":"1","hoto":"1"},{"lat":"17.914","lng":"77.5137","name":"BIDRBSVGESR001","address":"Sap : I-KA-BIDR-ENB-6004<br\/>Loopback : 172.22.128.110<br\/>Up-Time : 25 days, 9:52:19.42","type":"ESR","status":"1","hoto":"1"},{"lat":"17.916","lng":"77.5293","name":"BIDRSNGWESR001","address":"Sap : I-KA-BIDR-ENB-6005<br\/>Loopback : 172.22.136.218<br\/>Up-Time : 35 days, 15:56:16.71","type":"ESR","status":"1","hoto":"1"},{"lat":"17.9331","lng":"77.4814","name":"BIDRABDKESR001","address":"Sap : I-KA-BIDR-ENB-6006<br\/>Loopback : 172.22.136.217<br\/>Up-Time : 15:42:11.73","type":"ESR","status":"1","hoto":"1"},{"lat":"17.9049","lng":"77.5308","name":"BIDRMNYRESR001","address":"Sap : I-KA-BIDR-ENB-6007<br\/>Loopback : 172.22.136.219<br\/>Up-Time : 16 days, 15:23:58.37","type":"ESR","status":"1","hoto":"1"},{"lat":"17.9057","lng":"77.5154","name":"BIDRCHNBESR001","address":"Sap : I-KA-BIDR-ENB-6008<br\/>Loopback : 172.22.128.116<br\/>Up-Time : 15 days, 17:39:29.68","type":"ESR","status":"1","hoto":"1"},{"lat":"17.9185","lng":"77.5205","name":"BIDRHNUMESR001","address":"Sap : I-KA-BIDR-ENB-6009<br\/>Loopback : 172.22.128.87<br\/>Up-Time : 1 day, 14:35:30.42","type":"ESR","status":"1","hoto":"1"},{"lat":"17.9373","lng":"77.4743","name":"BIDRKHNKESR001","address":"Sap : I-KA-BIDR-ENB-6010<br\/>Loopback : 172.22.128.106<br\/>Up-Time : 23 days, 12:57:45.64","type":"ESR","status":"1","hoto":"1"},{"lat":"17.9139","lng":"77.522","name":"BIDRWDIIESR001","address":"Sap : I-KA-BIDR-ENB-6011<br\/>Loopback : 172.22.130.17<br\/>Up-Time : 3 days, 15:17:54.46","type":"ESR","status":"1","hoto":"1"},{"lat":"17.8902","lng":"77.5074","name":"BIDRNZRTESR001","address":"Sap : I-KA-BIDR-ENB-6012<br\/>Loopback : 172.22.136.220<br\/>Up-Time : 35 days, 12:24:33.79","type":"ESR","status":"1","hoto":"1"},{"lat":"18.0006","lng":"77.4828","name":"BIDRBIDRESR003","address":"Sap : I-KA-BIDR-ENB-6013<br\/>Loopback : 172.22.132.201<br\/>Up-Time : 4 days, 14:10:58.05","type":"ESR","status":"1","hoto":"1"},{"lat":"17.7084","lng":"77.4128","name":"BIDRBIDRESR016","address":"Sap : I-KA-BIDR-ENB-9006<br\/>Loopback : 172.22.39.121<br\/>Up-Time : 13 days, 11:56:44.23","type":"ESR","status":"1","hoto":"1"},{"lat":"17.9081","lng":"77.5353","name":"BIDRNYSFESR001","address":"Sap : I-KA-BIDR-ENB-B001<br\/>Loopback : 172.22.137.92<br\/>Up-Time : 31 days, 10:19:13.03","type":"ESR","status":"1","hoto":"1"},{"lat":"17.918","lng":"77.5225","name":"BIDRHNUMESR002","address":"Sap : I-KA-BIDR-ENB-I001<br\/>Loopback : 172.22.137.93<br\/>Up-Time : 49 days, 6:08:01.80","type":"ESR","status":"1","hoto":"1"},{"lat":"17.9178","lng":"77.5347","name":"BIDRBDINESR001","address":"Sap : I-KA-BIDR-ENB-I002<br\/>Loopback : 172.22.129.103<br\/>Up-Time : 31 days, 21:11:06.53","type":"ESR","status":"1","hoto":"1"},{"lat":"17.8986","lng":"77.5111","name":"BIDRDVICESR001","address":"Sap : I-KA-BIDR-ENB-I004<br\/>Loopback : 172.22.130.229<br\/>Up-Time : 49 days, 5:06:10.95","type":"ESR","status":"1","hoto":"1"},{"lat":"17.9011","lng":"77.5086","name":"BIDRNRTHESR001","address":"Sap : I-KA-BIDR-ENB-S001<br\/>Loopback : 172.22.136.245<br\/>Up-Time : 14 days, 12:06:05.65","type":"ESR","status":"1","hoto":"1"},{"lat":"17.9241","lng":"77.4976","name":"BIDRMULTESR001","address":"Sap : I-KA-BIDR-ENB-V002<br\/>Loopback : 172.22.136.97<br\/>Up-Time : 48 days, 8:40:10.39","type":"ESR","status":"1","hoto":"1"},{"lat":"17.9046","lng":"77.5219","name":"BIDRBDRLESR001","address":"Sap : I-KA-BIDR-ENB-V003<br\/>Loopback : 172.22.130.88<br\/>Up-Time : 55 days, 6:38:15.33","type":"ESR","status":"1","hoto":"1"},{"lat":"17.9037","lng":"77.5313","name":"BIDRBDRFPAR001","address":"Sap : I-KA-BIDR-ILA-0001<br\/>Loopback : 172.16.42.47<br\/>Up-Time : ","type":"PAR","status":"1","hoto":"1"},{"lat":"17.9037","lng":"77.5313","name":"BIDRBDRFPAR002","address":"Sap : I-KA-BIDR-ILA-0001<br\/>Loopback : 172.16.42.48<br\/>Up-Time : 70 days, 5:40:10.78","type":"PAR","status":"1","hoto":"1"},{"lat":"17.9037","lng":"77.5313","name":"BIDRBDRFPAR004","address":"Sap : I-KA-BIDR-ILA-0001<br\/>Loopback : 172.16.52.114<br\/>Up-Time : 66 days, 1:44:19.49","type":"PAR","status":"1","hoto":"1"},{"lat":"15.3925","lng":"76.3329","name":"BILEBILEESR001","address":"Sap : I-KA-BILE-ENB-6000<br\/>Loopback : 172.23.198.151<br\/>Up-Time : 46 days, 23:58:55.35","type":"ESR","status":"1","hoto":"1"},{"lat":"13.4146","lng":"75.7985","name":"BINGBINGESR001","address":"Sap : I-KA-BING-ENB-6000<br\/>Loopback : 172.23.198.154<br\/>Up-Time : 47 days, 2:00:35.09","type":"ESR","status":"1","hoto":"1"},{"lat":"16.8275","lng":"75.7114","name":"BJPRSHONPAR001","address":"Sap : I-KA-BJPR-AG2-0001<br\/>Loopback : 172.16.59.52<br\/>Up-Time : ","type":"PAR","status":"1","hoto":"1"},{"lat":"16.8275","lng":"75.7114","name":"BJPRSHONPAR002","address":"Sap : I-KA-BJPR-AG2-0001<br\/>Loopback : 172.16.43.51<br\/>Up-Time : 66 days, 1:46:36.86","type":"PAR","status":"1","hoto":"1"},{"lat":"16.8275","lng":"75.7114","name":"BJPRSHONPAR003","address":"Sap : I-KA-BJPR-AG2-0001<br\/>Loopback : 172.16.59.99<br\/>Up-Time : 66 days, 1:41:30.32","type":"PAR","status":"1","hoto":"1"},{"lat":"16.838","lng":"75.7096","name":"BJPRSHLPESR001","address":"Sap : I-KA-BJPR-ENB-0002<br\/>Loopback : 172.23.193.159<br\/>Up-Time : 18 days, 17:50:04.36","type":"ESR","status":"1","hoto":"1"},{"lat":"16.8303","lng":"75.7161","name":"BJPRCPTIESR004","address":"Sap : I-KA-BJPR-ENB-0004<br\/>Loopback : 172.23.199.150<br\/>Up-Time : 44 days, 18:29:49.11","type":"ESR","status":"1","hoto":"1"},{"lat":"16.832","lng":"75.7239","name":"BJPRCPTIESR003","address":"Sap : I-KA-BJPR-ENB-0005<br\/>Loopback : 172.23.193.155<br\/>Up-Time : 49 days, 1:54:04.14","type":"ESR","status":"1","hoto":"1"},{"lat":"16.829","lng":"75.711","name":"BJPRSHONESR001","address":"Sap : I-KA-BJPR-ENB-0006<br\/>Loopback : 172.23.194.142<br\/>Up-Time : 49 days, 1:36:53.73","type":"ESR","status":"1","hoto":"1"},{"lat":"16.8493","lng":"75.6962","name":"BJPRSHKTESR001","address":"Sap : I-KA-BJPR-ENB-0020<br\/>Loopback : 172.23.193.156<br\/>Up-Time : 42 days, 12:30:29.30","type":"ESR","status":"1","hoto":"1"},{"lat":"16.8377","lng":"75.755","name":"BJPRGDHIESR001","address":"Sap : I-KA-BJPR-ENB-0022<br\/>Loopback : 172.23.199.142<br\/>Up-Time : 18 days, 15:17:07.47","type":"ESR","status":"1","hoto":"1"},{"lat":"16.6708","lng":"75.5706","name":"BJPRBJPRPAR001","address":"Sap : I-KA-BJPR-ENB-6001<br\/>Loopback : 172.16.59.177<br\/>Up-Time : 62 days, 12:12:33.93","type":"PAR","status":"1","hoto":"1"},{"lat":"16.8224","lng":"75.7208","name":"BJPRKNDSESR001","address":"Sap : I-KA-BJPR-ENB-6002<br\/>Loopback : 172.23.199.140<br\/>Up-Time : 47 days, 2:27:59.66","type":"ESR","status":"1","hoto":"1"},{"lat":"16.8328","lng":"75.7058","name":"BJPRGYNBESR001","address":"Sap : I-KA-BJPR-ENB-6003<br\/>Loopback : 172.23.199.62<br\/>Up-Time : 29 days, 21:57:04.79","type":"ESR","status":"1","hoto":"1"},{"lat":"16.8296","lng":"75.6836","name":"BJPRAZLPESR001","address":"Sap : I-KA-BJPR-ENB-6004<br\/>Loopback : 172.23.199.63<br\/>Up-Time : 47 days, 0:00:11.15","type":"ESR","status":"1","hoto":"1"},{"lat":"16.8171","lng":"75.7169","name":"BJPRMNURESR001","address":"Sap : I-KA-BJPR-ENB-6007<br\/>Loopback : 172.23.199.69<br\/>Up-Time : 52 days, 4:39:22.89","type":"ESR","status":"1","hoto":"1"},{"lat":"16.8238","lng":"75.712","name":"BJPRKWJNESR001","address":"Sap : I-KA-BJPR-ENB-6008<br\/>Loopback : 172.23.199.64<br\/>Up-Time : 47 days, 3:34:39.24","type":"ESR","status":"1","hoto":"1"},{"lat":"16.8227","lng":"75.7329","name":"BJPRKNPRESR001","address":"Sap : I-KA-BJPR-ENB-6009<br\/>Loopback : 172.23.199.147<br\/>Up-Time : 50 days, 22:37:26.51","type":"ESR","status":"1","hoto":"1"},{"lat":"16.8388","lng":"75.7453","name":"BJPRKYKNESR001","address":"Sap : I-KA-BJPR-ENB-6010<br\/>Loopback : 172.23.199.67<br\/>Up-Time : 47 days, 3:25:01.56","type":"ESR","status":"1","hoto":"1"},{"lat":"16.8082","lng":"75.7196","name":"BJPRVKNGESR001","address":"Sap : I-KA-BJPR-ENB-6012<br\/>Loopback : 172.23.199.144<br\/>Up-Time : 47 days, 3:27:56.64","type":"ESR","status":"1","hoto":"1"},{"lat":"16.8096","lng":"75.7319","name":"BJPRVKNEESR001","address":"Sap : I-KA-BJPR-ENB-6014<br\/>Loopback : 172.23.199.143<br\/>Up-Time : 10 days, 3:15:18.12","type":"ESR","status":"1","hoto":"1"},{"lat":"16.8286","lng":"75.7299","name":"BJPRCPTIESR001","address":"Sap : I-KA-BJPR-ENB-6015<br\/>Loopback : 172.23.199.70<br\/>Up-Time : 6 days, 12:34:43.88","type":"ESR","status":"1","hoto":"1"},{"lat":"16.856","lng":"75.7208","name":"BJPRKLINESR001","address":"Sap : I-KA-BJPR-ENB-6018<br\/>Loopback : 172.23.199.66<br\/> ","type":"ESR","status":"0","hoto":"1"},{"lat":"16.7575","lng":"75.7313","name":"BJPRBJPRESR014","address":"Sap : I-KA-BJPR-ENB-6022<br\/>Loopback : 172.23.199.157<br\/>Up-Time : 20 days, 18:02:19.22","type":"ESR","status":"1","hoto":"1"},{"lat":"16.7136","lng":"75.6382","name":"BJPRBJPRESR008","address":"Sap : I-KA-BJPR-ENB-6028<br\/>Loopback : 172.23.198.140<br\/>Up-Time : 44 days, 0:28:33.61","type":"ESR","status":"1","hoto":"1"},{"lat":"16.6913","lng":"75.7273","name":"BJPRBJPRESR011","address":"Sap : I-KA-BJPR-ENB-9018<br\/>Loopback : 172.23.194.164<br\/>Up-Time : 6 days, 12:20:36.91","type":"ESR","status":"1","hoto":"1"},{"lat":"16.8242","lng":"75.7248","name":"BJPRKNDSESR002","address":"Sap : I-KA-BJPR-ENB-I002<br\/>Loopback : 172.23.199.141<br\/>Up-Time : 47 days, 2:27:11.71","type":"ESR","status":"1","hoto":"1"},{"lat":"16.8268","lng":"75.6641","name":"BJPRAZLPESR002","address":"Sap : I-KA-BJPR-ENB-I003<br\/>Loopback : 172.23.194.8<br\/>Up-Time : 49 days, 2:00:12.08","type":"ESR","status":"1","hoto":"1"},{"lat":"16.8081","lng":"75.7264","name":"BJPRVJYPESR001","address":"Sap : I-KA-BJPR-ENB-S001<br\/>Loopback : 172.23.199.145<br\/>Up-Time : 10 days, 15:33:30.88","type":"ESR","status":"1","hoto":"1"},{"lat":"16.8207","lng":"75.7287","name":"BJPRBRTHESR001","address":"Sap : I-KA-BJPR-ENB-V001<br\/>Loopback : 172.23.193.181<br\/>Up-Time : 25 days, 9:01:48.02","type":"ESR","status":"1","hoto":"1"},{"lat":"16.8379","lng":"75.7224","name":"BJPRGCKTESR002","address":"Sap : I-KA-BJPR-ENB-V002<br\/>Loopback : 172.23.194.9<br\/>Up-Time : 49 days, 1:06:47.17","type":"ESR","status":"1","hoto":"1"},{"lat":"16.8182","lng":"75.7204","name":"BJPRMURKESR001","address":"Sap : I-KA-BJPR-ENB-V007<br\/>Loopback : 172.23.199.139<br\/>Up-Time : 36 days, 14:12:54.56","type":"ESR","status":"1","hoto":"1"},{"lat":"16.8734","lng":"75.7212","name":"BJPRBJPRESR015","address":"Sap : I-KA-BJPR-ENB-W001<br\/>Loopback : 172.23.193.224<br\/> ","type":"ESR","status":"0","hoto":"1"},{"lat":"16.3488","lng":"75.6234","name":"BLGIBLGIESR001","address":"Sap : I-KA-BLGI-ENB-6000<br\/>Loopback : 172.23.196.53<br\/>Up-Time : 38 days, 11:34:35.68","type":"ESR","status":"1","hoto":"1"},{"lat":"16.3522","lng":"75.7029","name":"BLGIBLGIESR002","address":"Sap : I-KA-BLGI-ENB-6003<br\/>Loopback : 172.23.194.180<br\/> ","type":"ESR","status":"0","hoto":"1"},{"lat":"16.2872","lng":"75.6192","name":"BLGIBLGIESR005","address":"Sap : I-KA-BLGI-ENB-6004<br\/>Loopback : 172.23.199.161<br\/>Up-Time : 15 days, 4:56:42.87","type":"ESR","status":"1","hoto":"1"},{"lat":"16.3227","lng":"75.6705","name":"BLGIBLGIESR009","address":"Sap : I-KA-BLGI-ENB-I001<br\/>Loopback : 172.23.194.181<br\/>Up-Time : 49 days, 2:32:15.97","type":"ESR","status":"1","hoto":"1"},{"lat":"16.3392","lng":"75.6407","name":"BLGIBLGIESR003","address":"Sap : I-KA-BLGI-ENB-V001<br\/>Loopback : 172.23.197.126<br\/>Up-Time : 13 days, 20:20:17.30","type":"ESR","status":"1","hoto":"1"},{"lat":"15.8797","lng":"74.5159","name":"BLGMAZMNPAR001","address":"Sap : I-KA-BLGM-AG2-0001<br\/>Loopback : 172.16.59.4<br\/>Up-Time : 58 days, 0:05:49.37","type":"PAR","status":"1","hoto":"1"},{"lat":"15.8797","lng":"74.5159","name":"BLGMAZMNPAR002","address":"Sap : I-KA-BLGM-AG2-0001<br\/>Loopback : 172.16.55.2<br\/>Up-Time : 58 days, 0:07:44.13","type":"PAR","status":"1","hoto":"1"},{"lat":"15.8458","lng":"74.5081","name":"BLGMSHTRESR001","address":"Sap : I-KA-BLGM-ENB-0001<br\/>Loopback : 172.23.197.86<br\/>Up-Time : 4 days, 16:51:47.53","type":"ESR","status":"1","hoto":"1"},{"lat":"15.8386","lng":"74.5058","name":"BLGMSHTRPAR001","address":"Sap : I-KA-BLGM-ENB-0008<br\/>Loopback : 172.16.59.184<br\/>Up-Time : 4 days, 9:27:51.27","type":"PAR","status":"1","hoto":"1"},{"lat":"15.8298","lng":"74.4997","name":"BLGMHNDUPAR001","address":"Sap : I-KA-BLGM-ENB-0012<br\/>Loopback : 172.16.59.192<br\/>Up-Time : 48 days, 10:21:39.92","type":"PAR","status":"1","hoto":"1"},{"lat":"15.8108","lng":"74.4737","name":"BLGMKRWDESR001","address":"Sap : I-KA-BLGM-ENB-0018<br\/>Loopback : 172.23.194.212<br\/>Up-Time : 8 days, 10:03:19.94","type":"ESR","status":"1","hoto":"1"},{"lat":"15.7898","lng":"74.4815","name":"BLGMPRWDESR002","address":"Sap : I-KA-BLGM-ENB-0020<br\/>Loopback : 172.23.193.183<br\/>Up-Time : 1 day, 10:45:41.61","type":"ESR","status":"1","hoto":"1"},{"lat":"15.8084","lng":"74.4941","name":"BLGMANGOESR001","address":"Sap : I-KA-BLGM-ENB-0022<br\/>Loopback : 172.23.192.220<br\/>Up-Time : 33 days, 13:45:52.61","type":"ESR","status":"1","hoto":"1"},{"lat":"15.8105","lng":"74.4878","name":"BLGMDVDRESR001","address":"Sap : I-KA-BLGM-ENB-0023<br\/>Loopback : 172.23.192.219<br\/>Up-Time : 49 days, 3:12:22.53","type":"ESR","status":"1","hoto":"1"},{"lat":"15.8219","lng":"74.498","name":"BLGMKLEEESR001","address":"Sap : I-KA-BLGM-ENB-0026<br\/>Loopback : 172.23.199.23<br\/>Up-Time : 17 days, 20:21:20.03","type":"ESR","status":"1","hoto":"1"},{"lat":"15.831","lng":"74.4814","name":"BLGMCUVRESR001","address":"Sap : I-KA-BLGM-ENB-0028<br\/>Loopback : 172.23.193.172<br\/>Up-Time : 6 days, 11:50:49.27","type":"ESR","status":"1","hoto":"1"},{"lat":"15.8943","lng":"74.5567","name":"BLGMKNBRESR001","address":"Sap : I-KA-BLGM-ENB-0039<br\/>Loopback : 172.23.199.219<br\/>Up-Time : 10 days, 14:14:03.68","type":"ESR","status":"1","hoto":"1"},{"lat":"15.8912","lng":"74.5156","name":"BLGMSHUNPAR001","address":"Sap : I-KA-BLGM-ENB-0047<br\/>Loopback : 172.16.59.194<br\/>Up-Time : 11 days, 8:37:28.46","type":"PAR","status":"1","hoto":"1"},{"lat":"15.8991","lng":"74.5204","name":"BLGMVBHVPAR001","address":"Sap : I-KA-BLGM-ENB-0048<br\/>Loopback : 172.16.59.188<br\/>Up-Time : 70 days, 5:32:05.22","type":"PAR","status":"1","hoto":"1"},{"lat":"15.8645","lng":"74.4778","name":"BLGMKRNTPAR001","address":"Sap : I-KA-BLGM-ENB-0053<br\/>Loopback : 172.16.59.195<br\/>Up-Time : 14 days, 9:22:55.17","type":"PAR","status":"1","hoto":"1"},{"lat":"15.8581","lng":"74.5164","name":"BLGMNRGKESR002","address":"Sap : I-KA-BLGM-ENB-0054<br\/>Loopback : 172.23.197.81<br\/>Up-Time : 41 days, 8:55:01.01","type":"ESR","status":"1","hoto":"1"},{"lat":"15.7749","lng":"74.6465","name":"BLGMBLGMESR005","address":"Sap : I-KA-BLGM-ENB-6000<br\/>Loopback : 172.23.195.30<br\/>Up-Time : 6 days, 17:47:18.08","type":"ESR","status":"1","hoto":"1"},{"lat":"15.8298","lng":"74.5206","name":"BLGMKRBRESR001","address":"Sap : I-KA-BLGM-ENB-6002<br\/>Loopback : 172.23.199.216<br\/>Up-Time : 46 days, 15:57:46.32","type":"ESR","status":"1","hoto":"1"},{"lat":"15.8618","lng":"74.5181","name":"BLGMKMTGESR001","address":"Sap : I-KA-BLGM-ENB-6003<br\/>Loopback : 172.23.197.29<br\/>Up-Time : 47 days, 2:00:00.48","type":"ESR","status":"1","hoto":"1"},{"lat":"15.8292","lng":"74.5076","name":"BLGMSHDIESR001","address":"Sap : I-KA-BLGM-ENB-6004<br\/>Loopback : 172.23.199.190<br\/>Up-Time : 47 days, 4:04:10.90","type":"ESR","status":"1","hoto":"1"},{"lat":"15.8786","lng":"74.5168","name":"BLGMKPCLPAR001","address":"Sap : I-KA-BLGM-ENB-6005<br\/>Loopback : 172.16.59.189<br\/>Up-Time : 41 days, 13:49:58.68","type":"PAR","status":"1","hoto":"1"},{"lat":"15.9101","lng":"74.5214","name":"BLGMGUDWESR001","address":"Sap : I-KA-BLGM-ENB-6006<br\/>Loopback : 172.23.199.25<br\/>Up-Time : 47 days, 3:06:37.12","type":"ESR","status":"1","hoto":"1"},{"lat":"15.8785","lng":"74.5374","name":"BLGMMHTSESR001","address":"Sap : I-KA-BLGM-ENB-6007<br\/>Loopback : 172.23.199.162<br\/>Up-Time : 47 days, 1:56:23.74","type":"ESR","status":"1","hoto":"1"},{"lat":"15.8812","lng":"74.4979","name":"BLGMSDSVESR001","address":"Sap : I-KA-BLGM-ENB-6008<br\/>Loopback : 172.23.192.227<br\/>Up-Time : 38 days, 10:32:29.65","type":"ESR","status":"1","hoto":"1"},{"lat":"15.8907","lng":"74.505","name":"BLGMSGMWESR002","address":"Sap : I-KA-BLGM-enb-6009<br\/>Loopback : 172.23.199.21<br\/>Up-Time : 47 days, 4:35:24.34","type":"ESR","status":"1","hoto":"1"},{"lat":"15.8559","lng":"74.5147","name":"BLGMNRGKESR001","address":"Sap : I-KA-BLGM-ENB-6010<br\/>Loopback : 172.23.197.30<br\/>Up-Time : 47 days, 1:38:37.00","type":"ESR","status":"1","hoto":"1"},{"lat":"15.8024","lng":"74.4821","name":"BLGMPRWDESR003","address":"Sap : I-KA-BLGM-ENB-6011<br\/>Loopback : 172.23.193.225<br\/>Up-Time : 49 days, 1:32:07.27","type":"ESR","status":"1","hoto":"1"},{"lat":"15.8492","lng":"74.5122","name":"BLGMBHDRESR001","address":"Sap : I-KA-BLGM-ENB-6013<br\/>Loopback : 172.23.197.85<br\/>Up-Time : 18 days, 17:54:06.79","type":"ESR","status":"1","hoto":"1"},{"lat":"15.8428","lng":"74.5137","name":"BLGMSHVCESR001","address":"Sap : I-KA-BLGM-ENB-6014<br\/>Loopback : 172.23.197.27<br\/>Up-Time : 9 days, 15:26:26.47","type":"ESR","status":"1","hoto":"1"},{"lat":"15.8345","lng":"74.5044","name":"BLGMRNDEESR001","address":"Sap : I-KA-BLGM-ENB-6015<br\/>Loopback : 172.23.197.83<br\/>Up-Time : 2 days, 17:33:32.62","type":"ESR","status":"1","hoto":"1"},{"lat":"15.8851","lng":"74.5148","name":"BLGMKSRPESR001","address":"Sap : I-KA-BLGM-ENB-6016<br\/>Loopback : 172.23.194.44<br\/>Up-Time : 35 days, 10:42:55.00","type":"ESR","status":"1","hoto":"1"},{"lat":"15.8183","lng":"74.4914","name":"BLGMMNIKESR001","address":"Sap : I-KA-BLGM-ENB-6018<br\/>Loopback : 172.23.192.215<br\/>Up-Time : 49 days, 2:59:19.48","type":"ESR","status":"1","hoto":"1"},{"lat":"15.888","lng":"74.5392","name":"BLGMRMTHESR002","address":"Sap : I-KA-BLGM-ENB-6019<br\/>Loopback : 172.23.192.221<br\/>Up-Time : 63 days, 1:24:08.61","type":"ESR","status":"1","hoto":"1"},{"lat":"15.8675","lng":"74.4853","name":"BLGMBSWRESR002","address":"Sap : I-KA-BLGM-ENB-6020<br\/>Loopback : 172.23.192.236<br\/>Up-Time : 40 days, 21:01:39.58","type":"ESR","status":"1","hoto":"1"},{"lat":"15.8726","lng":"74.4764","name":"BLGMGNSPESR001","address":"Sap : I-KA-BLGM-ENB-6022<br\/>Loopback : 172.23.199.24<br\/>Up-Time : 15 days, 22:16:17.55","type":"ESR","status":"1","hoto":"1"},{"lat":"15.8636","lng":"74.513","name":"BLGMDRBGESR001","address":"Sap : I-KA-BLGM-ENB-6024<br\/>Loopback : 172.23.197.82<br\/>Up-Time : 16 days, 15:24:27.95","type":"ESR","status":"1","hoto":"1"},{"lat":"15.839","lng":"74.5211","name":"BLGMSHPCESR001","address":"Sap : I-KA-BLGM-ENB-6025<br\/>Loopback : 172.23.199.152<br\/>Up-Time : 7 days, 22:46:20.16","type":"ESR","status":"1","hoto":"1"},{"lat":"15.8797","lng":"74.5293","name":"BLGMJNTPESR001","address":"Sap : I-KA-BLGM-ENB-6026<br\/>Loopback : 172.23.192.223<br\/>Up-Time : 3 days, 10:09:27.76","type":"ESR","status":"1","hoto":"1"},{"lat":"15.8427","lng":"74.5024","name":"BLGMNWDIESR001","address":"Sap : I-KA-BLGM-ENB-6027<br\/>Loopback : 172.23.192.231<br\/>Up-Time : 49 days, 3:12:49.48","type":"ESR","status":"1","hoto":"1"},{"lat":"15.8722","lng":"74.5194","name":"BLGMSHVBESR001","address":"Sap : I-KA-BLGM-ENB-6028<br\/>Loopback : 172.23.198.226<br\/>Up-Time : 11:57:32.78","type":"ESR","status":"1","hoto":"1"},{"lat":"16.0014","lng":"74.5049","name":"BLGMBLGMESR014","address":"Sap : I-KA-BLGM-ENB-6029<br\/>Loopback : 172.23.194.177<br\/>Up-Time : 43 days, 21:00:21.85","type":"ESR","status":"1","hoto":"1"},{"lat":"15.9512","lng":"74.5198","name":"BLGMHNGGESR001","address":"Sap : I-KA-BLGM-ENB-6031<br\/>Loopback : 172.23.193.174<br\/>Up-Time : 36 days, 20:01:44.27","type":"ESR","status":"1","hoto":"1"},{"lat":"15.9895","lng":"74.6665","name":"BLGMBLGMESR015","address":"Sap : I-KA-BLGM-ENB-6032<br\/>Loopback : 172.23.198.107<br\/>Up-Time : 21:16:49.64","type":"ESR","status":"1","hoto":"1"},{"lat":"15.9504","lng":"74.4928","name":"BLGMBLGMESR006","address":"Sap : I-KA-BLGM-ENB-6033<br\/>Loopback : 172.23.194.168<br\/>Up-Time : 11:15:10.91","type":"ESR","status":"1","hoto":"1"},{"lat":"15.7855","lng":"74.5989","name":"BLGMBLGMESR013","address":"Sap : I-KA-BLGM-ENB-6036<br\/>Loopback : 172.23.193.115<br\/>Up-Time : 13 days, 16:28:06.18","type":"ESR","status":"1","hoto":"1"},{"lat":"15.8969","lng":"74.5819","name":"BLGMBLGMESR001","address":"Sap : I-KA-BLGM-ENB-6037<br\/>Loopback : 172.23.198.106<br\/> ","type":"ESR","status":"0","hoto":"1"},{"lat":"15.8595","lng":"74.5823","name":"BLGMALRWESR002","address":"Sap : I-KA-BLGM-ENB-6038<br\/>Loopback : 172.23.199.188<br\/>Up-Time : 4 days, 20:13:46.91","type":"ESR","status":"1","hoto":"1"},{"lat":"15.874","lng":"74.6373","name":"BLGMBLGMESR007","address":"Sap : I-KA-BLGM-ENB-6039<br\/>Loopback : 172.23.193.48<br\/>Up-Time : 26 days, 16:31:31.70","type":"ESR","status":"1","hoto":"1"},{"lat":"15.8691","lng":"74.6114","name":"BLGMSMBRESR001","address":"Sap : I-KA-BLGM-ENB-6040<br\/>Loopback : 172.23.193.49<br\/>Up-Time : 4 days, 16:30:44.66","type":"ESR","status":"1","hoto":"1"},{"lat":"15.8791","lng":"74.4524","name":"BLGMBLGMESR002","address":"Sap : I-KA-BLGM-ENB-6041<br\/>Loopback : 172.23.199.166<br\/> ","type":"ESR","status":"0","hoto":"1"},{"lat":"15.8869","lng":"74.4264","name":"BLGMBLGMESR004","address":"Sap : I-KA-BLGM-ENB-6042<br\/>Loopback : 172.23.194.29<br\/> ","type":"ESR","status":"0","hoto":"1"},{"lat":"15.7675","lng":"74.4585","name":"BLGMBLGMESR003","address":"Sap : I-KA-BLGM-ENB-6044<br\/>Loopback : 172.23.198.170<br\/>Up-Time : 47 days, 1:45:25.01","type":"ESR","status":"1","hoto":"1"},{"lat":"15.8266","lng":"74.4928","name":"BLGMHNDUESR001","address":"Sap : I-KA-BLGM-ENB-A001<br\/>Loopback : 172.23.199.27<br\/>Up-Time : 6 days, 21:26:01.90","type":"ESR","status":"1","hoto":"1"},{"lat":"15.8632","lng":"74.508","name":"BLGMDESHESR001","address":"Sap : I-KA-BLGM-ENB-A002<br\/>Loopback : 172.23.193.182<br\/>Up-Time : 49 days, 3:01:02.71","type":"ESR","status":"1","hoto":"1"},{"lat":"15.8859","lng":"74.4799","name":"BLGMABWDESR001","address":"Sap : I-KA-BLGM-ENB-A003<br\/>Loopback : 172.23.194.174<br\/>Up-Time : 30 days, 16:31:29.29","type":"ESR","status":"1","hoto":"1"},{"lat":"15.871","lng":"74.5122","name":"BLGMSUBHESR001","address":"Sap : I-KA-BLGM-ENB-A007<br\/>Loopback : 172.23.199.19<br\/>Up-Time : 47 days, 4:27:25.93","type":"ESR","status":"1","hoto":"1"},{"lat":"15.8241","lng":"74.4877","name":"BLGMRNCMESR001","address":"Sap : I-KA-BLGM-ENB-I001<br\/>Loopback : 172.23.199.17<br\/>Up-Time : 47 days, 4:36:25.85","type":"ESR","status":"1","hoto":"1"},{"lat":"15.8481","lng":"74.4942","name":"BLGMCAMPESR001","address":"Sap : I-KA-BLGM-ENB-I002<br\/>Loopback : 172.23.194.126<br\/>Up-Time : 49 days, 1:43:54.37","type":"ESR","status":"1","hoto":"1"},{"lat":"15.8787","lng":"74.489","name":"BLGMHNMNESR001","address":"Sap : I-KA-BLGM-ENB-I003<br\/>Loopback : 172.23.194.172<br\/>Up-Time : 49 days, 2:15:50.34","type":"ESR","status":"1","hoto":"1"},{"lat":"15.8919","lng":"74.5403","name":"BLGMRMTHESR003","address":"Sap : I-KA-BLGM-ENB-I004<br\/>Loopback : 172.23.192.222<br\/>Up-Time : 40 days, 21:27:15.57","type":"ESR","status":"1","hoto":"1"},{"lat":"15.8614","lng":"74.5126","name":"BLGMNRVKESR001","address":"Sap : I-KA-BLGM-ENB-I005<br\/>Loopback : 172.23.192.234<br\/>Up-Time : 43 days, 10:31:40.37","type":"ESR","status":"1","hoto":"1"},{"lat":"15.8708","lng":"74.6198","name":"BLGMBLGMESR011","address":"Sap : I-KA-BLGM-ENB-I006<br\/>Loopback : 172.23.199.26<br\/>Up-Time : 47 days, 3:12:25.07","type":"ESR","status":"1","hoto":"1"},{"lat":"15.8421","lng":"74.5173","name":"BLGMHDJBESR001","address":"Sap : I-KA-BLGM-ENB-S001<br\/>Loopback : 172.23.197.80<br\/>Up-Time : 29 days, 12:53:35.14","type":"ESR","status":"1","hoto":"1"},{"lat":"15.8801","lng":"74.5221","name":"BLGMKPCLESR001","address":"Sap : I-KA-BLGM-ENB-S002<br\/>Loopback : 172.23.199.165<br\/>Up-Time : 47 days, 2:03:48.80","type":"ESR","status":"1","hoto":"1"},{"lat":"15.8387","lng":"74.4988","name":"BLGMNWDIESR002","address":"Sap : I-KA-BLGM-ENB-S003<br\/>Loopback : 172.23.192.230<br\/>Up-Time : 40 days, 9:40:54.31","type":"ESR","status":"1","hoto":"1"},{"lat":"15.8236","lng":"74.5034","name":"BLGMKRSHESR001","address":"Sap : I-KA-BLGM-ENB-S004<br\/>Loopback : 172.23.193.252<br\/>Up-Time : 29 days, 16:42:09.55","type":"ESR","status":"1","hoto":"1"},{"lat":"15.837","lng":"74.5082","name":"BLGMRNDEESR002","address":"Sap : I-KA-BLGM-ENB-V001<br\/>Loopback : 172.23.197.233<br\/>Up-Time : 61 days, 5:00:34.30","type":"ESR","status":"1","hoto":"1"},{"lat":"15.8625","lng":"74.5281","name":"BLGMKSHRESR001","address":"Sap : I-KA-BLGM-ENB-V002<br\/>Loopback : 172.23.198.239<br\/>Up-Time : 44 days, 7:58:55.94","type":"ESR","status":"1","hoto":"1"},{"lat":"15.8826","lng":"74.5112","name":"BLGMSDSVESR003","address":"Sap : I-KA-BLGM-ENB-V003<br\/>Loopback : 172.23.199.1<br\/>Up-Time : 47 days, 1:48:21.93","type":"ESR","status":"1","hoto":"1"},{"lat":"15.8327","lng":"74.5267","name":"BLGMJNEBESR001","address":"Sap : I-KA-BLGM-ENB-V004<br\/>Loopback : 172.23.198.237<br\/>Up-Time : 47 days, 4:13:26.30","type":"ESR","status":"1","hoto":"1"},{"lat":"15.8188","lng":"74.495","name":"BLGMKLEEESR002","address":"Sap : I-KA-BLGM-ENB-V005<br\/>Loopback : 172.23.198.36<br\/>Up-Time : 44 days, 8:02:11.42","type":"ESR","status":"1","hoto":"1"},{"lat":"15.8714","lng":"74.5316","name":"BLGMMHTSESR002","address":"Sap : I-KA-BLGM-ENB-V007<br\/>Loopback : 172.23.198.225<br\/>Up-Time : 12:49:38.45","type":"ESR","status":"1","hoto":"1"},{"lat":"15.8914","lng":"74.5111","name":"BLGMSGMWESR001","address":"Sap : I-KA-BLGM-ENB-V008<br\/>Loopback : 172.23.199.18<br\/>Up-Time : 61 days, 2:14:51.72","type":"ESR","status":"1","hoto":"1"},{"lat":"15.8577","lng":"74.5345","name":"BLGMALRWESR003","address":"Sap : I-KA-BLGM-ENB-V009<br\/>Loopback : 172.23.194.51<br\/>Up-Time : 38 days, 15:01:19.37","type":"ESR","status":"1","hoto":"1"},{"lat":"15.8448","lng":"74.5203","name":"BLGMHDJBESR002","address":"Sap : I-KA-BLGM-ENB-V010<br\/>Loopback : 172.23.198.240<br\/>Up-Time : 17 days, 18:49:08.85","type":"ESR","status":"1","hoto":"1"},{"lat":"15.8549","lng":"74.5121","name":"BLGMSHPRESR002","address":"Sap : I-KA-BLGM-ENB-V011<br\/>Loopback : 172.23.197.87<br\/>Up-Time : 63 days, 0:26:59.47","type":"ESR","status":"1","hoto":"1"},{"lat":"15.8678","lng":"74.5095","name":"BLGMMLTYESR001","address":"Sap : I-KA-BLGM-ENB-V012<br\/>Loopback : 172.23.192.229<br\/>Up-Time : 37 days, 12:37:57.01","type":"ESR","status":"1","hoto":"1"},{"lat":"15.8637","lng":"74.5325","name":"BLGMRKMNESR001","address":"Sap : I-KA-BLGM-ENB-V013<br\/>Loopback : 172.23.199.164<br\/>Up-Time : 23 days, 18:18:49.24","type":"ESR","status":"1","hoto":"1"},{"lat":"15.8642","lng":"74.5189","name":"BLGMSHTYESR001","address":"Sap : I-KA-BLGM-ENB-V014<br\/>Loopback : 172.23.198.227<br\/>Up-Time : 47 days, 4:12:21.23","type":"ESR","status":"1","hoto":"1"},{"lat":"15.8532","lng":"74.5151","name":"BLGMSHPRESR004","address":"Sap : I-KA-BLGM-ENB-V015<br\/>Loopback : 172.23.192.233<br\/>Up-Time : 41 days, 18:33:43.50","type":"ESR","status":"1","hoto":"1"},{"lat":"15.8192","lng":"74.5016","name":"BLGMVIDYESR001","address":"Sap : I-KA-BLGM-ENB-V016<br\/>Loopback : 172.23.192.246<br\/>Up-Time : 49 days, 1:33:28.96","type":"ESR","status":"1","hoto":"1"},{"lat":"15.8462","lng":"74.5159","name":"BLGMSHVCESR002","address":"Sap : I-KA-BLGM-ENB-V017<br\/>Loopback : 172.23.194.118<br\/>Up-Time : 40 days, 13:23:54.87","type":"ESR","status":"1","hoto":"1"},{"lat":"15.814","lng":"74.8588","name":"BLHGBLHGESR002","address":"Sap : I-KA-BLHG-ENB-6000<br\/>Loopback : 172.23.193.141<br\/>Up-Time : 40 days, 11:37:00.61","type":"ESR","status":"1","hoto":"1"},{"lat":"15.819","lng":"74.8574","name":"BLHGBLHGESR001","address":"Sap : I-KA-BLHG-ENB-6001<br\/>Loopback : 172.23.196.147<br\/>Up-Time : 39 days, 5:38:31.91","type":"ESR","status":"1","hoto":"1"},{"lat":"13.35","lng":"75.4665","name":"BLHNBLHNESR001","address":"Sap : I-KA-BLHN-ENB-6000<br\/>Loopback : 172.23.198.113<br\/>Up-Time : 6:41:55.63","type":"ESR","status":"1","hoto":"1"},{"lat":"15.1535","lng":"76.9215","name":"BLLRDVINPAR003","address":"Sap : I-KA-BLLR-AG2-0001<br\/>Loopback : 172.16.98.21<br\/>Up-Time : ","type":"PAR","status":"1","hoto":"1"},{"lat":"15.1398","lng":"76.8907","name":"BLLRRMJYESR001","address":"Sap : I-KA-BLLR-ENB-0022<br\/>Loopback : 172.22.39.30<br\/>Up-Time : 49 days, 5:36:30.99","type":"ESR","status":"1","hoto":"1"},{"lat":"15.0995","lng":"76.8998","name":"BLLRBLLRESR009","address":"Sap : I-KA-BLLR-ENB-0026<br\/>Loopback : 172.22.38.185<br\/>Up-Time : 38 days, 11:43:33.27","type":"ESR","status":"1","hoto":"1"},{"lat":"15.1514","lng":"76.8919","name":"BLLRALDIESR002","address":"Sap : I-KA-BLLR-ENB-0029<br\/>Loopback : 172.22.41.15<br\/>Up-Time : 23 days, 15:37:05.42","type":"ESR","status":"1","hoto":"1"},{"lat":"15.169","lng":"76.9133","name":"BLLRAMBIESR001","address":"Sap : I-KA-BLLR-ENB-0034<br\/>Loopback : 172.22.40.103<br\/>Up-Time : 21 days, 16:52:04.41","type":"ESR","status":"1","hoto":"1"},{"lat":"15.1559","lng":"76.9221","name":"BLLRDVINESR001","address":"Sap : I-KA-BLLR-ENB-6003<br\/>Loopback : 172.22.34.143<br\/>Up-Time : 55 days, 5:55:40.81","type":"ESR","status":"1","hoto":"1"},{"lat":"15.1502","lng":"76.9365","name":"BLLRSTPTPAR001","address":"Sap : I-KA-BLLR-ENB-6016<br\/>Loopback : 172.16.53.141<br\/> ","type":"PAR","status":"0","hoto":"1"},{"lat":"15.0884","lng":"76.9612","name":"MNVIMNVIESR014","address":"Sap : I-KA-BLLR-ENB-6017<br\/>Loopback : 172.22.32.203<br\/>Up-Time : 4 days, 8:28:27.22","type":"ESR","status":"1","hoto":"1"},{"lat":"15.1437","lng":"77.0538","name":"GNKLGNKLESR007","address":"Sap : I-KA-BLLR-ENB-6019<br\/>Loopback : 172.22.37.80<br\/>Up-Time : 18 days, 20:13:56.54","type":"ESR","status":"1","hoto":"1"},{"lat":"15.1989","lng":"76.7565","name":"BLLRBLLRESR001","address":"Sap : I-KA-BLLR-ENB-6025<br\/>Loopback : 172.23.194.204<br\/>Up-Time : 26 days, 11:04:26.81","type":"ESR","status":"1","hoto":"1"},{"lat":"15.1544","lng":"76.9143","name":"BLLRSVCLESR001","address":"Sap : I-KA-BLLR-ENB-A004<br\/>Loopback : 172.22.37.254<br\/>Up-Time : 55 days, 4:07:02.55","type":"ESR","status":"1","hoto":"1"},{"lat":"15.1425","lng":"76.936","name":"BLLRSRIRESR001","address":"Sap : I-KA-BLLR-ENB-B002<br\/>Loopback : 172.22.35.153<br\/>Up-Time : 49 days, 5:39:08.87","type":"ESR","status":"1","hoto":"1"},{"lat":"15.1472","lng":"76.9421","name":"BLLRPTLNESR003","address":"Sap : I-KA-BLLR-ENB-B006<br\/>Loopback : 172.22.39.70<br\/> ","type":"ESR","status":"0","hoto":"1"},{"lat":"15.1553","lng":"76.8865","name":"BLLRKVPUESR001","address":"Sap : I-KA-BLLR-ENB-I001<br\/>Loopback : 172.22.41.209<br\/>Up-Time : 46 days, 13:04:51.71","type":"ESR","status":"1","hoto":"1"},{"lat":"15.1283","lng":"76.9489","name":"BLLRMLPTESR001","address":"Sap : I-KA-BLLR-ENB-I002<br\/>Loopback : 172.22.39.72<br\/>Up-Time : 49 days, 4:45:01.28","type":"ESR","status":"1","hoto":"1"},{"lat":"15.1606","lng":"76.8954","name":"BLLRVDYNESR001","address":"Sap : I-KA-BLLR-ENB-I003<br\/>Loopback : 172.22.41.13<br\/>Up-Time : 45 days, 9:38:32.64","type":"ESR","status":"1","hoto":"1"},{"lat":"15.1429","lng":"76.9959","name":"BLLRBLLRESR006","address":"Sap : I-KA-BLLR-ENB-I004<br\/>Loopback : 172.22.39.34<br\/>Up-Time : 14 days, 22:07:28.34","type":"ESR","status":"1","hoto":"1"},{"lat":"15.1464","lng":"76.9045","name":"BLLRBLRFESR001","address":"Sap : I-KA-BLLR-ENB-V001<br\/>Loopback : 172.22.34.141<br\/>Up-Time : 43 days, 2:29:55.26","type":"ESR","status":"1","hoto":"1"},{"lat":"15.1505","lng":"76.9452","name":"BLLRPTLNESR001","address":"Sap : I-KA-BLLR-ENB-V008<br\/>Loopback : 172.22.39.73<br\/>Up-Time : 12 days, 17:56:03.36","type":"ESR","status":"1","hoto":"1"},{"lat":"15.1555","lng":"76.8993","name":"BLLRCNTMESR001","address":"Sap : I-KA-BLLR-ENB-V011<br\/>Loopback : 172.22.41.208<br\/>Up-Time : 55 days, 4:05:26.52","type":"ESR","status":"1","hoto":"1"},{"lat":"15.1515","lng":"76.9223","name":"BLLRPRTIESR002","address":"Sap : I-KA-BLLR-ENB-W002<br\/>Loopback : 172.22.34.144<br\/>Up-Time : 34 days, 19:12:29.27","type":"ESR","status":"1","hoto":"1"},{"lat":"12.6666","lng":"75.37","name":"BLREBLREESR001","address":"Sap : I-KA-BLRE-ENB-6000<br\/>Loopback : 172.23.198.37<br\/>Up-Time : 9 days, 11:01:45.54","type":"ESR","status":"1","hoto":"1"},{"lat":"13.1709","lng":"75.8757","name":"BLURBLURPAR001","address":"Sap : I-KA-BLUR-ENB-6001<br\/>Loopback : 172.16.59.70<br\/>Up-Time : ","type":"PAR","status":"1","hoto":"1"},{"lat":"13.1641","lng":"75.866","name":"BLURBLURESR002","address":"Sap : I-KA-BLUR-ENB-6002<br\/>Loopback : 172.23.196.154<br\/>Up-Time : 52 days, 3:05:48.24","type":"ESR","status":"1","hoto":"1"},{"lat":"12.9871","lng":"78.1813","name":"BNGTBNGTESR001","address":"Sap : I-KA-BNGT-ENB-6001<br\/>Loopback : 172.23.138.191<br\/>Up-Time : 41 days, 15:08:50.92","type":"ESR","status":"1","hoto":"1"},{"lat":"12.9944","lng":"78.176","name":"BNGTBNGTESR003","address":"Sap : I-KA-BNGT-ENB-6002<br\/>Loopback : 172.23.132.8<br\/>Up-Time : 48 days, 0:03:20.17","type":"ESR","status":"1","hoto":"1"},{"lat":"12.994","lng":"78.2901","name":"BNGTBNGTESR002","address":"Sap : I-KA-BNGT-ENB-6006<br\/>Loopback : 172.23.132.16<br\/>Up-Time : 31 days, 12:12:43.04","type":"ESR","status":"1","hoto":"1"},{"lat":"12.9896","lng":"78.1785","name":"BNGTBNGTESR006","address":"Sap : I-KA-BNGT-ENB-B001<br\/>Loopback : 172.23.138.252<br\/>Up-Time : 13:09:36.56","type":"ESR","status":"1","hoto":"1"},{"lat":"12.9078","lng":"75.0414","name":"BNTLBNTLESR007","address":"Sap : I-KA-BNTL-ENB-6001<br\/>Loopback : 172.23.199.3<br\/>Up-Time : 47 days, 3:04:57.39","type":"ESR","status":"1","hoto":"1"},{"lat":"12.8827","lng":"75.0286","name":"BNTLBNTLPAR001","address":"Sap : I-KA-BNTL-ENB-6003<br\/>Loopback : 172.16.59.168<br\/>Up-Time : 66 days, 1:39:49.36","type":"PAR","status":"1","hoto":"1"},{"lat":"12.8418","lng":"75.0716","name":"BNTLBNTLESR005","address":"Sap : I-KA-BNTL-ENB-6004<br\/>Loopback : 172.23.198.18<br\/>Up-Time : 44 days, 11:29:00.37","type":"ESR","status":"1","hoto":"1"},{"lat":"12.8344","lng":"75.1191","name":"BNTLBNTLESR002","address":"Sap : I-KA-BNTL-ENB-6008<br\/>Loopback : 172.23.198.16<br\/>Up-Time : 10 days, 21:24:09.71","type":"ESR","status":"1","hoto":"1"},{"lat":"12.8703","lng":"75.0474","name":"BNTLBNTLESR013","address":"Sap : I-KA-BNTL-ENB-6011<br\/>Loopback : 172.23.193.164<br\/>Up-Time : 21 days, 5:41:55.47","type":"ESR","status":"1","hoto":"1"},{"lat":"12.8735","lng":"74.954","name":"BNTLBNTLESR006","address":"Sap : I-KA-BNTL-ENB-6012<br\/>Loopback : 172.23.198.3<br\/>Up-Time : 47 days, 4:29:00.16","type":"ESR","status":"1","hoto":"1"},{"lat":"12.7242","lng":"75.1526","name":"BNTLBNTLESR003","address":"Sap : I-KA-BNTL-ENB-6013<br\/>Loopback : 172.23.195.15<br\/>Up-Time : 33 days, 13:28:08.31","type":"ESR","status":"1","hoto":"1"},{"lat":"12.8697","lng":"74.989","name":"THMBTHMBESR001","address":"Sap : I-KA-BNTL-ENB-6016<br\/>Loopback : 172.23.198.2<br\/>Up-Time : 46 days, 21:28:09.94","type":"ESR","status":"1","hoto":"1"},{"lat":"12.8197","lng":"75.0809","name":"BNTLBNTLESR008","address":"Sap : I-KA-BNTL-ENB-6017<br\/>Loopback : 172.23.193.42<br\/>Up-Time : 44 days, 14:29:39.53","type":"ESR","status":"1","hoto":"1"},{"lat":"12.7639","lng":"75.1041","name":"BNTLBNTLESR004","address":"Sap : I-KA-BNTL-ENB-6018<br\/>Loopback : 172.23.196.188<br\/>Up-Time : 47 days, 3:04:59.87","type":"ESR","status":"1","hoto":"1"},{"lat":"12.7357","lng":"75.1102","name":"BNTLBNTLESR015","address":"Sap : I-KA-BNTL-ENB-6019<br\/>Loopback : 172.23.193.104<br\/>Up-Time : 37 days, 23:42:05.63","type":"ESR","status":"1","hoto":"1"},{"lat":"12.8986","lng":"75.0432","name":"BNTLBNTLESR011","address":"Sap : I-KA-BNTL-ENB-I001<br\/>Loopback : 172.23.196.184<br\/>Up-Time : 18 days, 17:15:24.76","type":"ESR","status":"1","hoto":"1"},{"lat":"12.8868","lng":"75.0352","name":"BNTLBNTLESR010","address":"Sap : I-KA-BNTL-ENB-V001<br\/>Loopback : 172.23.196.183<br\/>Up-Time : 40 days, 23:32:02.57","type":"ESR","status":"1","hoto":"1"},{"lat":"13.4089","lng":"76.1608","name":"BNVRBNVRPAR001","address":"Sap : I-KA-BNVR-ENB-6000<br\/>Loopback : 172.16.59.173<br\/>Up-Time : 66 days, 1:40:12.35","type":"PAR","status":"1","hoto":"1"},{"lat":"16.6014","lng":"74.5061","name":"BORGBORGESR001","address":"Sap : I-KA-BORG-ENB-6000<br\/>Loopback : 172.23.198.136<br\/>Up-Time : 37 days, 4:25:42.30","type":"ESR","status":"1","hoto":"1"},{"lat":"13.599","lng":"75.9734","name":"BRURBRURESR001","address":"Sap : I-KA-BRUR-ENB-6000<br\/>Loopback : 172.23.197.168<br\/>Up-Time : 52 days, 4:22:55.49","type":"ESR","status":"1","hoto":"1"},{"lat":"13.97","lng":"74.5341","name":"BTKLBTKLESR004","address":"Sap : I-KA-BTKL-ENB-6000<br\/>Loopback : 172.23.198.82<br\/>Up-Time : 10 days, 11:10:07.31","type":"ESR","status":"1","hoto":"1"},{"lat":"14.0138","lng":"74.5167","name":"BTKLBTKLESR005","address":"Sap : I-KA-BTKL-ENB-6001<br\/>Loopback : 172.23.198.84<br\/>Up-Time : 47 days, 2:22:15.52","type":"ESR","status":"1","hoto":"1"},{"lat":"13.9862","lng":"74.5479","name":"BTKLBTKLESR007","address":"Sap : I-KA-BTKL-ENB-6002<br\/>Loopback : 172.23.196.57<br\/>Up-Time : 31 days, 18:56:31.58","type":"ESR","status":"1","hoto":"1"},{"lat":"13.9989","lng":"74.5485","name":"BTKLBTKLESR008","address":"Sap : I-KA-BTKL-ENB-6003<br\/>Loopback : 172.23.198.83<br\/>Up-Time : 47 days, 2:22:38.48","type":"ESR","status":"1","hoto":"1"},{"lat":"13.9925","lng":"74.5527","name":"BTKLBTKLESR001","address":"Sap : I-KA-BTKL-ENB-6004<br\/>Loopback : 172.23.196.58<br\/>Up-Time : 47 days, 3:04:52.36","type":"ESR","status":"1","hoto":"1"},{"lat":"14.0952","lng":"74.4914","name":"BTKLBTKLESR003","address":"Sap : I-KA-BTKL-ENB-6005<br\/>Loopback : 172.23.198.88<br\/>Up-Time : 47 days, 2:20:29.35","type":"ESR","status":"1","hoto":"1"},{"lat":"14.0086","lng":"74.5354","name":"BTKLBTKLESR002","address":"Sap : I-KA-BTKL-ENB-6006<br\/>Loopback : 172.23.197.123<br\/>Up-Time : 47 days, 4:16:02.43","type":"ESR","status":"1","hoto":"1"},{"lat":"14.0286","lng":"74.5303","name":"BTKLBTKLESR006","address":"Sap : I-KA-BTKL-ENB-6007<br\/>Loopback : 172.23.198.87<br\/>Up-Time : 53 days, 1:42:42.43","type":"ESR","status":"1","hoto":"1"},{"lat":"14.1193","lng":"74.5067","name":"BTKLBTKLESR009","address":"Sap : I-KA-BTKL-ENB-9004<br\/>Loopback : 172.23.194.233<br\/>Up-Time : 28 days, 12:58:16.00","type":"ESR","status":"1","hoto":"1"},{"lat":"14.0817","lng":"74.5034","name":"BTKLBTKLESR010","address":"Sap : I-KA-BTKL-ENB-9008<br\/>Loopback : 172.23.194.42<br\/>Up-Time : 23 days, 17:10:49.56","type":"ESR","status":"1","hoto":"1"},{"lat":"13.9433","lng":"74.5932","name":"BTKLBTKLESR012","address":"Sap : I-KA-BTKL-ENB-I001<br\/>Loopback : 172.23.193.152<br\/>Up-Time : 49 days, 2:00:23.61","type":"ESR","status":"1","hoto":"1"},{"lat":"12.8577","lng":"75.1026","name":"BTLIBTLIESR001","address":"Sap : I-KA-BTLI-ENB-6000<br\/>Loopback : 172.23.198.17<br\/>Up-Time : 47 days, 2:22:06.73","type":"ESR","status":"1","hoto":"1"},{"lat":"17.8749","lng":"76.9538","name":"BVKLALHGESR001","address":"Sap : I-KA-BVKL-ENB-0001<br\/>Loopback : 172.22.136.29<br\/>Up-Time : 63 days, 6:23:25.03","type":"ESR","status":"1","hoto":"1"},{"lat":"17.8771","lng":"76.9484","name":"BVKLBKBGESR001","address":"Sap : I-KA-BVKL-ENB-6000<br\/>Loopback : 172.22.136.30<br\/>Up-Time : 38 days, 19:32:18.69","type":"ESR","status":"1","hoto":"1"},{"lat":"17.8605","lng":"76.9491","name":"BVKLSHVGESR001","address":"Sap : I-KA-BVKL-ENB-6001<br\/>Loopback : 172.22.136.71<br\/>Up-Time : 63 days, 2:12:47.62","type":"ESR","status":"1","hoto":"1"},{"lat":"17.8694","lng":"76.9458","name":"BVKLBELUESR001","address":"Sap : I-KA-BVKL-ENB-6002<br\/>Loopback : 172.22.131.186<br\/> ","type":"ESR","status":"0","hoto":"1"},{"lat":"17.857","lng":"76.9472","name":"BVKLMDVLESR001","address":"Sap : I-KA-BVKL-ENB-I001<br\/>Loopback : 172.22.129.15<br\/>Up-Time : 6 days, 6:10:48.78","type":"ESR","status":"1","hoto":"1"},{"lat":"17.8815","lng":"76.9558","name":"BVKLBSKBPAR001","address":"Sap : I-KA-BVKL-ILA-0001<br\/>Loopback : 172.16.42.44<br\/>Up-Time : 70 days, 5:12:29.87","type":"PAR","status":"1","hoto":"1"},{"lat":"17.8815","lng":"76.9558","name":"BVKLBSKBPAR002","address":"Sap : I-KA-BVKL-ILA-0001<br\/>Loopback : 172.16.42.45<br\/>Up-Time : 69 days, 2:57:16.42","type":"PAR","status":"1","hoto":"1"},{"lat":"14.2353","lng":"76.4015","name":"CDGACTDIPAR003","address":"Sap : I-KA-CDGA-ENB-0001<br\/>Loopback : 172.16.59.13<br\/>Up-Time : 69 days, 2:51:07.56","type":"PAR","status":"1","hoto":"1"},{"lat":"14.2353","lng":"76.4015","name":"CDGAJCREESR001","address":"Sap : I-KA-CDGA-ENB-0001<br\/>Loopback : 172.23.192.29<br\/>Up-Time : 27 days, 16:37:06.15","type":"ESR","status":"1","hoto":"1"},{"lat":"14.2224","lng":"76.3989","name":"CDGATNEUESR002","address":"Sap : I-KA-CDGA-ENB-0004<br\/>Loopback : 172.23.195.249<br\/>Up-Time : 42 days, 5:28:50.44","type":"ESR","status":"1","hoto":"1"},