var maplatlng = {"latlng":[{"lat":"23.0064","lng":"88.494","name":"KLKTMDPRESR002","address":"Sap : I-KO-CKDA-ENB-V128<br\/>Loopback : 172.23.251.13<br\/>Up-Time : 13 days, 11:44:45.38","type":"ESR","status":"1","hoto":"1"},{"lat":"22.907","lng":"88.3362","name":"KLKTGTTUESR001","address":"Sap : I-KO-DDPR-ENB-6001<br\/>Loopback : 172.23.248.16<br\/>Up-Time : 51 days, 0:08:32.08","type":"ESR","status":"1","hoto":"1"},{"lat":"22.6868","lng":"88.4518","name":"KLKTNYBTPAR002","address":"Sap : I-KO-KLKT-AG1-4479<br\/>Loopback : 172.16.76.202<br\/> ","type":"PAR","status":"0","hoto":"1"},{"lat":"22.5973","lng":"88.3277","name":"KLKTSLEPPAR901","address":"Sap : I-KO-KLKT-AG2-0001<br\/>Loopback : 172.16.76.204<br\/>Up-Time : 21 days, 11:58:39.79","type":"PAR","status":"1","hoto":"1"},{"lat":"22.7331","lng":"88.4672","name":"KLKTNYBTPAR001","address":"Sap : I-KO-KLKT-AG2-0002<br\/>Loopback : 172.16.76.169<br\/>Up-Time : 66 days, 2:55:53.01","type":"PAR","status":"1","hoto":"1"},{"lat":"22.6648","lng":"88.3673","name":"KLKTAADAAAR001","address":"Sap : I-KO-KLKT-AG2-0003<br\/>Loopback : 49.44.0.207<br\/>Up-Time : 81 days, 10:01:00.66","type":"AAR","status":"1","hoto":"0"},{"lat":"22.4316","lng":"88.4181","name":"KLKTMISNPAR001","address":"Sap : I-KO-KLKT-AG2-0009<br\/>Loopback : 172.16.76.248<br\/>Up-Time : 57 days, 23:14:48.49","type":"PAR","status":"1","hoto":"1"},{"lat":"22.5745","lng":"88.1768","name":"KLKTDLGIPAR002","address":"Sap : I-KO-KLKT-AG2-0010<br\/>Loopback : 172.16.77.137<br\/> ","type":"PAR","status":"0","hoto":"1"},{"lat":"22.5722","lng":"88.4339","name":"KLKTSLEPPAR002","address":"Sap : I-KO-KLKT-AG3-0001<br\/>Loopback : 172.16.76.2<br\/>Up-Time : 98 days, 16:38:18.40","type":"PAR","status":"1","hoto":"1"},{"lat":"22.5722","lng":"88.4339","name":"KLKTSLEPPAR003","address":"Sap : I-KO-KLKT-AG3-0001<br\/>Loopback : 172.16.76.206<br\/>Up-Time : 69 days, 1:30:35.54","type":"PAR","status":"1","hoto":"1"},{"lat":"22.7775","lng":"88.313","name":"KLKTSRPLPAR001","address":"Sap : I-KO-KLKT-ENB-0001<br\/>Loopback : 172.16.76.178<br\/> ","type":"PAR","status":"0","hoto":"1"},{"lat":"22.4981","lng":"88.3748","name":"KLKTVKNGPAR001","address":"Sap : I-KO-KLKT-ENB-0002<br\/>Loopback : 172.16.77.106<br\/>Up-Time : 18 days, 19:53:16.83","type":"PAR","status":"1","hoto":"1"},{"lat":"22.5813","lng":"88.4061","name":"KLKTSLFBESR001","address":"Sap : I-KO-KLKT-ENB-0004<br\/>Loopback : 172.23.240.53<br\/>Up-Time : 24 days, 10:19:50.23","type":"ESR","status":"1","hoto":"1"},{"lat":"22.5783","lng":"88.4176","name":"KLKTSLGDESR001","address":"Sap : I-KO-KLKT-ENB-0005<br\/>Loopback : 172.23.247.104<br\/>Up-Time : 24 days, 17:33:57.06","type":"ESR","status":"1","hoto":"1"},{"lat":"22.5084","lng":"88.3958","name":"KLKTECTFPAR001","address":"Sap : I-KO-KLKT-ENB-0013<br\/>Loopback : 172.16.77.81<br\/>Up-Time : 74 days, 0:42:58.21","type":"PAR","status":"1","hoto":"1"},{"lat":"22.4778","lng":"88.3637","name":"KLKTSHDGESR001","address":"Sap : I-KO-KLKT-ENB-0018<br\/>Loopback : 172.23.247.210<br\/>Up-Time : 18 days, 10:05:57.51","type":"ESR","status":"1","hoto":"1"},{"lat":"22.6464","lng":"88.3717","name":"KLKTALMBESR003","address":"Sap : I-KO-KLKT-ENB-0020<br\/>Loopback : 172.23.247.35<br\/>Up-Time : 45 days, 3:38:07.53","type":"ESR","status":"1","hoto":"1"},{"lat":"22.6369","lng":"88.3763","name":"KLKTMLKLESR002","address":"Sap : I-KO-KLKT-ENB-0021<br\/>Loopback : 172.23.246.246<br\/> ","type":"ESR","status":"0","hoto":"1"},{"lat":"22.6371","lng":"88.3692","name":"KLKTBRHGESR001","address":"Sap : I-KO-KLKT-ENB-0022<br\/>Loopback : 172.23.245.241<br\/>Up-Time : 45 days, 17:30:13.81","type":"ESR","status":"1","hoto":"1"},{"lat":"22.6297","lng":"88.3713","name":"KLKTKSPUESR010","address":"Sap : I-KO-KLKT-ENB-0024<br\/>Loopback : 172.23.255.4<br\/>Up-Time : 44 days, 3:16:03.49","type":"ESR","status":"1","hoto":"1"},{"lat":"22.651","lng":"88.3805","name":"KLKTBHGIPAR001","address":"Sap : I-KO-KLKT-ENB-0026<br\/>Loopback : 172.16.76.87<br\/>Up-Time : 46 days, 18:39:57.46","type":"PAR","status":"1","hoto":"1"},{"lat":"22.5256","lng":"88.368","name":"KLKTBLGPESR001","address":"Sap : I-KO-KLKT-ENB-0029<br\/>Loopback : 172.23.247.162<br\/>Up-Time : 45 days, 4:03:36.67","type":"ESR","status":"1","hoto":"1"},{"lat":"22.527","lng":"88.3747","name":"KLKTNTRPESR002","address":"Sap : I-KO-KLKT-ENB-0030<br\/>Loopback : 172.23.255.72<br\/>Up-Time : 11 days, 12:35:48.21","type":"ESR","status":"1","hoto":"1"},{"lat":"22.5222","lng":"88.3799","name":"KLKTNBLGESR001","address":"Sap : I-KO-KLKT-ENB-0031<br\/>Loopback : 172.23.252.226<br\/>Up-Time : 44 days, 2:43:02.45","type":"ESR","status":"1","hoto":"1"},{"lat":"22.5269","lng":"88.3497","name":"KLKTPDPUESR001","address":"Sap : I-KO-KLKT-ENB-0033<br\/>Loopback : 172.23.251.3<br\/>Up-Time : 8 days, 10:11:38.99","type":"ESR","status":"1","hoto":"1"},{"lat":"22.5293","lng":"88.342","name":"KLKTPTPRESR004","address":"Sap : I-KO-KLKT-ENB-0034<br\/>Loopback : 172.23.253.192<br\/> ","type":"ESR","status":"0","hoto":"1"},{"lat":"22.5293","lng":"88.342","name":"KLKTPTPRPAR002","address":"Sap : I-KO-KLKT-ENB-0034<br\/>Loopback : 172.16.77.186<br\/>Up-Time : 61 days, 17:30:51.54","type":"PAR","status":"1","hoto":"1"},{"lat":"22.5861","lng":"88.3558","name":"KLKTJRSKESR004","address":"Sap : I-KO-KLKT-ENB-0048<br\/>Loopback : 172.23.254.95<br\/>Up-Time : 44 days, 3:43:16.46","type":"ESR","status":"1","hoto":"1"},{"lat":"22.6063","lng":"88.4066","name":"KLKTLKTAESR002","address":"Sap : I-KO-KLKT-ENB-0049<br\/>Loopback : 172.23.248.98<br\/>Up-Time : 45 days, 4:01:32.15","type":"ESR","status":"1","hoto":"1"},{"lat":"22.6033","lng":"88.404","name":"KLKTLKTEESR001","address":"Sap : I-KO-KLKT-ENB-0050<br\/>Loopback : 172.23.245.13<br\/>Up-Time : 54 days, 5:15:07.55","type":"ESR","status":"1","hoto":"1"},{"lat":"22.5112","lng":"88.378","name":"KLKTSTBGESR001","address":"Sap : I-KO-KLKT-ENB-0051<br\/>Loopback : 172.23.251.227<br\/>Up-Time : 44 days, 3:55:47.03","type":"ESR","status":"1","hoto":"1"},{"lat":"22.5119","lng":"88.3754","name":"KLKTKMLPESR001","address":"Sap : I-KO-KLKT-ENB-0052<br\/>Loopback : 172.23.252.154<br\/>Up-Time : 44 days, 15:46:58.74","type":"ESR","status":"1","hoto":"1"},{"lat":"22.5381","lng":"88.3864","name":"KLKTTPSIESR004","address":"Sap : I-KO-KLKT-ENB-0055<br\/>Loopback : 172.23.251.91<br\/>Up-Time : 44 days, 3:35:20.65","type":"ESR","status":"1","hoto":"1"},{"lat":"22.5459","lng":"88.3492","name":"KLKTRSLSPAR001","address":"Sap : I-KO-KLKT-ENB-0058<br\/>Loopback : 172.16.77.194<br\/>Up-Time : 70 days, 5:55:03.38","type":"PAR","status":"1","hoto":"1"},{"lat":"22.5739","lng":"88.4163","name":"KLKTSLDLESR001","address":"Sap : I-KO-KLKT-ENB-0060<br\/>Loopback : 172.23.240.55<br\/> ","type":"ESR","status":"0","hoto":"1"},{"lat":"22.5768","lng":"88.4136","name":"KLKTSLHAESR001","address":"Sap : I-KO-KLKT-ENB-0061<br\/>Loopback : 172.23.240.56<br\/>Up-Time : 11 days, 16:04:40.86","type":"ESR","status":"1","hoto":"1"},{"lat":"22.5557","lng":"88.3572","name":"KLKTRPNSESR001","address":"Sap : I-KO-KLKT-ENB-0064<br\/>Loopback : 172.23.250.119<br\/>Up-Time : 54 days, 13:29:36.80","type":"ESR","status":"1","hoto":"1"},{"lat":"22.5742","lng":"88.3629","name":"KLKTAHSSESR003","address":"Sap : I-KO-KLKT-ENB-0065<br\/>Loopback : 172.23.254.202<br\/>Up-Time : 15:00:04.72","type":"ESR","status":"1","hoto":"1"},{"lat":"22.5964","lng":"88.372","name":"KLKTHTBGPAR001","address":"Sap : I-KO-KLKT-ENB-0066<br\/>Loopback : 172.16.76.98<br\/>Up-Time : 37 days, 13:08:44.95","type":"PAR","status":"1","hoto":"1"},{"lat":"22.5649","lng":"88.3419","name":"KLKTBUGTESR003","address":"Sap : I-KO-KLKT-ENB-0070<br\/>Loopback : 172.23.254.211<br\/>Up-Time : 44 days, 2:16:34.52","type":"ESR","status":"1","hoto":"1"},{"lat":"22.6817","lng":"88.4042","name":"KLKTUHKRESR001","address":"Sap : I-KO-KLKT-ENB-0071<br\/>Loopback : 172.23.247.169<br\/>Up-Time : 45 days, 4:04:42.70","type":"ESR","status":"1","hoto":"1"},{"lat":"22.6992","lng":"88.3486","name":"KLKTMTPRESR003","address":"Sap : I-KO-KLKT-ENB-0072<br\/>Loopback : 172.23.247.143<br\/>Up-Time : 25 days, 12:28:14.47","type":"ESR","status":"1","hoto":"1"},{"lat":"22.843","lng":"88.3677","name":"KLKTGDLPESR001","address":"Sap : I-KO-KLKT-ENB-0073<br\/>Loopback : 172.23.250.14<br\/>Up-Time : 45 days, 3:28:39.91","type":"ESR","status":"1","hoto":"1"},{"lat":"22.5294","lng":"88.3685","name":"KLKTBLYGESR002","address":"Sap : I-KO-KLKT-ENB-0079<br\/>Loopback : 172.23.249.92<br\/>Up-Time : 45 days, 1:25:19.86","type":"ESR","status":"1","hoto":"1"},{"lat":"22.5929","lng":"88.4188","name":"KLKTSLCFESR001","address":"Sap : I-KO-KLKT-ENB-0081<br\/>Loopback : 172.23.240.19<br\/>Up-Time : 7 days, 15:27:09.92","type":"ESR","status":"1","hoto":"1"},{"lat":"22.5987","lng":"88.4128","name":"KLKTSLBEESR002","address":"Sap : I-KO-KLKT-ENB-0082<br\/>Loopback : 172.23.240.20<br\/>Up-Time : 54 days, 5:22:03.07","type":"ESR","status":"1","hoto":"1"},{"lat":"22.5987","lng":"88.4286","name":"KLKTKSTPESR003","address":"Sap : I-KO-KLKT-ENB-0093<br\/>Loopback : 172.23.254.194<br\/>Up-Time : 41 days, 15:43:12.76","type":"ESR","status":"1","hoto":"1"},{"lat":"22.612","lng":"88.4159","name":"KLKTSTGBPAR001","address":"Sap : I-KO-KLKT-ENB-0098<br\/>Loopback : 172.16.77.102<br\/>Up-Time : 69 days, 1:32:01.59","type":"PAR","status":"1","hoto":"1"},{"lat":"22.6143","lng":"88.4117","name":"KLKTSTGBESR001","address":"Sap : I-KO-KLKT-ENB-0102<br\/>Loopback : 172.23.249.87<br\/>Up-Time : 45 days, 1:27:14.73","type":"ESR","status":"1","hoto":"1"},{"lat":"22.6123","lng":"88.4047","name":"KLKTHZPRESR001","address":"Sap : I-KO-KLKT-ENB-0108<br\/>Loopback : 172.23.244.187<br\/>Up-Time : 54 days, 4:55:56.91","type":"ESR","status":"1","hoto":"1"},{"lat":"22.6128","lng":"88.43","name":"KLKTRDPYESR002","address":"Sap : I-KO-KLKT-ENB-0114<br\/>Loopback : 172.23.246.236<br\/>Up-Time : 52 days, 23:59:37.28","type":"ESR","status":"1","hoto":"1"},{"lat":"22.6009","lng":"88.4135","name":"KLKTSLAEESR001","address":"Sap : I-KO-KLKT-ENB-0116<br\/>Loopback : 172.23.245.20<br\/>Up-Time : 54 days, 5:21:35.72","type":"ESR","status":"1","hoto":"1"},{"lat":"22.6206","lng":"88.4082","name":"KLKTAMRLESR003","address":"Sap : I-KO-KLKT-ENB-0118<br\/>Loopback : 172.23.253.195<br\/>Up-Time : 19 days, 11:07:14.18","type":"ESR","status":"1","hoto":"1"},{"lat":"22.6114","lng":"88.4014","name":"KLKTKLDHESR002","address":"Sap : I-KO-KLKT-ENB-0120<br\/>Loopback : 172.23.251.92<br\/>Up-Time : 44 days, 3:36:41.67","type":"ESR","status":"1","hoto":"1"},{"lat":"22.6182","lng":"88.4036","name":"KLKTJWPRESR001","address":"Sap : I-KO-KLKT-ENB-0121<br\/>Loopback : 172.23.248.160<br\/>Up-Time : 41 days, 16:45:13.19","type":"ESR","status":"1","hoto":"1"},{"lat":"22.6297","lng":"88.4254","name":"KLKTKMDGESR001","address":"Sap : I-KO-KLKT-ENB-0124<br\/>Loopback : 172.23.246.255<br\/>Up-Time : 39 days, 11:37:53.63","type":"ESR","status":"1","hoto":"1"},{"lat":"22.6215","lng":"88.4352","name":"KLKTTGRIPAR001","address":"Sap : I-KO-KLKT-ENB-0127<br\/>Loopback : 172.16.76.62<br\/>Up-Time : 70 days, 5:49:28.21","type":"PAR","status":"1","hoto":"1"},{"lat":"22.596","lng":"88.4131","name":"KLKTSLBEESR001","address":"Sap : I-KO-KLKT-ENB-0131<br\/>Loopback : 172.23.240.17<br\/>Up-Time : 45 days, 2:38:49.54","type":"ESR","status":"1","hoto":"1"},{"lat":"22.5977","lng":"88.4161","name":"KLKTSLBFPAR001","address":"Sap : I-KO-KLKT-ENB-0132<br\/>Loopback : 172.16.76.5<br\/>Up-Time : 70 days, 5:56:02.46","type":"PAR","status":"1","hoto":"1"},{"lat":"22.6014","lng":"88.4318","name":"KLKTRBDYESR001","address":"Sap : I-KO-KLKT-ENB-0133<br\/>Loopback : 172.23.250.122<br\/>Up-Time : 35 days, 13:40:30.27","type":"ESR","status":"1","hoto":"1"},{"lat":"22.6017","lng":"88.4059","name":"KLKTLKTBESR001","address":"Sap : I-KO-KLKT-ENB-0135<br\/>Loopback : 172.23.252.99<br\/>Up-Time : 44 days, 2:23:16.55","type":"ESR","status":"1","hoto":"1"},{"lat":"22.638","lng":"88.4215","name":"KLKTJSPHESR001","address":"Sap : I-KO-KLKT-ENB-0142<br\/>Loopback : 172.23.249.115<br\/>Up-Time : 45 days, 2:13:31.94","type":"ESR","status":"1","hoto":"1"},{"lat":"22.5992","lng":"88.4369","name":"KLKTGSPKESR001","address":"Sap : I-KO-KLKT-ENB-0146<br\/>Loopback : 172.23.245.231<br\/>Up-Time : 41 days, 13:06:01.88","type":"ESR","status":"1","hoto":"1"},{"lat":"22.6037","lng":"88.4102","name":"KLKTBNURESR003","address":"Sap : I-KO-KLKT-ENB-0149<br\/>Loopback : 172.23.254.127<br\/>Up-Time : 44 days, 2:28:04.17","type":"ESR","status":"1","hoto":"1"},{"lat":"22.5933","lng":"88.4156","name":"KLKTSLCFPAR001","address":"Sap : I-KO-KLKT-ENB-0150<br\/>Loopback : 172.16.76.32<br\/>Up-Time : 38 days, 17:11:13.41","type":"PAR","status":"1","hoto":"1"},{"lat":"22.601","lng":"88.3939","name":"KLKTPTKRESR002","address":"Sap : I-KO-KLKT-ENB-0154<br\/>Loopback : 172.23.254.214<br\/>Up-Time : 44 days, 2:16:52.59","type":"ESR","status":"1","hoto":"1"},{"lat":"22.6297","lng":"88.4044","name":"KLKTPBSTESR004","address":"Sap : I-KO-KLKT-ENB-0158<br\/>Loopback : 172.23.250.128<br\/>Up-Time : 45 days, 1:49:32.09","type":"ESR","status":"1","hoto":"1"},{"lat":"22.6264","lng":"88.3962","name":"KLKTPBSTESR002","address":"Sap : I-KO-KLKT-ENB-0159<br\/>Loopback : 172.23.248.97<br\/>Up-Time : 45 days, 4:00:44.89","type":"ESR","status":"1","hoto":"1"},{"lat":"22.6224","lng":"88.4413","name":"KLKTCHRPESR001","address":"Sap : I-KO-KLKT-ENB-0166<br\/>Loopback : 172.23.254.1<br\/>Up-Time : 44 days, 2:51:29.68","type":"ESR","status":"1","hoto":"1"},{"lat":"22.5983","lng":"88.4488","name":"KLKTJYGRESR003","address":"Sap : I-KO-KLKT-ENB-0168<br\/>Loopback : 172.23.253.200<br\/>Up-Time : 40 days, 0:57:39.04","type":"ESR","status":"1","hoto":"1"},{"lat":"22.5835","lng":"88.4116","name":"KLKTSLFDESR001","address":"Sap : I-KO-KLKT-ENB-0169<br\/>Loopback : 172.23.240.51<br\/>Up-Time : 54 days, 5:22:19.92","type":"ESR","status":"1","hoto":"1"},{"lat":"22.5884","lng":"88.4063","name":"KLKTSLDCESR001","address":"Sap : I-KO-KLKT-ENB-0170<br\/>Loopback : 172.23.240.42<br\/>Up-Time : 54 days, 5:23:27.65","type":"ESR","status":"1","hoto":"1"},{"lat":"22.5913","lng":"88.4248","name":"KLKTSLBJESR001","address":"Sap : I-KO-KLKT-ENB-0174<br\/>Loopback : 172.23.240.18<br\/>Up-Time : 45 days, 2:44:41.47","type":"ESR","status":"1","hoto":"1"},{"lat":"22.6115","lng":"88.3896","name":"KLKTSHDLESR001","address":"Sap : I-KO-KLKT-ENB-0177<br\/>Loopback : 172.23.250.246<br\/>Up-Time : 45 days, 2:05:04.39","type":"ESR","status":"1","hoto":"1"},{"lat":"22.6355","lng":"88.4074","name":"KLKTSBNGESR001","address":"Sap : I-KO-KLKT-ENB-0181<br\/>Loopback : 172.23.247.243<br\/>Up-Time : 34 days, 6:53:21.99","type":"ESR","status":"1","hoto":"1"},{"lat":"22.6495","lng":"88.4146","name":"KLKTRPYNESR002","address":"Sap : I-KO-KLKT-ENB-0183<br\/>Loopback : 172.23.254.170<br\/>Up-Time : 44 days, 3:57:16.37","type":"ESR","status":"1","hoto":"1"},{"lat":"22.6026","lng":"88.4521","name":"KLKTSLGRESR001","address":"Sap : I-KO-KLKT-ENB-0187<br\/>Loopback : 172.23.253.186<br\/>Up-Time : 39 days, 0:52:56.87","type":"ESR","status":"1","hoto":"1"},{"lat":"22.6354","lng":"88.4606","name":"KLKTRGCHESR002","address":"Sap : I-KO-KLKT-ENB-0188<br\/>Loopback : 172.23.248.103<br\/>Up-Time : 45 days, 0:27:28.18","type":"ESR","status":"1","hoto":"1"},{"lat":"22.5936","lng":"88.398","name":"KLKTSLAAESR002","address":"Sap : I-KO-KLKT-ENB-0192<br\/>Loopback : 172.23.254.138<br\/>Up-Time : 18 days, 20:59:08.52","type":"ESR","status":"1","hoto":"1"},{"lat":"22.5854","lng":"88.4212","name":"KLKTCTPKESR002","address":"Sap : I-KO-KLKT-ENB-0194<br\/>Loopback : 172.23.240.61<br\/>Up-Time : 54 days, 5:10:28.17","type":"ESR","status":"1","hoto":"1"},{"lat":"22.4301","lng":"88.3416","name":"KLKTBRMPESR001","address":"Sap : I-KO-KLKT-ENB-0197<br\/>Loopback : 172.23.246.91<br\/>Up-Time : 16 days, 8:58:09.85","type":"ESR","status":"1","hoto":"1"},{"lat":"22.4601","lng":"88.3069","name":"KLKTPRNDESR001","address":"Sap : I-KO-KLKT-ENB-0198<br\/>Loopback : 172.23.254.115<br\/>Up-Time : 44 days, 2:20:19.39","type":"ESR","status":"1","hoto":"1"},{"lat":"22.5649","lng":"88.318","name":"KLKTBNEPESR001","address":"Sap : I-KO-KLKT-ENB-0200<br\/>Loopback : 172.23.246.250<br\/>Up-Time : 40 days, 9:59:49.21","type":"ESR","status":"1","hoto":"1"},{"lat":"22.5049","lng":"88.245","name":"KLKTCDNAESR002","address":"Sap : I-KO-KLKT-ENB-0202<br\/>Loopback : 172.23.252.44<br\/>Up-Time : 38 days, 11:32:39.53","type":"ESR","status":"1","hoto":"1"},{"lat":"22.8618","lng":"88.3923","name":"KLKTPRMCESR002","address":"Sap : I-KO-KLKT-ENB-0204<br\/>Loopback : 172.23.246.160<br\/>Up-Time : 16 days, 12:50:20.84","type":"ESR","status":"1","hoto":"1"},{"lat":"22.5876","lng":"88.4296","name":"KLKTSLBKESR001","address":"Sap : I-KO-KLKT-ENB-0206<br\/>Loopback : 172.23.240.8<br\/>Up-Time : 52 days, 9:42:59.81","type":"ESR","status":"1","hoto":"1"},{"lat":"22.8766","lng":"88.3696","name":"KLKTCHTRPAR001","address":"Sap : I-KO-KLKT-ENB-0207<br\/>Loopback : 172.16.77.100<br\/>Up-Time : 74 days, 1:03:55.17","type":"PAR","status":"1","hoto":"1"},{"lat":"22.8615","lng":"88.4065","name":"KLKTJGDLPAR001","address":"Sap : I-KO-KLKT-ENB-0208<br\/>Loopback : 172.16.76.53<br\/>Up-Time : 74 days, 0:29:00.34","type":"PAR","status":"1","hoto":"1"},{"lat":"22.4506","lng":"88.4361","name":"KLKTAPNGESR001","address":"Sap : I-KO-KLKT-ENB-0211<br\/>Loopback : 172.23.248.64<br\/>Up-Time : 14:04:18.79","type":"ESR","status":"1","hoto":"1"},{"lat":"22.4313","lng":"88.4213","name":"KLKTSKNTPAR001","address":"Sap : I-KO-KLKT-ENB-0214<br\/>Loopback : 172.16.76.100<br\/>Up-Time : 10 days, 15:16:15.26","type":"PAR","status":"1","hoto":"1"},{"lat":"22.4522","lng":"88.2906","name":"KLKTTKPUESR002","address":"Sap : I-KO-KLKT-ENB-0218<br\/>Loopback : 172.23.252.179<br\/>Up-Time : 44 days, 3:37:47.99","type":"ESR","status":"1","hoto":"1"},{"lat":"22.4878","lng":"88.2234","name":"KLKTNDMRPAR002","address":"Sap : I-KO-KLKT-ENB-0219<br\/>Loopback : 172.16.77.129<br\/>Up-Time : 39 days, 17:46:16.44","type":"PAR","status":"1","hoto":"1"},{"lat":"22.5091","lng":"88.2505","name":"KLKTBAGNPAR001","address":"Sap : I-KO-KLKT-ENB-0221<br\/>Loopback : 172.16.76.199<br\/>Up-Time : 70 days, 7:19:10.17","type":"PAR","status":"1","hoto":"1"},{"lat":"22.8676","lng":"88.4026","name":"KLKTPRMCESR005","address":"Sap : I-KO-KLKT-ENB-0225<br\/>Loopback : 172.23.253.140<br\/>Up-Time : 17 days, 16:20:28.71","type":"ESR","status":"1","hoto":"1"},{"lat":"22.8829","lng":"88.4217","name":"KLKTNHTIESR001","address":"Sap : I-KO-KLKT-ENB-0226<br\/>Loopback : 172.23.251.48<br\/>Up-Time : 44 days, 2:56:33.10","type":"ESR","status":"1","hoto":"1"},{"lat":"22.8779","lng":"88.4336","name":"KLKTDOGHESR001","address":"Sap : I-KO-KLKT-ENB-0227<br\/>Loopback : 172.23.246.136<br\/>Up-Time : 8 days, 18:55:51.92","type":"ESR","status":"1","hoto":"1"},{"lat":"22.4472","lng":"88.4524","name":"KLKTJGDAESR001","address":"Sap : I-KO-KLKT-ENB-0229<br\/>Loopback : 172.23.247.37<br\/>Up-Time : 2 days, 5:07:26.08","type":"ESR","status":"1","hoto":"1"},{"lat":"22.4282","lng":"88.4339","name":"KLKTSKNTESR002","address":"Sap : I-KO-KLKT-ENB-0230<br\/>Loopback : 172.23.245.83<br\/>Up-Time : 40 days, 11:56:27.86","type":"ESR","status":"1","hoto":"1"},{"lat":"22.4211","lng":"88.4125","name":"KLKTGGCYESR001","address":"Sap : I-KO-KLKT-ENB-0231<br\/>Loopback : 172.23.245.198<br\/>Up-Time : 54 days, 5:12:55.15","type":"ESR","status":"1","hoto":"1"},{"lat":"22.8869","lng":"88.3892","name":"KLKTKPDGPAR002","address":"Sap : I-KO-KLKT-ENB-0235<br\/>Loopback : 172.16.77.183<br\/>Up-Time : 69 days, 1:32:59.64","type":"PAR","status":"1","hoto":"1"},{"lat":"22.8854","lng":"88.3722","name":"KLKTCHCRESR001","address":"Sap : I-KO-KLKT-ENB-0237<br\/>Loopback : 172.23.250.160<br\/>Up-Time : 45 days, 2:23:44.95","type":"ESR","status":"1","hoto":"1"},{"lat":"22.8812","lng":"88.3937","name":"KLKTSNKEESR001","address":"Sap : I-KO-KLKT-ENB-0238<br\/>Loopback : 172.23.250.197<br\/>Up-Time : 45 days, 2:41:36.79","type":"ESR","status":"1","hoto":"1"},{"lat":"22.5838","lng":"88.4352","name":"KLKTSLANESR001","address":"Sap : I-KO-KLKT-ENB-0239<br\/>Loopback : 172.23.240.26<br\/>Up-Time : 25 days, 13:29:21.00","type":"ESR","status":"1","hoto":"1"},{"lat":"22.8838","lng":"88.4145","name":"KLKTTHKRPAR001","address":"Sap : I-KO-KLKT-ENB-0242<br\/>Loopback : 172.16.76.96<br\/>Up-Time : 69 days, 1:30:45.25","type":"PAR","status":"1","hoto":"1"},{"lat":"22.4344","lng":"88.4586","name":"KLKTHSNRESR001","address":"Sap : I-KO-KLKT-ENB-0244<br\/>Loopback : 172.23.247.248<br\/>Up-Time : 26 days, 13:00:41.75","type":"ESR","status":"1","hoto":"1"},{"lat":"22.5133","lng":"88.2337","name":"KLKTKSNGESR001","address":"Sap : I-KO-KLKT-ENB-0249<br\/>Loopback : 172.23.250.145<br\/>Up-Time : 45 days, 2:25:59.18","type":"ESR","status":"1","hoto":"1"},{"lat":"22.5916","lng":"88.3926","name":"KLKTUDGAPAR002","address":"Sap : I-KO-KLKT-ENB-0250<br\/>Loopback : 172.16.76.37<br\/>Up-Time : 7 days, 18:20:36.55","type":"PAR","status":"1","hoto":"1"},{"lat":"22.8903","lng":"88.4014","name":"KLKTHGLYESR001","address":"Sap : I-KO-KLKT-ENB-0251<br\/>Loopback : 172.23.250.159<br\/>Up-Time : 53 days, 0:08:12.43","type":"ESR","status":"1","hoto":"1"},{"lat":"22.8942","lng":"88.4369","name":"KLKTRCDPESR003","address":"Sap : I-KO-KLKT-ENB-0253<br\/>Loopback : 172.23.249.250<br\/>Up-Time : 6 days, 16:29:04.40","type":"ESR","status":"1","hoto":"1"},{"lat":"22.892","lng":"88.4259","name":"KLKTNISMESR001","address":"Sap : I-KO-KLKT-ENB-0254<br\/>Loopback : 172.23.245.194<br\/>Up-Time : 45 days, 2:35:35.25","type":"ESR","status":"1","hoto":"1"},{"lat":"22.896","lng":"88.3997","name":"KLKTHGLYESR003","address":"Sap : I-KO-KLKT-ENB-0255<br\/>Loopback : 172.23.250.51<br\/>Up-Time : 45 days, 2:47:59.08","type":"ESR","status":"1","hoto":"1"},{"lat":"22.8965","lng":"88.414","name":"KLKTGRIFESR003","address":"Sap : I-KO-KLKT-ENB-0256<br\/>Loopback : 172.23.246.153<br\/>Up-Time : 19 days, 7:42:01.22","type":"ESR","status":"1","hoto":"1"},{"lat":"22.8967","lng":"88.4192","name":"KLKTGRIFESR004","address":"Sap : I-KO-KLKT-ENB-0257<br\/>Loopback : 172.23.245.24<br\/>Up-Time : 9 days, 18:15:12.10","type":"ESR","status":"1","hoto":"1"},{"lat":"22.4114","lng":"88.4421","name":"KLKTMTRPESR001","address":"Sap : I-KO-KLKT-ENB-0260<br\/>Loopback : 172.23.252.100<br\/>Up-Time : 38 days, 7:46:15.33","type":"ESR","status":"1","hoto":"1"},{"lat":"22.4284","lng":"88.4462","name":"KLKTMTRPESR005","address":"Sap : I-KO-KLKT-ENB-0262<br\/>Loopback : 172.23.247.91<br\/>Up-Time : 7 days, 14:31:35.42","type":"ESR","status":"1","hoto":"1"},{"lat":"22.4077","lng":"88.4099","name":"KLKTSRMRPAR001","address":"Sap : I-KO-KLKT-ENB-0263<br\/>Loopback : 172.16.76.101<br\/>Up-Time : 70 days, 5:55:57.17","type":"PAR","status":"1","hoto":"1"},{"lat":"22.9071","lng":"88.3986","name":"KLKTOCDLESR006","address":"Sap : I-KO-KLKT-ENB-0267<br\/>Loopback : 172.23.254.189<br\/>Up-Time : 35 days, 17:09:37.09","type":"ESR","status":"1","hoto":"1"},{"lat":"22.5032","lng":"88.215","name":"KLKTNNGIESR001","address":"Sap : I-KO-KLKT-ENB-0270<br\/>Loopback : 172.23.246.21<br\/>Up-Time : 54 days, 1:40:31.61","type":"ESR","status":"1","hoto":"1"},{"lat":"22.9126","lng":"88.4107","name":"KLKTKRGRESR003","address":"Sap : I-KO-KLKT-ENB-0274<br\/>Loopback : 172.23.251.160<br\/>Up-Time : 27 days, 16:31:29.29","type":"ESR","status":"1","hoto":"1"},{"lat":"22.4056","lng":"88.4494","name":"KLKTMTRPESR002","address":"Sap : I-KO-KLKT-ENB-0276<br\/>Loopback : 172.23.247.160<br\/>Up-Time : 20 days, 15:38:59.52","type":"ESR","status":"1","hoto":"1"},{"lat":"22.4868","lng":"88.1967","name":"KLKTUTRPESR001","address":"Sap : I-KO-KLKT-ENB-0278<br\/>Loopback : 172.23.245.76<br\/>Up-Time : 24 days, 13:37:35.32","type":"ESR","status":"1","hoto":"1"},{"lat":"22.9192","lng":"88.3831","name":"KLKTOKLIESR001","address":"Sap : I-KO-KLKT-ENB-0279<br\/>Loopback : 172.23.232.31<br\/>Up-Time : 53 days, 0:17:20.85","type":"ESR","status":"1","hoto":"1"},{"lat":"22.9214","lng":"88.388","name":"KLKTSBHNPAR003","address":"Sap : I-KO-KLKT-ENB-0280<br\/>Loopback : 172.16.77.172<br\/>Up-Time : 67 days, 20:15:03.35","type":"PAR","status":"1","hoto":"1"},{"lat":"22.6104","lng":"88.3806","name":"KLKTTALAPAR001","address":"Sap : I-KO-KLKT-ENB-0283<br\/>Loopback : 172.16.77.135<br\/>Up-Time : 70 days, 5:49:25.20","type":"PAR","status":"1","hoto":"1"},{"lat":"22.9099","lng":"88.43","name":"KLKTBLBHPAR001","address":"Sap : I-KO-KLKT-ENB-0284<br\/>Loopback : 172.16.77.16<br\/>Up-Time : 57 days, 19:56:10.54","type":"PAR","status":"1","hoto":"1"},{"lat":"22.9204","lng":"88.4144","name":"KLKTNIHTESR001","address":"Sap : I-KO-KLKT-ENB-0292<br\/>Loopback : 172.23.248.24<br\/>Up-Time : 34 days, 11:42:35.80","type":"ESR","status":"1","hoto":"1"},{"lat":"22.9207","lng":"88.4222","name":"KLKTNIHTESR007","address":"Sap : I-KO-KLKT-ENB-0293<br\/>Loopback : 172.23.253.106<br\/>Up-Time : 44 days, 2:24:37.40","type":"ESR","status":"1","hoto":"1"},{"lat":"22.3711","lng":"88.4345","name":"KLKTGDPRESR002","address":"Sap : I-KO-KLKT-ENB-0298<br\/>Loopback : 172.23.232.38<br\/> ","type":"ESR","status":"0","hoto":"1"},{"lat":"22.4817","lng":"88.1817","name":"KLKTKOLIESR001","address":"Sap : I-KO-KLKT-ENB-0299<br\/>Loopback : 172.23.255.74<br\/>Up-Time : 44 days, 3:18:57.10","type":"ESR","status":"1","hoto":"1"},{"lat":"22.4723","lng":"88.2053","name":"KLKTUTRUESR001","address":"Sap : I-KO-KLKT-ENB-0301<br\/>Loopback : 172.23.245.25<br\/>Up-Time : 24 days, 11:55:57.06","type":"ESR","status":"1","hoto":"1"},{"lat":"22.9372","lng":"88.3902","name":"KLKTTGRHESR002","address":"Sap : I-KO-KLKT-ENB-0303<br\/>Loopback : 172.23.250.252<br\/>Up-Time : 45 days, 1:53:58.60","type":"ESR","status":"1","hoto":"1"},{"lat":"22.9291","lng":"88.4264","name":"KLKTKCNPESR003","address":"Sap : I-KO-KLKT-ENB-0304<br\/>Loopback : 172.23.247.94<br\/>Up-Time : 26 days, 11:35:13.37","type":"ESR","status":"1","hoto":"1"},{"lat":"22.919","lng":"88.4364","name":"KLKTJYNPESR002","address":"Sap : I-KO-KLKT-ENB-0308<br\/>Loopback : 172.23.249.3<br\/>Up-Time : 12 days, 11:20:59.21","type":"ESR","status":"1","hoto":"1"},{"lat":"22.3649","lng":"88.4375","name":"KLKTMDRTESR001","address":"Sap : I-KO-KLKT-ENB-0311<br\/>Loopback : 172.23.246.192<br\/>Up-Time : 40 days, 13:44:57.04","type":"ESR","status":"1","hoto":"1"},{"lat":"22.6853","lng":"88.3553","name":"KLKTGSPRESR001","address":"Sap : I-KO-KLKT-ENB-0312<br\/>Loopback : 172.23.253.147<br\/>Up-Time : 50 days, 23:45:37.07","type":"ESR","status":"1","hoto":"1"},{"lat":"22.5007","lng":"88.1725","name":"KLKTEBKLPAR001","address":"Sap : I-KO-KLKT-ENB-0313<br\/>Loopback : 172.16.76.74<br\/>Up-Time : 49 days, 15:38:07.11","type":"PAR","status":"1","hoto":"1"},{"lat":"22.6314","lng":"88.3931","name":"KLKTSBNRPAR001","address":"Sap : I-KO-KLKT-ENB-0316<br\/>Loopback : 172.16.76.61<br\/>Up-Time : 67 days, 15:20:15.17","type":"PAR","status":"1","hoto":"1"},{"lat":"22.938","lng":"88.4014","name":"KLKTTGRHESR001","address":"Sap : I-KO-KLKT-ENB-0318<br\/>Loopback : 172.23.248.184<br\/>Up-Time : 45 days, 4:22:15.51","type":"ESR","status":"1","hoto":"1"},{"lat":"22.9384","lng":"88.4291","name":"KLKTKCNPESR002","address":"Sap : I-KO-KLKT-ENB-0319<br\/>Loopback : 172.23.247.47<br\/>Up-Time : 45 days, 3:04:30.30","type":"ESR","status":"1","hoto":"1"},{"lat":"22.3581","lng":"88.4333","name":"KLKTRSIBESR001","address":"Sap : I-KO-KLKT-ENB-0324<br\/>Loopback : 172.23.246.223<br\/>Up-Time : 51 days, 15:21:25.20","type":"ESR","status":"1","hoto":"1"},{"lat":"22.9288","lng":"88.4343","name":"KLKTKCNPPAR002","address":"Sap : I-KO-KLKT-ENB-0329<br\/>Loopback : 172.16.76.120<br\/>Up-Time : 70 days, 7:18:58.92","type":"PAR","status":"1","hoto":"1"},{"lat":"22.9585","lng":"88.4028","name":"KLKTMLPYESR004","address":"Sap : I-KO-KLKT-ENB-0330<br\/>Loopback : 172.23.251.93<br\/>Up-Time : 44 days, 3:37:41.79","type":"ESR","status":"1","hoto":"1"},{"lat":"22.9503","lng":"88.42","name":"KLKTHLSAESR002","address":"Sap : I-KO-KLKT-ENB-0331<br\/>Loopback : 172.23.249.253<br\/>Up-Time : 3 days, 13:09:50.27","type":"ESR","status":"1","hoto":"1"},{"lat":"22.9288","lng":"88.4638","name":"KLKTJYNPPAR001","address":"Sap : I-KO-KLKT-ENB-0334<br\/>Loopback : 172.16.76.51<br\/>Up-Time : 8 days, 11:34:14.81","type":"PAR","status":"1","hoto":"1"},{"lat":"22.3503","lng":"88.4364","name":"KLKTRSIBPAR001","address":"Sap : I-KO-KLKT-ENB-0337<br\/>Loopback : 172.16.76.247<br\/>Up-Time : 50 days, 14:19:05.21","type":"PAR","status":"1","hoto":"1"},{"lat":"22.9455","lng":"88.4432","name":"KLKTMLNGESR001","address":"Sap : I-KO-KLKT-ENB-0339<br\/>Loopback : 172.23.255.194<br\/>Up-Time : 27 days, 13:33:36.83","type":"ESR","status":"1","hoto":"1"},{"lat":"22.9669","lng":"88.3974","name":"KLKTBSBIPAR001","address":"Sap : I-KO-KLKT-ENB-0343<br\/>Loopback : 172.16.77.65<br\/>Up-Time : 70 days, 7:18:21.17","type":"PAR","status":"1","hoto":"1"},{"lat":"22.9471","lng":"88.4653","name":"KLKTNGDHPAR001","address":"Sap : I-KO-KLKT-ENB-0346<br\/>Loopback : 172.16.77.66<br\/>Up-Time : 21 days, 16:58:25.62","type":"PAR","status":"1","hoto":"1"},{"lat":"22.967","lng":"88.3886","name":"KLKTNMGRESR002","address":"Sap : I-KO-KLKT-ENB-0348<br\/>Loopback : 172.23.249.193<br\/>Up-Time : 45 days, 3:09:51.05","type":"ESR","status":"1","hoto":"1"},{"lat":"22.9783","lng":"88.3728","name":"KLKTMNJRESR002","address":"Sap : I-KO-KLKT-ENB-0349<br\/>Loopback : 172.23.245.33<br\/>Up-Time : 3 days, 14:47:05.57","type":"ESR","status":"1","hoto":"1"},{"lat":"22.9409","lng":"88.4338","name":"KLKTKCNPPAR001","address":"Sap : I-KO-KLKT-ENB-0352<br\/>Loopback : 172.16.76.49<br\/>Up-Time : 55 days, 18:24:32.41","type":"PAR","status":"1","hoto":"1"},{"lat":"22.9521","lng":"88.429","name":"KLKTMLNGESR002","address":"Sap : I-KO-KLKT-ENB-0355<br\/>Loopback : 172.23.248.106<br\/>Up-Time : 11 days, 18:37:14.86","type":"ESR","status":"1","hoto":"1"},{"lat":"22.532","lng":"88.3222","name":"KLKTMIPRPAR001","address":"Sap : I-KO-KLKT-ENB-0359<br\/>Loopback : 172.16.77.174<br\/>Up-Time : 69 days, 2:12:00.55","type":"PAR","status":"1","hoto":"1"},{"lat":"22.9702","lng":"88.4357","name":"KLKTKYBMESR001","address":"Sap : I-KO-KLKT-ENB-0365<br\/>Loopback : 172.23.244.94<br\/>Up-Time : 53 days, 23:58:13.26","type":"ESR","status":"1","hoto":"1"},{"lat":"22.9727","lng":"88.4256","name":"KLKTKYBCPAR001","address":"Sap : I-KO-KLKT-ENB-0367<br\/>Loopback : 172.16.77.14<br\/>Up-Time : 38 days, 5:40:00.62","type":"PAR","status":"1","hoto":"1"},{"lat":"22.9946","lng":"88.394","name":"KLKTTRBNESR001","address":"Sap : I-KO-KLKT-ENB-0368<br\/>Loopback : 172.23.245.32<br\/>Up-Time : 21 days, 16:19:17.61","type":"ESR","status":"1","hoto":"1"},{"lat":"22.5909","lng":"88.4588","name":"KLKTJTGCESR001","address":"Sap : I-KO-KLKT-ENB-0370<br\/>Loopback : 172.23.250.170<br\/>Up-Time : 1 day, 12:32:53.81","type":"ESR","status":"1","hoto":"1"},{"lat":"22.4921","lng":"88.3348","name":"KLKTSRTIESR001","address":"Sap : I-KO-KLKT-ENB-0373<br\/>Loopback : 172.23.254.19<br\/>Up-Time : 44 days, 2:41:14.80","type":"ESR","status":"1","hoto":"1"},{"lat":"22.4504","lng":"88.1386","name":"KLKTMUKLESR001","address":"Sap : I-KO-KLKT-ENB-0376<br\/>Loopback : 172.23.253.168<br\/>Up-Time : 4 days, 12:19:20.24","type":"ESR","status":"1","hoto":"1"},{"lat":"22.9634","lng":"88.4534","name":"KLKTKLAEPAR001","address":"Sap : I-KO-KLKT-ENB-0377<br\/>Loopback : 172.16.77.15<br\/>Up-Time : 7 days, 15:36:01.61","type":"PAR","status":"1","hoto":"1"},{"lat":"22.9481","lng":"88.4445","name":"KLKTMLNGESR005","address":"Sap : I-KO-KLKT-ENB-0379<br\/>Loopback : 172.23.254.174<br\/>Up-Time : 40 days, 17:06:30.78","type":"ESR","status":"1","hoto":"1"},{"lat":"22.5826","lng":"88.372","name":"KLKTJMPRPAR001","address":"Sap : I-KO-KLKT-ENB-0381<br\/>Loopback : 172.16.77.69<br\/>Up-Time : 68 days, 7:05:19.98","type":"PAR","status":"1","hoto":"1"},{"lat":"22.6439","lng":"88.3685","name":"KLKTAHKGESR003","address":"Sap : I-KO-KLKT-ENB-0383<br\/>Loopback : 172.23.247.61<br\/>Up-Time : 45 days, 2:59:38.17","type":"ESR","status":"1","hoto":"1"},{"lat":"22.9662","lng":"88.4596","name":"KLKTKLAKESR001","address":"Sap : I-KO-KLKT-ENB-0386<br\/>Loopback : 172.23.244.96<br\/>Up-Time : 45 days, 2:53:17.51","type":"ESR","status":"1","hoto":"1"},{"lat":"22.6","lng":"88.4723","name":"KLKTATINESR001","address":"Sap : I-KO-KLKT-ENB-0391<br\/>Loopback : 172.23.251.76<br\/>Up-Time : 39 days, 14:53:37.02","type":"ESR","status":"1","hoto":"1"},{"lat":"22.9715","lng":"88.4466","name":"KLKTBDPLPAR001","address":"Sap : I-KO-KLKT-ENB-0392<br\/>Loopback : 172.16.77.17<br\/>Up-Time : 67 days, 6:16:14.67","type":"PAR","status":"1","hoto":"1"},{"lat":"22.4235","lng":"88.1539","name":"KLKTBRPRESR001","address":"Sap : I-KO-KLKT-ENB-0395<br\/>Loopback : 172.23.245.95<br\/>Up-Time : 27 days, 8:22:28.65","type":"ESR","status":"1","hoto":"1"},{"lat":"22.422","lng":"88.1176","name":"KLKTDKNRESR004","address":"Sap : I-KO-KLKT-ENB-0396<br\/>Loopback : 172.23.247.19<br\/>Up-Time : 26 days, 9:28:20.35","type":"ESR","status":"1","hoto":"1"},{"lat":"22.4683","lng":"88.0994","name":"KLKTNONAPAR001","address":"Sap : I-KO-KLKT-ENB-0397<br\/>Loopback : 172.16.77.195<br\/>Up-Time : 21 days, 15:46:13.48","type":"PAR","status":"1","hoto":"1"},{"lat":"22.456","lng":"88.11","name":"KLKTJGDBPAR001","address":"Sap : I-KO-KLKT-ENB-0398<br\/>Loopback : 172.16.76.76<br\/>Up-Time : 11 days, 14:49:44.18","type":"PAR","status":"1","hoto":"1"},{"lat":"22.9772","lng":"88.4708","name":"KLKTKIGAPAR001","address":"Sap : I-KO-KLKT-ENB-0400<br\/>Loopback : 172.16.77.154<br\/>Up-Time : 69 days, 2:12:26.57","type":"PAR","status":"1","hoto":"1"},{"lat":"22.6398","lng":"88.4714","name":"KLKTRGCHESR003","address":"Sap : I-KO-KLKT-ENB-0401<br\/>Loopback : 172.23.243.92<br\/> ","type":"ESR","status":"0","hoto":"1"},{"lat":"22.6497","lng":"88.3633","name":"KLKTALMBPAR001","address":"Sap : I-KO-KLKT-ENB-0403<br\/>Loopback : 172.16.76.63<br\/>Up-Time : 108 days, 14:00:23.86","type":"PAR","status":"1","hoto":"1"},{"lat":"22.4827","lng":"88.1047","name":"KLKTJGTPPAR001","address":"Sap : I-KO-KLKT-ENB-0404<br\/>Loopback : 172.16.77.90<br\/>Up-Time : 60 days, 14:44:34.61","type":"PAR","status":"1","hoto":"1"},{"lat":"22.4226","lng":"88.1651","name":"KLKTRIPUPAR001","address":"Sap : I-KO-KLKT-ENB-0406<br\/>Loopback : 172.16.76.107<br\/>Up-Time : 68 days, 7:07:14.91","type":"PAR","status":"1","hoto":"1"},{"lat":"22.6234","lng":"88.4713","name":"KLKTATIAESR001","address":"Sap : I-KO-KLKT-ENB-0408<br\/>Loopback : 172.23.251.26<br\/> ","type":"ESR","status":"0","hoto":"1"},{"lat":"22.6198","lng":"88.4128","name":"KLKTAMRLESR002","address":"Sap : I-KO-KLKT-ENB-0409<br\/>Loopback : 172.23.248.159<br\/>Up-Time : 45 days, 4:21:34.55","type":"ESR","status":"1","hoto":"1"},{"lat":"22.4072","lng":"88.091","name":"KLKTDKNRPAR002","address":"Sap : I-KO-KLKT-ENB-0412<br\/>Loopback : 172.16.76.78<br\/>Up-Time : 59 days, 14:43:29.31","type":"PAR","status":"1","hoto":"1"},{"lat":"22.6577","lng":"88.349","name":"KLKTUTPRESR006","address":"Sap : I-KO-KLKT-ENB-0413<br\/>Loopback : 172.23.250.110<br\/>Up-Time : 45 days, 1:59:05.02","type":"ESR","status":"1","hoto":"1"},{"lat":"22.575","lng":"88.3249","name":"KLKTFZRBPAR001","address":"Sap : I-KO-KLKT-ENB-0416<br\/>Loopback : 172.16.77.87<br\/>Up-Time : 74 days, 0:43:25.41","type":"PAR","status":"1","hoto":"1"},{"lat":"22.3804","lng":"88.1179","name":"KLKTBURLESR001","address":"Sap : I-KO-KLKT-ENB-0417<br\/>Loopback : 172.23.245.71<br\/>Up-Time : 17 days, 17:09:24.42","type":"ESR","status":"1","hoto":"1"},{"lat":"22.5847","lng":"88.3274","name":"KLKTBSPRESR003","address":"Sap : I-KO-KLKT-ENB-0421<br\/>Loopback : 172.23.247.131<br\/>Up-Time : 19 days, 10:36:58.27","type":"ESR","status":"1","hoto":"1"},{"lat":"22.586","lng":"88.4485","name":"KLKTNTAFESR001","address":"Sap : I-KO-KLKT-ENB-0427<br\/>Loopback : 172.23.248.63<br\/>Up-Time : 45 days, 4:21:38.32","type":"ESR","status":"1","hoto":"1"},{"lat":"22.5341","lng":"88.2282","name":"KLKTPCMPESR002","address":"Sap : I-KO-KLKT-ENB-0429<br\/>Loopback : 172.23.249.2<br\/>Up-Time : 51 days, 0:10:22.31","type":"ESR","status":"1","hoto":"1"},{"lat":"22.5477","lng":"88.2259","name":"KLKTOMPRPAR001","address":"Sap : I-KO-KLKT-ENB-0430<br\/>Loopback : 172.16.76.218<br\/>Up-Time : 67 days, 14:55:47.48","type":"PAR","status":"1","hoto":"1"},{"lat":"22.5488","lng":"88.2543","name":"KLKTKNCTESR001","address":"Sap : I-KO-KLKT-ENB-0433<br\/>Loopback : 172.23.250.48<br\/>Up-Time : 45 days, 3:41:56.91","type":"ESR","status":"1","hoto":"1"},{"lat":"22.5653","lng":"88.2354","name":"KLKTJRHTESR001","address":"Sap : I-KO-KLKT-ENB-0434<br\/>Loopback : 172.23.253.111<br\/> ","type":"ESR","status":"0","hoto":"1"},{"lat":"22.5256","lng":"88.3452","name":"KLKTPTPRESR002","address":"Sap : I-KO-KLKT-ENB-0435<br\/>Loopback : 172.23.248.157<br\/>Up-Time : 45 days, 4:22:41.43","type":"ESR","status":"1","hoto":"1"},{"lat":"22.5266","lng":"88.3417","name":"KLKTPTPRESR003","address":"Sap : I-KO-KLKT-ENB-0436<br\/>Loopback : 172.23.251.96<br\/>Up-Time : 43 days, 16:33:46.10","type":"ESR","status":"1","hoto":"1"},{"lat":"22.4786","lng":"88.1201","name":"KLKTSNGIESR001","address":"Sap : I-KO-KLKT-ENB-0439<br\/>Loopback : 172.23.250.70<br\/>Up-Time : 38 days, 13:02:39.06","type":"ESR","status":"1","hoto":"1"},{"lat":"22.6737","lng":"88.3519","name":"KLKTBDRKESR002","address":"Sap : I-KO-KLKT-ENB-0441<br\/>Loopback : 172.23.253.116<br\/>Up-Time : 44 days, 2:14:28.53","type":"ESR","status":"1","hoto":"1"},{"lat":"22.5316","lng":"88.3418","name":"KLKTALPBESR003","address":"Sap : I-KO-KLKT-ENB-0442<br\/>Loopback : 172.23.253.110<br\/>Up-Time : 18 days, 13:15:21.93","type":"ESR","status":"1","hoto":"1"},{"lat":"22.4875","lng":"88.122","name":"KLKTKRPRESR001","address":"Sap : I-KO-KLKT-ENB-0443<br\/>Loopback : 172.23.246.195<br\/>Up-Time : 3 days, 13:27:04.77","type":"ESR","status":"1","hoto":"1"},{"lat":"22.4948","lng":"88.2091","name":"KLKTEDNCESR001","address":"Sap : I-KO-KLKT-ENB-0446<br\/>Loopback : 172.23.254.11<br\/>Up-Time : 44 days, 2:56:33.38","type":"ESR","status":"1","hoto":"1"},{"lat":"22.5728","lng":"88.1704","name":"KLKTSDPRESR002","address":"Sap : I-KO-KLKT-ENB-0447<br\/>Loopback : 172.23.255.197<br\/>Up-Time : 50 days, 23:26:42.26","type":"ESR","status":"1","hoto":"1"},{"lat":"22.5613","lng":"88.1801","name":"KLKTSDPRESR001","address":"Sap : I-KO-KLKT-ENB-0449<br\/>Loopback : 172.23.249.209<br\/>Up-Time : 22 days, 21:08:39.30","type":"ESR","status":"1","hoto":"1"},{"lat":"22.5833","lng":"88.1659","name":"KLKTGDRPPAR001","address":"Sap : I-KO-KLKT-ENB-0452<br\/>Loopback : 172.16.76.93<br\/>Up-Time : 53 days, 18:09:47.93","type":"PAR","status":"1","hoto":"1"},{"lat":"22.941","lng":"88.4159","name":"KLKTMNSPESR001","address":"Sap : I-KO-KLKT-ENB-0453<br\/>Loopback : 172.23.247.48<br\/>Up-Time : 45 days, 3:02:09.15","type":"ESR","status":"1","hoto":"1"},{"lat":"22.5872","lng":"88.4018","name":"KLKTSLCAESR001","address":"Sap : I-KO-KLKT-ENB-0457<br\/>Loopback : 172.23.240.36<br\/>Up-Time : 45 days, 2:51:53.03","type":"ESR","status":"1","hoto":"1"},{"lat":"22.5425","lng":"88.1268","name":"KLKTPCPHESR001","address":"Sap : I-KO-KLKT-ENB-0458<br\/>Loopback : 172.23.250.73<br\/> ","type":"ESR","status":"0","hoto":"1"},{"lat":"22.5784","lng":"88.2296","name":"KLKTMSILPAR001","address":"Sap : I-KO-KLKT-ENB-0462<br\/>Loopback : 172.16.76.109<br\/>Up-Time : 14:31:26.31","type":"PAR","status":"1","hoto":"1"},{"lat":"22.5847","lng":"88.2454","name":"KLKTKMRGESR001","address":"Sap : I-KO-KLKT-ENB-0463<br\/>Loopback : 172.23.245.74<br\/>Up-Time : 54 days, 3:26:01.39","type":"ESR","status":"1","hoto":"1"},{"lat":"22.5967","lng":"88.2254","name":"KLKTAGRIESR001","address":"Sap : I-KO-KLKT-ENB-0464<br\/>Loopback : 172.23.247.163<br\/>Up-Time : 45 days, 4:04:15.52","type":"ESR","status":"1","hoto":"1"},{"lat":"22.594","lng":"88.2441","name":"KLKTKMRGESR002","address":"Sap : I-KO-KLKT-ENB-0465<br\/>Loopback : 172.23.245.99<br\/>Up-Time : 24 days, 19:19:20.10","type":"ESR","status":"1","hoto":"1"},{"lat":"22.5987","lng":"88.2131","name":"KLKTSNKHESR001","address":"Sap : I-KO-KLKT-ENB-0466<br\/>Loopback : 172.23.248.96<br\/>Up-Time : 37 days, 11:04:09.41","type":"ESR","status":"1","hoto":"1"},{"lat":"22.5964","lng":"88.2548","name":"KLKTGHRBESR001","address":"Sap : I-KO-KLKT-ENB-0467<br\/>Loopback : 172.23.249.189<br\/>Up-Time : 6 days, 20:40:32.77","type":"ESR","status":"1","hoto":"1"},{"lat":"22.4135","lng":"88.2681","name":"KLKTDKNKESR002","address":"Sap : I-KO-KLKT-ENB-0485<br\/>Loopback : 172.23.245.90<br\/>Up-Time : 48 days, 3:27:51.84","type":"ESR","status":"1","hoto":"1"},{"lat":"22.581","lng":"88.4267","name":"KLKTSLDLPAR001","address":"Sap : I-KO-KLKT-ENB-0486<br\/>Loopback : 172.16.76.4<br\/>Up-Time : 70 days, 5:54:24.57","type":"PAR","status":"1","hoto":"1"},{"lat":"22.597","lng":"88.4255","name":"KLKTSLAHESR001","address":"Sap : I-KO-KLKT-ENB-0491<br\/>Loopback : 172.23.240.59<br\/>Up-Time : 45 days, 3:11:33.26","type":"ESR","status":"1","hoto":"1"},{"lat":"22.5902","lng":"88.4023","name":"KLKTSLBBESR001","address":"Sap : I-KO-KLKT-ENB-0494<br\/>Loopback : 172.23.240.54<br\/>Up-Time : 54 days, 5:23:18.08","type":"ESR","status":"1","hoto":"1"},{"lat":"22.5795","lng":"88.4237","name":"KLKTSLEEESR001","address":"Sap : I-KO-KLKT-ENB-0497<br\/>Loopback : 172.23.240.9<br\/>Up-Time : 54 days, 5:23:11.11","type":"ESR","status":"1","hoto":"1"},{"lat":"22.3175","lng":"88.2892","name":"KLKTKEPRESR001","address":"Sap : I-KO-KLKT-ENB-0502<br\/>Loopback : 172.23.243.137<br\/>Up-Time : 26 days, 20:48:07.02","type":"ESR","status":"1","hoto":"1"},{"lat":"22.3341","lng":"88.2348","name":"KLKTGBDRESR001","address":"Sap : I-KO-KLKT-ENB-0506<br\/>Loopback : 172.23.246.20<br\/>Up-Time : 24 days, 13:27:12.79","type":"ESR","status":"1","hoto":"1"},{"lat":"22.4968","lng":"88.1996","name":"KLKTBDGEPAR001","address":"Sap : I-KO-KLKT-ENB-0510<br\/>Loopback : 172.16.76.45<br\/>Up-Time : 70 days, 7:18:56.91","type":"PAR","status":"1","hoto":"1"},{"lat":"22.6041","lng":"88.2215","name":"KLKTBPRNESR001","address":"Sap : I-KO-KLKT-ENB-0511<br\/>Loopback : 172.23.249.137<br\/>Up-Time : 38 days, 11:54:29.32","type":"ESR","status":"1","hoto":"1"},{"lat":"22.6018","lng":"88.2335","name":"KLKTMKRJESR001","address":"Sap : I-KO-KLKT-ENB-0512<br\/>Loopback : 172.23.248.225<br\/>Up-Time : 45 days, 1:36:31.65","type":"ESR","status":"1","hoto":"1"},{"lat":"22.615","lng":"88.2235","name":"KLKTBEGRESR001","address":"Sap : I-KO-KLKT-ENB-0513<br\/>Loopback : 172.23.248.237<br\/>Up-Time : 10 days, 15:02:08.26","type":"ESR","status":"1","hoto":"1"},{"lat":"22.6392","lng":"88.2264","name":"KLKTSHTLESR001","address":"Sap : I-KO-KLKT-ENB-0515<br\/>Loopback : 172.23.249.128<br\/>Up-Time : 45 days, 2:09:12.66","type":"ESR","status":"1","hoto":"1"},{"lat":"22.5443","lng":"88.3277","name":"KLKTWTGJESR002","address":"Sap : I-KO-KLKT-ENB-0516<br\/>Loopback : 172.23.252.112<br\/>Up-Time : 44 days, 2:30:20.32","type":"ESR","status":"1","hoto":"1"},{"lat":"22.6023","lng":"88.3016","name":"KLKTBTKRESR003","address":"Sap : I-KO-KLKT-ENB-0517<br\/>Loopback : 172.23.247.228<br\/>Up-Time : 51 days, 0:04:30.36","type":"ESR","status":"1","hoto":"1"},{"lat":"22.5841","lng":"88.3914","name":"KLKTGHSGESR002","address":"Sap : I-KO-KLKT-ENB-0519<br\/>Loopback : 172.23.254.166<br\/>Up-Time : 44 days, 3:55:51.43","type":"ESR","status":"1","hoto":"1"},{"lat":"22.6515","lng":"88.2641","name":"KLKTEKHIESR001","address":"Sap : I-KO-KLKT-ENB-0525<br\/>Loopback : 172.23.247.181<br\/>Up-Time : 45 days, 4:00:28.10","type":"ESR","status":"1","hoto":"1"},{"lat":"22.6022","lng":"88.3417","name":"KLKTBMGCESR004","address":"Sap : I-KO-KLKT-ENB-0526<br\/>Loopback : 172.23.245.52<br\/>Up-Time : 45 days, 1:32:36.02","type":"ESR","status":"1","hoto":"1"},{"lat":"22.593","lng":"88.3848","name":"KLKTUDGAESR006","address":"Sap : I-KO-KLKT-ENB-0528<br\/>Loopback : 172.23.254.152<br\/>Up-Time : 44 days, 3:44:09.38","type":"ESR","status":"1","hoto":"1"},{"lat":"22.5655","lng":"88.4666","name":"KLKTDHRLESR001","address":"Sap : I-KO-KLKT-ENB-0530<br\/>Loopback : 172.23.246.152<br\/>Up-Time : 43 days, 8:19:22.80","type":"ESR","status":"1","hoto":"1"},{"lat":"22.7732","lng":"88.3952","name":"KLKTMHNPESR002","address":"Sap : I-KO-KLKT-ENB-0534<br\/>Loopback : 172.23.251.190<br\/>Up-Time : 23 days, 12:40:46.63","type":"ESR","status":"1","hoto":"1"},{"lat":"22.7503","lng":"88.4188","name":"KLKTNBRDESR001","address":"Sap : I-KO-KLKT-ENB-0536<br\/>Loopback : 172.23.250.173<br\/>Up-Time : 26 days, 18:22:28.26","type":"ESR","status":"1","hoto":"1"},{"lat":"22.7349","lng":"88.4093","name":"KLKTDGHIESR001","address":"Sap : I-KO-KLKT-ENB-0540<br\/>Loopback : 172.23.253.108<br\/>Up-Time : 6 days, 17:12:35.41","type":"ESR","status":"1","hoto":"1"},{"lat":"22.3931","lng":"88.3098","name":"KLKTKSTMESR001","address":"Sap : I-KO-KLKT-ENB-0542<br\/>Loopback : 172.23.246.22<br\/>Up-Time : 23 days, 13:13:43.95","type":"ESR","status":"1","hoto":"1"},{"lat":"22.6077","lng":"88.3787","name":"KLKTTALAESR001","address":"Sap : I-KO-KLKT-ENB-0548<br\/>Loopback : 172.23.247.136<br\/>Up-Time : 11 days, 11:46:02.30","type":"ESR","status":"1","hoto":"1"},{"lat":"22.5947","lng":"88.3574","name":"KLKTAHTLESR003","address":"Sap : I-KO-KLKT-ENB-0551<br\/>Loopback : 172.23.253.31<br\/>Up-Time : 53 days, 0:04:16.22","type":"ESR","status":"1","hoto":"1"},{"lat":"22.5226","lng":"88.3463","name":"KLKTANMIESR001","address":"Sap : I-KO-KLKT-ENB-0552<br\/>Loopback : 172.23.248.156<br\/>Up-Time : 6 days, 11:40:23.75","type":"ESR","status":"1","hoto":"1"},{"lat":"22.5413","lng":"88.1486","name":"KLKTBLDBPAR001","address":"Sap : I-KO-KLKT-ENB-0555<br\/>Loopback : 172.16.77.89<br\/>Up-Time : 21 days, 5:25:55.60","type":"PAR","status":"1","hoto":"1"},{"lat":"22.3648","lng":"88.2866","name":"KLKTCHNIPAR001","address":"Sap : I-KO-KLKT-ENB-0559<br\/>Loopback : 172.16.76.104<br\/>Up-Time : 6 days, 19:18:59.29","type":"PAR","status":"1","hoto":"1"},{"lat":"22.3693","lng":"88.2716","name":"KLKTKHTNPAR001","address":"Sap : I-KO-KLKT-ENB-0560<br\/>Loopback : 172.16.76.105<br\/>Up-Time : 69 days, 2:12:46.38","type":"PAR","status":"1","hoto":"1"},{"lat":"22.3748","lng":"88.297","name":"KLKTCKEYESR001","address":"Sap : I-KO-KLKT-ENB-0561<br\/>Loopback : 172.23.247.107<br\/>Up-Time : 41 days, 19:21:57.38","type":"ESR","status":"1","hoto":"1"},{"lat":"22.3723","lng":"88.2624","name":"KLKTBRHMPAR001","address":"Sap : I-KO-KLKT-ENB-0562<br\/>Loopback : 172.16.76.94<br\/>Up-Time : 49 days, 16:14:32.40","type":"PAR","status":"1","hoto":"1"},{"lat":"22.5303","lng":"88.2706","name":"KLKTPNCRPAR001","address":"Sap : I-KO-KLKT-ENB-0564<br\/>Loopback : 172.16.76.36<br\/>Up-Time : 69 days, 2:13:13.51","type":"PAR","status":"1","hoto":"1"},{"lat":"22.4856","lng":"88.3092","name":"KLKTPCMBESR002","address":"Sap : I-KO-KLKT-ENB-0565<br\/>Loopback : 172.23.251.104<br\/>Up-Time : 41 days, 18:19:43.48","type":"ESR","status":"1","hoto":"1"},{"lat":"22.9482","lng":"88.4013","name":"KLKTMLPYESR002","address":"Sap : I-KO-KLKT-ENB-0571<br\/>Loopback : 172.23.246.155<br\/>Up-Time : 54 days, 3:07:02.51","type":"ESR","status":"1","hoto":"1"},{"lat":"22.6183","lng":"88.5059","name":"KLKTBTNDESR001","address":"Sap : I-KO-KLKT-ENB-0575<br\/>Loopback : 172.23.253.148<br\/>Up-Time : 40 days, 0:55:56.16","type":"ESR","status":"1","hoto":"1"},{"lat":"22.9677","lng":"88.3693","name":"KLKTTRIRPAR001","address":"Sap : I-KO-KLKT-ENB-0576<br\/>Loopback : 172.16.77.64<br\/>Up-Time : 39 days, 15:29:05.52","type":"PAR","status":"1","hoto":"1"},{"lat":"22.7022","lng":"88.3451","name":"KLKTRJWIESR001","address":"Sap : I-KO-KLKT-ENB-0583<br\/>Loopback : 172.23.243.89<br\/>Up-Time : 4 days, 8:38:01.16","type":"ESR","status":"1","hoto":"1"},{"lat":"22.5824","lng":"88.4629","name":"KLKTNTBGESR001","address":"Sap : I-KO-KLKT-ENB-0585<br\/>Loopback : 172.23.246.39<br\/>Up-Time : 32 days, 10:58:14.34","type":"ESR","status":"1","hoto":"1"},{"lat":"22.6065","lng":"88.2449","name":"KLKTMKRJESR002","address":"Sap : I-KO-KLKT-ENB-0588<br\/>Loopback : 172.23.250.28<br\/>Up-Time : 52 days, 23:58:53.80","type":"ESR","status":"1","hoto":"1"},{"lat":"22.62","lng":"88.2505","name":"KLKTMKDHPAR001","address":"Sap : I-KO-KLKT-ENB-0590<br\/>Loopback : 172.16.76.42<br\/>Up-Time : 38 days, 12:03:40.54","type":"PAR","status":"1","hoto":"1"},{"lat":"22.62","lng":"88.2505","name":"KLKTMKDHESR001","address":"Sap : I-KO-KLKT-ENB-0590<br\/>Loopback : 172.23.253.231<br\/> ","type":"ESR","status":"0","hoto":"1"},{"lat":"22.5866","lng":"88.1815","name":"KLKTDHLGPAR001","address":"Sap : I-KO-KLKT-ENB-0591<br\/>Loopback : 172.16.77.142<br\/>Up-Time : 51 days, 22:23:39.96","type":"PAR","status":"1","hoto":"1"},{"lat":"22.4221","lng":"88.3944","name":"KLKTCHBBPAR001","address":"Sap : I-KO-KLKT-ENB-0594<br\/>Loopback : 172.16.77.83<br\/>Up-Time : 24 days, 1:30:04.67","type":"PAR","status":"1","hoto":"1"},{"lat":"22.6438","lng":"88.383","name":"KLKTATSGESR001","address":"Sap : I-KO-KLKT-ENB-0596<br\/>Loopback : 172.23.254.121<br\/>Up-Time : 50 days, 23:34:01.47","type":"ESR","status":"1","hoto":"1"},{"lat":"22.9763","lng":"88.4837","name":"KLKTKULAESR001","address":"Sap : I-KO-KLKT-ENB-0597<br\/>Loopback : 172.23.245.26<br\/>Up-Time : 16 days, 16:00:05.76","type":"ESR","status":"1","hoto":"1"},{"lat":"22.7096","lng":"88.5322","name":"KLKTKYRAESR001","address":"Sap : I-KO-KLKT-ENB-0598<br\/>Loopback : 172.23.249.34<br\/>Up-Time : 18 days, 8:56:45.34","type":"ESR","status":"1","hoto":"1"},{"lat":"22.738","lng":"88.5382","name":"KLKTNRHRESR001","address":"Sap : I-KO-KLKT-ENB-0600<br\/>Loopback : 172.23.247.192<br\/>Up-Time : 10 days, 20:10:40.03","type":"ESR","status":"1","hoto":"1"},{"lat":"22.517","lng":"88.374","name":"KLKTRTTLPAR001","address":"Sap : I-KO-KLKT-ENB-0601<br\/>Loopback : 172.16.76.192<br\/>Up-Time : 14 days, 15:09:41.04","type":"PAR","status":"1","hoto":"1"},{"lat":"22.7496","lng":"88.5282","name":"KLKTNRSPESR001","address":"Sap : I-KO-KLKT-ENB-0603<br\/>Loopback : 172.23.248.134<br\/>Up-Time : 10 days, 20:10:41.98","type":"ESR","status":"1","hoto":"1"},{"lat":"22.7013","lng":"88.3827","name":"KLKTPRYNPAR001","address":"Sap : I-KO-KLKT-ENB-0604<br\/>Loopback : 172.16.77.168<br\/>Up-Time : 69 days, 1:31:37.36","type":"PAR","status":"1","hoto":"1"},{"lat":"22.7712","lng":"88.3827","name":"KLKTPHCLESR002","address":"Sap : I-KO-KLKT-ENB-0605<br\/>Loopback : 172.23.251.22<br\/>Up-Time : 35 days, 10:23:57.03","type":"ESR","status":"1","hoto":"1"},{"lat":"22.6534","lng":"88.386","name":"KLKTBEHVESR003","address":"Sap : I-KO-KLKT-ENB-0606<br\/>Loopback : 172.23.244.194<br\/> ","type":"ESR","status":"0","hoto":"1"},{"lat":"22.6534","lng":"88.386","name":"KLKTBEHVPAR002","address":"Sap : I-KO-KLKT-ENB-0606<br\/>Loopback : 172.16.76.231<br\/>Up-Time : 74 days, 0:47:27.32","type":"PAR","status":"1","hoto":"1"},{"lat":"22.8927","lng":"88.3673","name":"KLKTSMLLESR001","address":"Sap : I-KO-KLKT-ENB-0616<br\/>Loopback : 172.23.250.161<br\/>Up-Time : 51 days, 0:04:45.21","type":"ESR","status":"1","hoto":"1"},{"lat":"22.7859","lng":"88.3851","name":"KLKTBNPRESR001","address":"Sap : I-KO-KLKT-ENB-0617<br\/>Loopback : 172.23.250.29<br\/>Up-Time : 32 days, 11:25:55.77","type":"ESR","status":"1","hoto":"1"},{"lat":"22.7495","lng":"88.3863","name":"KLKTMMPAESR005","address":"Sap : I-KO-KLKT-ENB-0618<br\/>Loopback : 172.23.250.63<br\/>Up-Time : 26 days, 8:44:18.49","type":"ESR","status":"1","hoto":"1"},{"lat":"22.5282","lng":"88.346","name":"KLKTPDPUESR003","address":"Sap : I-KO-KLKT-ENB-0619<br\/>Loopback : 172.23.248.62<br\/>Up-Time : 5 days, 17:16:34.49","type":"ESR","status":"1","hoto":"1"},{"lat":"22.7977","lng":"88.3446","name":"KLKTCMPDESR002","address":"Sap : I-KO-KLKT-ENB-0624<br\/>Loopback : 172.23.246.231<br\/>Up-Time : 38 days, 11:09:42.82","type":"ESR","status":"1","hoto":"1"},{"lat":"22.4162","lng":"88.2565","name":"KLKTDKNKESR001","address":"Sap : I-KO-KLKT-ENB-0629<br\/>Loopback : 172.23.245.40<br\/>Up-Time : 54 days, 1:09:12.19","type":"ESR","status":"1","hoto":"1"},{"lat":"22.7969","lng":"88.3091","name":"KLKTCMPRPAR001","address":"Sap : I-KO-KLKT-ENB-0630<br\/>Loopback : 172.16.76.83<br\/>Up-Time : 57 days, 23:14:19.68","type":"PAR","status":"1","hoto":"1"},{"lat":"22.4606","lng":"88.1708","name":"KLKTARMPPAR001","address":"Sap : I-KO-KLKT-ENB-0634<br\/>Loopback : 172.16.76.92<br\/>Up-Time : 53 days, 16:53:47.41","type":"PAR","status":"1","hoto":"1"},{"lat":"22.4981","lng":"88.3194","name":"KLKTAUDYESR002","address":"Sap : I-KO-KLKT-ENB-0635<br\/>Loopback : 172.23.254.53<br\/>Up-Time : 44 days, 3:24:10.46","type":"ESR","status":"1","hoto":"1"},{"lat":"22.4908","lng":"88.4044","name":"KLKTMKDUPAR001","address":"Sap : I-KO-KLKT-ENB-0636<br\/>Loopback : 172.16.77.107<br\/>Up-Time : 70 days, 7:13:29.15","type":"PAR","status":"1","hoto":"1"},{"lat":"22.5783","lng":"88.4896","name":"KLKTCKPUESR001","address":"Sap : I-KO-KLKT-ENB-0638<br\/>Loopback : 172.23.251.209<br\/>Up-Time : 30 days, 15:22:46.78","type":"ESR","status":"1","hoto":"1"},{"lat":"22.486","lng":"88.4119","name":"KLKTATGRESR001","address":"Sap : I-KO-KLKT-ENB-0639<br\/>Loopback : 172.23.245.193<br\/>Up-Time : 25 days, 9:09:30.05","type":"ESR","status":"1","hoto":"1"},{"lat":"22.8201","lng":"88.2327","name":"KLKTDULGPAR001","address":"Sap : I-KO-KLKT-ENB-0646<br\/>Loopback : 172.16.76.227<br\/>Up-Time : 46 days, 13:13:09.00","type":"PAR","status":"1","hoto":"1"},{"lat":"31.3044","lng":"76.5361","name":"KLKTKMLGESR002","address":"Sap : I-KO-KLKT-ENB-0649<br\/>Loopback : 172.23.250.234<br\/>Up-Time : 45 days, 1:36:22.04","type":"ESR","status":"1","hoto":"1"},{"lat":"22.5829","lng":"88.4963","name":"KLKTPTGTESR002","address":"Sap : I-KO-KLKT-ENB-0651<br\/>Loopback : 172.23.252.54<br\/>Up-Time : 28 days, 5:52:50.15","type":"ESR","status":"1","hoto":"1"},{"lat":"22.5778","lng":"88.4674","name":"KLKTNTCBESR001","address":"Sap : I-KO-KLKT-ENB-0654<br\/>Loopback : 172.23.254.239<br\/>Up-Time : 9 days, 17:03:52.52","type":"ESR","status":"1","hoto":"1"},{"lat":"22.6264","lng":"88.3484","name":"KLKTBLRTPAR001","address":"Sap : I-KO-KLKT-ENB-0655<br\/>Loopback : 172.16.77.75<br\/>Up-Time : 21 days, 16:39:02.89","type":"PAR","status":"1","hoto":"1"},{"lat":"22.6305","lng":"88.3734","name":"KLKTSTSPESR001","address":"Sap : I-KO-KLKT-ENB-0659<br\/>Loopback : 172.23.247.170<br\/>Up-Time : 45 days, 3:52:54.47","type":"ESR","status":"1","hoto":"1"},{"lat":"22.9684","lng":"88.5316","name":"KLKTASPRESR001","address":"Sap : I-KO-KLKT-ENB-0661<br\/>Loopback : 172.23.247.119<br\/>Up-Time : 19 days, 13:15:27.88","type":"ESR","status":"1","hoto":"1"},{"lat":"22.9351","lng":"88.3514","name":"KLKTPNRKPAR001","address":"Sap : I-KO-KLKT-ENB-0662<br\/>Loopback : 172.16.76.50<br\/>Up-Time : 56 days, 19:54:32.61","type":"PAR","status":"1","hoto":"1"},{"lat":"22.7144","lng":"88.3451","name":"KLKTDRDGPAR002","address":"Sap : I-KO-KLKT-ENB-0663<br\/>Loopback : 172.16.77.72<br\/>Up-Time : 70 days, 7:16:45.01","type":"PAR","status":"1","hoto":"1"},{"lat":"22.5243","lng":"88.4417","name":"KLKTBNTLESR001","address":"Sap : I-KO-KLKT-ENB-0665<br\/>Loopback : 172.23.250.213<br\/>Up-Time : 35 days, 9:21:35.24","type":"ESR","status":"1","hoto":"1"},{"lat":"22.9013","lng":"88.3519","name":"KLKTAMRPESR001","address":"Sap : I-KO-KLKT-ENB-0666<br\/>Loopback : 172.23.248.14<br\/>Up-Time : 2 days, 13:16:11.26","type":"ESR","status":"1","hoto":"1"},{"lat":"22.8722","lng":"88.3237","name":"KLKTKSLPESR001","address":"Sap : I-KO-KLKT-ENB-0667<br\/>Loopback : 172.23.246.71<br\/>Up-Time : 3 days, 12:11:23.10","type":"ESR","status":"1","hoto":"1"},{"lat":"22.8477","lng":"88.3341","name":"KLKTDITRESR003","address":"Sap : I-KO-KLKT-ENB-0670<br\/>Loopback : 172.23.252.118<br\/>Up-Time : 10 days, 9:48:50.18","type":"ESR","status":"1","hoto":"1"},{"lat":"22.413","lng":"88.3197","name":"KLKTDBPRESR001","address":"Sap : I-KO-KLKT-ENB-0673<br\/>Loopback : 172.23.246.183<br\/>Up-Time : 34 days, 10:17:16.86","type":"ESR","status":"1","hoto":"1"},{"lat":"22.7508","lng":"88.3426","name":"KLKTTNBZESR003","address":"Sap : I-KO-KLKT-ENB-0674<br\/>Loopback : 172.23.247.34<br\/>Up-Time : 45 days, 3:47:53.10","type":"ESR","status":"1","hoto":"1"},{"lat":"22.3826","lng":"88.3456","name":"KLKTNPLGESR001","address":"Sap : I-KO-KLKT-ENB-0675<br\/>Loopback : 172.23.245.98<br\/>Up-Time : 7 days, 15:03:36.07","type":"ESR","status":"1","hoto":"1"},{"lat":"22.724","lng":"88.3672","name":"KLKTRBDDPAR001","address":"Sap : I-KO-KLKT-ENB-0678<br\/>Loopback : 172.16.76.235<br\/>Up-Time : 38 days, 17:49:08.00","type":"PAR","status":"1","hoto":"1"},{"lat":"22.6346","lng":"88.457","name":"KLKTRGCHESR006","address":"Sap : I-KO-KLKT-ENB-0688<br\/>Loopback : 172.23.254.29<br\/>Up-Time : 44 days, 2:45:17.01","type":"ESR","status":"1","hoto":"1"},{"lat":"22.3655","lng":"88.3532","name":"KLKTBLKLPAR001","address":"Sap : I-KO-KLKT-ENB-0689<br\/>Loopback : 172.16.76.106<br\/>Up-Time : 16:42:48.10","type":"PAR","status":"1","hoto":"1"},{"lat":"22.443","lng":"88.1736","name":"KLKTJMLRPAR001","address":"Sap : I-KO-KLKT-ENB-0692<br\/>Loopback : 172.16.76.91<br\/>Up-Time : ","type":"PAR","status":"1","hoto":"1"},{"lat":"22.8873","lng":"88.3303","name":"KLKTSKBIESR001","address":"Sap : I-KO-KLKT-ENB-0694<br\/>Loopback : 172.23.249.254<br\/>Up-Time : 53 days, 0:08:13.54","type":"ESR","status":"1","hoto":"1"},{"lat":"22.9878","lng":"88.4526","name":"KLKTKTLTESR002","address":"Sap : I-KO-KLKT-ENB-0696<br\/>Loopback : 172.23.244.100<br\/>Up-Time : 18 days, 4:52:08.10","type":"ESR","status":"1","hoto":"1"},{"lat":"22.7103","lng":"88.369","name":"KLKTSRMNESR001","address":"Sap : I-KO-KLKT-ENB-0699<br\/>Loopback : 172.23.249.221<br\/>Up-Time : 35 days, 11:51:03.37","type":"ESR","status":"1","hoto":"1"},{"lat":"22.7534","lng":"88.5076","name":"KLKTBZTPPAR001","address":"Sap : I-KO-KLKT-ENB-0700<br\/>Loopback : 172.16.76.59<br\/>Up-Time : 59 days, 12:37:51.74","type":"PAR","status":"1","hoto":"1"},{"lat":"22.5015","lng":"88.1564","name":"KLKTBUKIESR001","address":"Sap : I-KO-KLKT-ENB-0701<br\/>Loopback : 172.23.250.121<br\/>Up-Time : 45 days, 1:46:44.44","type":"ESR","status":"1","hoto":"1"},{"lat":"22.3909","lng":"88.2144","name":"KLKTJYDUPAR001","address":"Sap : I-KO-KLKT-ENB-0703<br\/>Loopback : 172.16.76.108<br\/>Up-Time : 29 days, 0:41:26.11","type":"PAR","status":"1","hoto":"1"},{"lat":"22.5732","lng":"88.4567","name":"KLKTNWAIESR001","address":"Sap : I-KO-KLKT-ENB-0705<br\/>Loopback : 172.23.246.33<br\/>Up-Time : 45 days, 2:34:19.58","type":"ESR","status":"1","hoto":"1"},{"lat":"22.6261","lng":"88.4345","name":"KLKTTGRIPAR002","address":"Sap : I-KO-KLKT-ENB-0707<br\/>Loopback : 172.16.76.114<br\/>Up-Time : 38 days, 15:18:26.83","type":"PAR","status":"1","hoto":"1"},{"lat":"22.382","lng":"88.2568","name":"KLKTMMDRESR001","address":"Sap : I-KO-KLKT-ENB-0708<br\/>Loopback : 172.23.247.149<br\/>Up-Time : 2 days, 10:08:51.15","type":"ESR","status":"1","hoto":"1"},{"lat":"22.6568","lng":"88.3338","name":"KLKTBLYDESR002","address":"Sap : I-KO-KLKT-ENB-0713<br\/>Loopback : 172.23.246.142<br\/>Up-Time : 54 days, 3:33:42.41","type":"ESR","status":"1","hoto":"1"},{"lat":"22.8188","lng":"88.3401","name":"KLKTSUKNESR001","address":"Sap : I-KO-KLKT-ENB-0714<br\/>Loopback : 172.23.252.221<br\/>Up-Time : 44 days, 2:40:41.66","type":"ESR","status":"1","hoto":"1"},{"lat":"22.4753","lng":"88.0838","name":"KLKTUBYAESR001","address":"Sap : I-KO-KLKT-ENB-0715<br\/>Loopback : 172.23.248.144<br\/>Up-Time : 22 days, 11:36:38.95","type":"ESR","status":"1","hoto":"1"},{"lat":"22.5715","lng":"88.4024","name":"KLKTSLJAPAR001","address":"Sap : I-KO-KLKT-ENB-0718<br\/>Loopback : 172.16.76.18<br\/>Up-Time : 70 days, 5:56:03.41","type":"PAR","status":"1","hoto":"1"},{"lat":"22.964","lng":"88.4968","name":"KLKTGYSPESR002","address":"Sap : I-KO-KLKT-ENB-0719<br\/>Loopback : 172.23.245.28<br\/>Up-Time : 15 days, 18:58:54.10","type":"ESR","status":"1","hoto":"1"},{"lat":"22.4129","lng":"88.3889","name":"KLKTPLGTESR001","address":"Sap : I-KO-KLKT-ENB-0720<br\/>Loopback : 172.23.245.88<br\/>Up-Time : 34 days, 11:09:44.45","type":"ESR","status":"1","hoto":"1"},{"lat":"22.5349","lng":"88.3862","name":"KLKTTPSIESR001","address":"Sap : I-KO-KLKT-ENB-0722<br\/>Loopback : 172.23.247.23<br\/>Up-Time : 45 days, 3:51:53.12","type":"ESR","status":"1","hoto":"1"},{"lat":"22.5751","lng":"88.4079","name":"KLKTSLGBESR001","address":"Sap : I-KO-KLKT-ENB-0723<br\/>Loopback : 172.23.240.57<br\/>Up-Time : 45 days, 3:11:46.91","type":"ESR","status":"1","hoto":"1"},{"lat":"22.3864","lng":"88.3808","name":"KLKTBRGHESR001","address":"Sap : I-KO-KLKT-ENB-0724<br\/>Loopback : 172.23.247.111<br\/>Up-Time : 17 days, 5:53:19.53","type":"ESR","status":"1","hoto":"1"},{"lat":"22.6371","lng":"88.4928","name":"KLKTDERRESR001","address":"Sap : I-KO-KLKT-ENB-0726<br\/>Loopback : 172.23.244.60<br\/>Up-Time : 45 days, 11:16:07.52","type":"ESR","status":"1","hoto":"1"},{"lat":"22.4627","lng":"88.2405","name":"KLKTCTRMESR001","address":"Sap : I-KO-KLKT-ENB-0733<br\/>Loopback : 172.23.248.238<br\/>Up-Time : 9 days, 16:07:48.04","type":"ESR","status":"1","hoto":"1"},{"lat":"22.5042","lng":"88.357","name":"KLKTLKGDESR001","address":"Sap : I-KO-KLKT-ENB-0735<br\/>Loopback : 172.23.246.237<br\/>Up-Time : 54 days, 1:29:51.78","type":"ESR","status":"1","hoto":"1"},{"lat":"22.4427","lng":"88.2365","name":"KLKTREWRESR001","address":"Sap : I-KO-KLKT-ENB-0736<br\/>Loopback : 172.23.247.120<br\/>Up-Time : 26 days, 19:12:21.45","type":"ESR","status":"1","hoto":"1"},{"lat":"22.6547","lng":"88.3625","name":"KLKTMYDPPAR001","address":"Sap : I-KO-KLKT-ENB-0739<br\/>Loopback : 172.16.76.66<br\/>Up-Time : 70 days, 7:13:14.09","type":"PAR","status":"1","hoto":"1"},{"lat":"23.0088","lng":"88.4898","name":"KLKTKTCNESR001","address":"Sap : I-KO-KLKT-ENB-0742<br\/>Loopback : 172.23.245.93<br\/>Up-Time : 37 days, 15:47:56.40","type":"ESR","status":"1","hoto":"1"},{"lat":"22.4671","lng":"88.4429","name":"KLKTPCPTPAR001","address":"Sap : I-KO-KLKT-ENB-0745<br\/>Loopback : 172.16.76.99<br\/>Up-Time : 70 days, 6:26:20.17","type":"PAR","status":"1","hoto":"1"},{"lat":"22.726","lng":"88.5239","name":"KLKTSTSIESR001","address":"Sap : I-KO-KLKT-ENB-0747<br\/>Loopback : 172.23.249.36<br\/>Up-Time : 6 days, 17:03:04.80","type":"ESR","status":"1","hoto":"1"},{"lat":"22.5747","lng":"88.4022","name":"KLKTKDPAPAR001","address":"Sap : I-KO-KLKT-ENB-0748<br\/>Loopback : 172.16.76.26<br\/>Up-Time : 51 days, 19:19:28.89","type":"PAR","status":"1","hoto":"1"},{"lat":"22.5312","lng":"88.3996","name":"KLKTUTPCESR001","address":"Sap : I-KO-KLKT-ENB-0750<br\/>Loopback : 172.23.255.173<br\/>Up-Time : 44 days, 3:08:12.82","type":"ESR","status":"1","hoto":"1"},{"lat":"22.7602","lng":"88.3315","name":"KLKTBRGNESR005","address":"Sap : I-KO-KLKT-ENB-0752<br\/>Loopback : 172.23.252.24<br\/>Up-Time : 11 days, 13:56:22.19","type":"ESR","status":"1","hoto":"1"},{"lat":"22.3759","lng":"88.1944","name":"KLKTITLIESR001","address":"Sap : I-KO-KLKT-ENB-0755<br\/>Loopback : 172.23.249.29<br\/>Up-Time : 45 days, 2:04:12.95","type":"ESR","status":"1","hoto":"1"},{"lat":"22.4889","lng":"88.3557","name":"KLKTRGNNESR001","address":"Sap : I-KO-KLKT-ENB-0758<br\/>Loopback : 172.23.251.95<br\/>Up-Time : 44 days, 3:29:07.94","type":"ESR","status":"1","hoto":"1"},{"lat":"22.3377","lng":"88.1965","name":"KLKTSNRAESR002","address":"Sap : I-KO-KLKT-ENB-0760<br\/>Loopback : 172.23.245.221<br\/>Up-Time : 16:23:20.40","type":"ESR","status":"1","hoto":"1"},{"lat":"22.6077","lng":"88.439","name":"KLKTJYGRESR004","address":"Sap : I-KO-KLKT-ENB-0761<br\/>Loopback : 172.23.252.241<br\/>Up-Time : 44 days, 2:51:32.84","type":"ESR","status":"1","hoto":"1"},{"lat":"22.3307","lng":"88.1744","name":"KLKTSJPLESR001","address":"Sap : I-KO-KLKT-ENB-0763<br\/>Loopback : 172.23.245.220<br\/>Up-Time : 18 days, 10:54:03.78","type":"ESR","status":"1","hoto":"1"},{"lat":"22.6698","lng":"88.3657","name":"KLKTNHBTESR004","address":"Sap : I-KO-KLKT-ENB-0765<br\/>Loopback : 172.23.252.31<br\/>Up-Time : 44 days, 3:02:46.80","type":"ESR","status":"1","hoto":"1"},{"lat":"22.5891","lng":"88.382","name":"KLKTUDGAPAR001","address":"Sap : I-KO-KLKT-ENB-0770<br\/>Loopback : 172.16.76.38<br\/>Up-Time : 70 days, 5:49:15.29","type":"PAR","status":"1","hoto":"1"},{"lat":"22.6682","lng":"88.3149","name":"KLKTBLNGESR001","address":"Sap : I-KO-KLKT-ENB-0771<br\/>Loopback : 172.23.246.44<br\/>Up-Time : 35 days, 11:22:53.60","type":"ESR","status":"1","hoto":"1"},{"lat":"22.4309","lng":"88.2723","name":"KLKTNHZRESR001","address":"Sap : I-KO-KLKT-ENB-0772<br\/>Loopback : 172.23.245.224<br\/>Up-Time : 54 days, 3:26:37.50","type":"ESR","status":"1","hoto":"1"},{"lat":"22.3574","lng":"88.1566","name":"KLKTTLMRESR001","address":"Sap : I-KO-KLKT-ENB-0774<br\/>Loopback : 172.23.249.27<br\/>Up-Time : 27 days, 6:51:12.37","type":"ESR","status":"1","hoto":"1"},{"lat":"22.5763","lng":"88.4334","name":"KLKTSLDNESR001","address":"Sap : I-KO-KLKT-ENB-0775<br\/>Loopback : 172.23.240.63<br\/>Up-Time : 54 days, 5:10:27.56","type":"ESR","status":"1","hoto":"1"},{"lat":"22.5681","lng":"88.3871","name":"KLKTBLGGESR002","address":"Sap : I-KO-KLKT-ENB-0786<br\/>Loopback : 172.23.249.100<br\/>Up-Time : 45 days, 11:51:36.02","type":"ESR","status":"1","hoto":"1"},{"lat":"22.7538","lng":"88.3462","name":"KLKTTNBZPAR001","address":"Sap : I-KO-KLKT-ENB-0787<br\/>Loopback : 172.16.76.57<br\/>Up-Time : 11 days, 16:45:52.08","type":"PAR","status":"1","hoto":"1"},{"lat":"22.503","lng":"88.4066","name":"KLKTHSNPESR001","address":"Sap : I-KO-KLKT-ENB-0788<br\/>Loopback : 172.23.248.41<br\/>Up-Time : 49 days, 6:31:41.54","type":"ESR","status":"1","hoto":"1"},{"lat":"22.6054","lng":"88.3771","name":"KLKTRKKRESR002","address":"Sap : I-KO-KLKT-ENB-0791<br\/>Loopback : 172.23.255.30<br\/>Up-Time : 44 days, 3:42:44.28","type":"ESR","status":"1","hoto":"1"},{"lat":"22.6372","lng":"88.3783","name":"KLKTDSPNESR003","address":"Sap : I-KO-KLKT-ENB-0792<br\/>Loopback : 172.23.254.94<br\/>Up-Time : 44 days, 3:43:20.74","type":"ESR","status":"1","hoto":"1"},{"lat":"22.6413","lng":"88.3643","name":"KLKTBSKBESR001","address":"Sap : I-KO-KLKT-ENB-0793<br\/>Loopback : 172.23.253.230<br\/>Up-Time : 44 days, 3:56:28.09","type":"ESR","status":"1","hoto":"1"},{"lat":"22.3383","lng":"88.3002","name":"KLKTDULIESR001","address":"Sap : I-KO-KLKT-ENB-0796<br\/>Loopback : 172.23.243.255<br\/>Up-Time : 12 days, 8:28:21.06","type":"ESR","status":"1","hoto":"1"},{"lat":"22.5762","lng":"88.3655","name":"KLKTJMPRESR002","address":"Sap : I-KO-KLKT-ENB-0797<br\/>Loopback : 172.23.250.124<br\/>Up-Time : 7 days, 13:49:14.39","type":"ESR","status":"1","hoto":"1"},{"lat":"22.8368","lng":"88.231","name":"KLKTBURHESR001","address":"Sap : I-KO-KLKT-ENB-0798<br\/>Loopback : 172.23.244.217<br\/>Up-Time : 14 days, 16:32:12.34","type":"ESR","status":"1","hoto":"1"},{"lat":"22.4323","lng":"88.0639","name":"KLKTKSMLESR001","address":"Sap : I-KO-KLKT-ENB-0804<br\/>Loopback : 172.23.248.108<br\/>Up-Time : 26 days, 19:25:50.43","type":"ESR","status":"1","hoto":"1"},{"lat":"22.4044","lng":"88.0626","name":"KLKTHTGHESR001","address":"Sap : I-KO-KLKT-ENB-0805<br\/>Loopback : 172.23.248.137<br\/>Up-Time : 12 days, 21:21:05.70","type":"ESR","status":"1","hoto":"1"},{"lat":"22.6495","lng":"88.3869","name":"KLKTATSGPAR001","address":"Sap : I-KO-KLKT-ENB-0814<br\/>Loopback : 172.16.76.11<br\/>Up-Time : 58 days, 15:12:26.31","type":"PAR","status":"1","hoto":"1"},{"lat":"22.5447","lng":"88.2757","name":"KLKTGLZRESR002","address":"Sap : I-KO-KLKT-ENB-0817<br\/>Loopback : 172.23.250.26<br\/>Up-Time : 45 days, 3:35:58.34","type":"ESR","status":"1","hoto":"1"},{"lat":"22.5303","lng":"88.3907","name":"KLKTTPSIPAR001","address":"Sap : I-KO-KLKT-ENB-0818<br\/>Loopback : 172.16.76.48<br\/>Up-Time : 70 days, 5:48:25.90","type":"PAR","status":"1","hoto":"1"},{"lat":"22.4221","lng":"88.0449","name":"KLKTHTGHESR002","address":"Sap : I-KO-KLKT-ENB-0821<br\/>Loopback : 172.23.247.164<br\/>Up-Time : 26 days, 19:25:55.31","type":"ESR","status":"1","hoto":"1"},{"lat":"22.6058","lng":"88.3469","name":"KLKTGSURPAR001","address":"Sap : I-KO-KLKT-ENB-0824<br\/>Loopback : 172.16.77.78<br\/>Up-Time : 74 days, 0:31:03.73","type":"PAR","status":"1","hoto":"1"},{"lat":"22.8042","lng":"88.2981","name":"KLKTCHNMESR001","address":"Sap : I-KO-KLKT-ENB-0827<br\/>Loopback : 172.23.246.61<br\/>Up-Time : 48 days, 7:53:43.01","type":"ESR","status":"1","hoto":"1"},{"lat":"22.8276","lng":"88.2783","name":"KLKTHKMPESR001","address":"Sap : I-KO-KLKT-ENB-0829<br\/>Loopback : 172.23.247.69<br\/>Up-Time : 23 days, 13:19:47.75","type":"ESR","status":"1","hoto":"1"},{"lat":"22.6385","lng":"88.3841","name":"KLKTPLPPESR001","address":"Sap : I-KO-KLKT-ENB-0830<br\/>Loopback : 172.23.248.226<br\/>Up-Time : 45 days, 1:43:06.11","type":"ESR","status":"1","hoto":"1"},{"lat":"22.5342","lng":"88.2637","name":"KLKTTPKRESR001","address":"Sap : I-KO-KLKT-ENB-0831<br\/>Loopback : 172.23.251.147<br\/>Up-Time : 44 days, 3:36:03.21","type":"ESR","status":"1","hoto":"1"},{"lat":"22.7608","lng":"88.4636","name":"KLKTBDIIESR001","address":"Sap : I-KO-KLKT-ENB-0833<br\/>Loopback : 172.23.249.245<br\/>Up-Time : 2 days, 15:02:31.33","type":"ESR","status":"1","hoto":"1"},{"lat":"22.6624","lng":"88.3937","name":"KLKTBDTLESR001","address":"Sap : I-KO-KLKT-ENB-0839<br\/>Loopback : 172.23.250.171<br\/>Up-Time : 45 days, 2:15:35.65","type":"ESR","status":"1","hoto":"1"},{"lat":"22.5612","lng":"88.4151","name":"KLKTSKTTPAR001","address":"Sap : I-KO-KLKT-ENB-0842<br\/>Loopback : 172.16.76.25<br\/>Up-Time : 34 days, 17:07:13.93","type":"PAR","status":"1","hoto":"1"},{"lat":"22.6508","lng":"88.3949","name":"KLKTMJRTESR004","address":"Sap : I-KO-KLKT-ENB-0843<br\/>Loopback : 172.23.252.27<br\/>Up-Time : 6 days, 17:27:14.70","type":"ESR","status":"1","hoto":"1"},{"lat":"22.4145","lng":"88.349","name":"KLKTMGKLESR001","address":"Sap : I-KO-KLKT-ENB-0844<br\/>Loopback : 172.23.246.92<br\/>Up-Time : 54 days, 1:31:46.87","type":"ESR","status":"1","hoto":"1"},{"lat":"22.6959","lng":"88.3535","name":"KLKTMTPRESR002","address":"Sap : I-KO-KLKT-ENB-0846<br\/>Loopback : 172.23.251.16<br\/>Up-Time : 44 days, 2:34:33.12","type":"ESR","status":"1","hoto":"1"},{"lat":"22.6714","lng":"88.4124","name":"KLKTFTLPPAR001","address":"Sap : I-KO-KLKT-ENB-0849<br\/>Loopback : 172.16.77.111<br\/>Up-Time : 31 days, 18:38:50.09","type":"PAR","status":"1","hoto":"1"},{"lat":"22.7624","lng":"88.5661","name":"KLKTJYPLESR001","address":"Sap : I-KO-KLKT-ENB-0853<br\/>Loopback : 172.23.248.22<br\/>Up-Time : 37 days, 10:40:03.00","type":"ESR","status":"1","hoto":"1"},{"lat":"22.4532","lng":"88.0224","name":"KLKTKLGIESR001","address":"Sap : I-KO-KLKT-ENB-0857<br\/>Loopback : 172.23.249.205<br\/>Up-Time : 45 days, 0:26:31.94","type":"ESR","status":"1","hoto":"1"},{"lat":"22.7335","lng":"88.4471","name":"KLKTSDRUESR001","address":"Sap : I-KO-KLKT-ENB-0858<br\/>Loopback : 172.23.249.153<br\/>Up-Time : 45 days, 3:39:21.20","type":"ESR","status":"1","hoto":"1"},{"lat":"22.6415","lng":"88.3781","name":"KLKTGRJIESR001","address":"Sap : I-KO-KLKT-ENB-0859<br\/>Loopback : 172.23.245.22<br\/>Up-Time : 54 days, 3:22:43.73","type":"ESR","status":"1","hoto":"1"},{"lat":"22.36","lng":"88.1362","name":"KLKTPITAESR001","address":"Sap : I-KO-KLKT-ENB-0860<br\/>Loopback : 172.23.249.26<br\/>Up-Time : 45 days, 2:12:58.88","type":"ESR","status":"1","hoto":"1"},{"lat":"22.7096","lng":"88.3914","name":"KLKTMLGRESR001","address":"Sap : I-KO-KLKT-ENB-0862<br\/>Loopback : 172.23.247.185<br\/>Up-Time : 42 days, 12:36:56.78","type":"ESR","status":"1","hoto":"1"},{"lat":"22.5264","lng":"88.1651","name":"KLKTKHYPESR001","address":"Sap : I-KO-KLKT-ENB-0865<br\/>Loopback : 172.23.248.11<br\/>Up-Time : 6 days, 19:56:26.02","type":"ESR","status":"1","hoto":"1"},{"lat":"22.5859","lng":"88.4047","name":"KLKTSLDBESR001","address":"Sap : I-KO-KLKT-ENB-0866<br\/>Loopback : 172.23.240.77<br\/>Up-Time : 9 days, 16:07:15.15","type":"ESR","status":"1","hoto":"1"},{"lat":"22.6693","lng":"88.3493","name":"KLKTBHDKESR003","address":"Sap : I-KO-KLKT-ENB-0871<br\/>Loopback : 172.23.251.31<br\/>Up-Time : 44 days, 2:48:39.94","type":"ESR","status":"1","hoto":"1"},{"lat":"22.3672","lng":"88.4029","name":"KLKTNIHAPAR001","address":"Sap : I-KO-KLKT-ENB-0873<br\/>Loopback : 172.16.76.102<br\/>Up-Time : 10 days, 13:28:31.20","type":"PAR","status":"1","hoto":"1"},{"lat":"22.4243","lng":"88.0955","name":"KLKTDKNRPAR001","address":"Sap : I-KO-KLKT-ENB-0874<br\/>Loopback : 172.16.76.77<br\/>Up-Time : 69 days, 2:41:55.91","type":"PAR","status":"1","hoto":"1"},{"lat":"22.6647","lng":"88.3462","name":"KLKTUTPRESR001","address":"Sap : I-KO-KLKT-ENB-0879<br\/>Loopback : 172.23.246.54<br\/>Up-Time : 54 days, 1:30:52.22","type":"ESR","status":"1","hoto":"1"},{"lat":"22.5258","lng":"88.1462","name":"KLKTGSLCPAR001","address":"Sap : I-KO-KLKT-ENB-0883<br\/>Loopback : 172.16.77.34<br\/>Up-Time : 74 days, 0:33:19.85","type":"PAR","status":"1","hoto":"1"},{"lat":"22.5969","lng":"88.4226","name":"KLKTSLBHPAR001","address":"Sap : I-KO-KLKT-ENB-0885<br\/>Loopback : 172.16.76.6<br\/>Up-Time : 70 days, 5:55:00.73","type":"PAR","status":"1","hoto":"1"},{"lat":"22.353","lng":"88.1804","name":"KLKTSNRAESR001","address":"Sap : I-KO-KLKT-ENB-0892<br\/>Loopback : 172.23.249.28<br\/>Up-Time : 25 days, 20:30:36.06","type":"ESR","status":"1","hoto":"1"},{"lat":"22.6323","lng":"88.4678","name":"KLKTATIAESR002","address":"Sap : I-KO-KLKT-ENB-0893<br\/>Loopback : 172.23.254.65<br\/>Up-Time : 44 days, 3:14:03.22","type":"ESR","status":"1","hoto":"1"},{"lat":"22.5822","lng":"88.1402","name":"KLKTJYNAESR001","address":"Sap : I-KO-KLKT-ENB-0895<br\/>Loopback : 172.23.246.242<br\/>Up-Time : 45 days, 2:12:34.50","type":"ESR","status":"1","hoto":"1"},{"lat":"22.4502","lng":"88.0511","name":"KLKTKHRIESR001","address":"Sap : I-KO-KLKT-ENB-0899<br\/>Loopback : 172.23.249.206<br\/>Up-Time : 9 days, 18:11:45.24","type":"ESR","status":"1","hoto":"1"},{"lat":"22.6293","lng":"88.3783","name":"KLKTKSPUPAR001","address":"Sap : I-KO-KLKT-ENB-0900<br\/>Loopback : 172.16.76.86<br\/>Up-Time : 70 days, 7:13:15.56","type":"PAR","status":"1","hoto":"1"},{"lat":"22.5226","lng":"88.3276","name":"KLKTPHRPESR001","address":"Sap : I-KO-KLKT-ENB-0901<br\/>Loopback : 172.23.249.248<br\/>Up-Time : 21 days, 16:00:10.32","type":"ESR","status":"1","hoto":"1"},{"lat":"22.5905","lng":"88.3976","name":"KLKTSLAAESR003","address":"Sap : I-KO-KLKT-ENB-0903<br\/>Loopback : 172.23.240.82<br\/>Up-Time : 54 days, 5:14:31.29","type":"ESR","status":"1","hoto":"1"},{"lat":"22.462","lng":"88.2801","name":"KLKTTKPUESR001","address":"Sap : I-KO-KLKT-ENB-0904<br\/>Loopback : 172.23.245.89<br\/>Up-Time : 16 days, 11:15:26.21","type":"ESR","status":"1","hoto":"1"},{"lat":"22.504","lng":"88.3329","name":"KLKTBUHTESR003","address":"Sap : I-KO-KLKT-ENB-0907<br\/>Loopback : 172.23.248.177<br\/>Up-Time : 30 days, 15:58:20.49","type":"ESR","status":"1","hoto":"1"},{"lat":"22.5504","lng":"88.2042","name":"KLKTSKJLESR001","address":"Sap : I-KO-KLKT-ENB-0911<br\/>Loopback : 172.23.254.229<br\/>Up-Time : 50 days, 23:49:30.92","type":"ESR","status":"1","hoto":"1"},{"lat":"22.4156","lng":"88.2247","name":"KLKTKHPUESR001","address":"Sap : I-KO-KLKT-ENB-0912<br\/>Loopback : 172.23.245.70<br\/>Up-Time : 19 days, 19:22:51.90","type":"ESR","status":"1","hoto":"1"},{"lat":"22.4293","lng":"88.236","name":"KLKTNHZRESR002","address":"Sap : I-KO-KLKT-ENB-0914<br\/>Loopback : 172.23.245.48<br\/>Up-Time : 3 days, 5:37:36.23","type":"ESR","status":"1","hoto":"1"},{"lat":"22.7284","lng":"88.3519","name":"KLKTMJMCESR003","address":"Sap : I-KO-KLKT-ENB-0917<br\/>Loopback : 172.23.252.248<br\/>Up-Time : 30 days, 14:00:19.88","type":"ESR","status":"1","hoto":"1"},{"lat":"22.4826","lng":"88.3149","name":"KLKTNBLIESR001","address":"Sap : I-KO-KLKT-ENB-0919<br\/>Loopback : 172.23.250.241<br\/>Up-Time : 15:23:22.63","type":"ESR","status":"1","hoto":"1"},{"lat":"22.8778","lng":"88.4744","name":"KLKTRCDPESR004","address":"Sap : I-KO-KLKT-ENB-0920<br\/>Loopback : 172.23.249.252<br\/>Up-Time : 22 days, 17:16:34.76","type":"ESR","status":"1","hoto":"1"},{"lat":"22.4629","lng":"88.1923","name":"KLKTUTRUESR002","address":"Sap : I-KO-KLKT-ENB-0922<br\/>Loopback : 172.23.249.169<br\/>Up-Time : 3 days, 15:55:11.36","type":"ESR","status":"1","hoto":"1"},{"lat":"22.9969","lng":"88.5029","name":"KLKTKMURESR001","address":"Sap : I-KO-KLKT-ENB-0926<br\/>Loopback : 172.23.245.94<br\/>Up-Time : 7 days, 15:30:22.03","type":"ESR","status":"1","hoto":"1"},{"lat":"22.3417","lng":"88.1567","name":"KLKTTLMRESR002","address":"Sap : I-KO-KLKT-ENB-0927<br\/>Loopback : 172.23.243.88<br\/>Up-Time : 15 days, 17:16:15.10","type":"ESR","status":"1","hoto":"1"},{"lat":"22.9171","lng":"88.4137","name":"KLKTNIHTESR005","address":"Sap : I-KO-KLKT-ENB-0928<br\/>Loopback : 172.23.247.45<br\/>Up-Time : 41 days, 18:31:37.02","type":"ESR","status":"1","hoto":"1"},{"lat":"22.4024","lng":"88.2027","name":"KLKTKHPUPAR001","address":"Sap : I-KO-KLKT-ENB-0931<br\/>Loopback : 172.16.76.90<br\/>Up-Time : 29 days, 15:52:57.13","type":"PAR","status":"1","hoto":"1"},{"lat":"22.3981","lng":"88.259","name":"KLKTKNGBESR001","address":"Sap : I-KO-KLKT-ENB-0934<br\/>Loopback : 172.23.245.91<br\/>Up-Time : 22 days, 19:48:16.96","type":"ESR","status":"1","hoto":"1"},{"lat":"22.6753","lng":"88.3431","name":"KLKTUPTHESR002","address":"Sap : I-KO-KLKT-ENB-0936<br\/>Loopback : 172.23.246.120<br\/>Up-Time : 12 days, 16:54:58.36","type":"ESR","status":"1","hoto":"1"},{"lat":"22.6164","lng":"88.3873","name":"KLKTMLCKESR001","address":"Sap : I-KO-KLKT-ENB-0940<br\/>Loopback : 172.23.246.11<br\/>Up-Time : 54 days, 3:27:02.59","type":"ESR","status":"1","hoto":"1"},{"lat":"22.5146","lng":"88.3895","name":"KLKTRJDNESR001","address":"Sap : I-KO-KLKT-ENB-0941<br\/>Loopback : 172.23.246.52<br\/>Up-Time : 45 days, 7:40:11.46","type":"ESR","status":"1","hoto":"1"},{"lat":"22.6653","lng":"88.3506","name":"KLKTUTPRPAR001","address":"Sap : I-KO-KLKT-ENB-0942<br\/>Loopback : 172.16.77.141<br\/>Up-Time : 70 days, 5:48:50.73","type":"PAR","status":"1","hoto":"1"},{"lat":"22.4439","lng":"88.2076","name":"KLKTPRBIESR001","address":"Sap : I-KO-KLKT-ENB-0943<br\/>Loopback : 172.23.247.121<br\/>Up-Time : 45 days, 3:47:50.40","type":"ESR","status":"1","hoto":"1"},{"lat":"22.9054","lng":"88.4104","name":"KLKTGRIFPAR001","address":"Sap : I-KO-KLKT-ENB-0944<br\/>Loopback : 172.16.76.95<br\/>Up-Time : 59 days, 17:15:29.32","type":"PAR","status":"1","hoto":"1"},{"lat":"23.0025","lng":"88.4594","name":"KLKTMDPRESR001","address":"Sap : I-KO-KLKT-ENB-0946<br\/>Loopback : 172.23.245.92<br\/>Up-Time : 25 days, 10:44:52.81","type":"ESR","status":"1","hoto":"1"},{"lat":"22.532","lng":"88.3469","name":"KLKTCKBEESR005","address":"Sap : I-KO-KLKT-ENB-0951<br\/>Loopback : 172.23.254.126<br\/>Up-Time : 19 days, 16:24:29.41","type":"ESR","status":"1","hoto":"1"},{"lat":"22.4938","lng":"88.3228","name":"KLKTBLSPESR001","address":"Sap : I-KO-KLKT-ENB-0956<br\/>Loopback : 172.23.251.185<br\/>Up-Time : 44 days, 3:09:12.77","type":"ESR","status":"1","hoto":"1"},{"lat":"22.5726","lng":"88.4119","name":"KLKTSLIAESR002","address":"Sap : I-KO-KLKT-ENB-0959<br\/>Loopback : 172.23.240.78<br\/>Up-Time : 45 days, 3:29:46.58","type":"ESR","status":"1","hoto":"1"},{"lat":"22.5777","lng":"88.3976","name":"KLKTKDPAESR001","address":"Sap : I-KO-KLKT-ENB-0961<br\/>Loopback : 172.23.250.9<br\/>Up-Time : 34 days, 15:10:05.02","type":"ESR","status":"1","hoto":"1"},{"lat":"22.5904","lng":"88.3753","name":"KLKTGUBRESR005","address":"Sap : I-KO-KLKT-ENB-0964<br\/>Loopback : 172.23.254.70<br\/>Up-Time : 50 days, 23:37:38.45","type":"ESR","status":"1","hoto":"1"},{"lat":"22.6","lng":"88.376","name":"KLKTFDPRESR001","address":"Sap : I-KO-KLKT-ENB-0965<br\/>Loopback : 172.23.247.167<br\/>Up-Time : 45 days, 4:03:24.80","type":"ESR","status":"1","hoto":"1"},{"lat":"22.6022","lng":"88.3733","name":"KLKTBGBZPAR001","address":"Sap : I-KO-KLKT-ENB-0967<br\/>Loopback : 172.16.76.65<br\/>Up-Time : 13 days, 13:33:22.13","type":"PAR","status":"1","hoto":"1"},{"lat":"22.6234","lng":"88.3583","name":"KLKTGVMQESR001","address":"Sap : I-KO-KLKT-ENB-0969<br\/>Loopback : 172.23.248.240<br\/>Up-Time : 41 days, 23:21:19.02","type":"ESR","status":"1","hoto":"1"},{"lat":"22.6328","lng":"88.3787","name":"KLKTDSPNESR001","address":"Sap : I-KO-KLKT-ENB-0971<br\/>Loopback : 172.23.245.23<br\/>Up-Time : 54 days, 3:15:31.23","type":"ESR","status":"1","hoto":"1"},{"lat":"22.6885","lng":"88.4021","name":"KLKTKMDPESR001","address":"Sap : I-KO-KLKT-ENB-0973<br\/>Loopback : 172.23.246.184<br\/>Up-Time : 26 days, 11:21:43.45","type":"ESR","status":"1","hoto":"1"},{"lat":"22.6464","lng":"88.3755","name":"KLKTMLKLESR001","address":"Sap : I-KO-KLKT-ENB-0975<br\/>Loopback : 172.23.247.17<br\/>Up-Time : 45 days, 3:29:49.05","type":"ESR","status":"1","hoto":"1"},{"lat":"22.6809","lng":"88.4159","name":"KLKTFTLPESR001","address":"Sap : I-KO-KLKT-ENB-0980<br\/>Loopback : 172.23.245.228<br\/>Up-Time : 48 days, 12:59:46.44","type":"ESR","status":"1","hoto":"1"},{"lat":"22.6579","lng":"88.4728","name":"KLKTGPLHESR001","address":"Sap : I-KO-KLKT-ENB-0982<br\/>Loopback : 172.23.248.55<br\/>Up-Time : 41 days, 16:11:27.02","type":"ESR","status":"1","hoto":"1"},{"lat":"22.662","lng":"88.4558","name":"KLKTGOPLPAR001","address":"Sap : I-KO-KLKT-ENB-0983<br\/>Loopback : 172.16.76.113<br\/>Up-Time : 56 days, 17:25:25.74","type":"PAR","status":"1","hoto":"1"},{"lat":"22.6843","lng":"88.4375","name":"KLKTTBLDESR001","address":"Sap : I-KO-KLKT-ENB-0984<br\/>Loopback : 172.23.250.168<br\/>Up-Time : 45 days, 2:10:52.61","type":"ESR","status":"1","hoto":"1"},{"lat":"22.5735","lng":"88.3857","name":"KLKTCNDLESR001","address":"Sap : I-KO-KLKT-ENB-0986<br\/>Loopback : 172.23.244.253<br\/>Up-Time : 54 days, 5:15:37.46","type":"ESR","status":"1","hoto":"1"},{"lat":"22.5708","lng":"88.3999","name":"KLKTSBHSPAR001","address":"Sap : I-KO-KLKT-ENB-0988<br\/>Loopback : 172.16.77.70<br\/>Up-Time : 70 days, 5:54:53.63","type":"PAR","status":"1","hoto":"1"},{"lat":"22.6003","lng":"88.3702","name":"KLKTSYMBESR001","address":"Sap : I-KO-KLKT-ENB-0997<br\/>Loopback : 172.23.248.235<br\/>Up-Time : 45 days, 3:34:30.86","type":"ESR","status":"1","hoto":"1"},{"lat":"22.6384","lng":"88.3657","name":"KLKTBSKBESR002","address":"Sap : I-KO-KLKT-ENB-1000<br\/>Loopback : 172.23.246.240<br\/>Up-Time : 45 days, 2:12:21.51","type":"ESR","status":"1","hoto":"1"},{"lat":"22.6344","lng":"88.367","name":"KLKTKSPUESR002","address":"Sap : I-KO-KLKT-ENB-1001<br\/>Loopback : 172.23.250.49<br\/>Up-Time : 41 days, 14:37:38.19","type":"ESR","status":"1","hoto":"1"},{"lat":"22.622","lng":"88.3733","name":"KLKTKSPUESR001","address":"Sap : I-KO-KLKT-ENB-1002<br\/>Loopback : 172.23.254.122<br\/>Up-Time : 44 days, 2:28:25.42","type":"ESR","status":"1","hoto":"1"},{"lat":"22.6201","lng":"88.3531","name":"KLKTBHTBPAR001","address":"Sap : I-KO-KLKT-ENB-1003<br\/>Loopback : 172.16.76.33<br\/>Up-Time : 67 days, 6:26:53.30","type":"PAR","status":"1","hoto":"1"},{"lat":"22.6239","lng":"88.3529","name":"KLKTBHTBPAR002","address":"Sap : I-KO-KLKT-ENB-1004<br\/>Loopback : 172.16.76.34<br\/>Up-Time : 67 days, 6:26:49.34","type":"PAR","status":"1","hoto":"1"},{"lat":"22.6288","lng":"88.3556","name":"KLKTBLRTESR002","address":"Sap : I-KO-KLKT-ENB-1005<br\/>Loopback : 172.23.251.110<br\/>Up-Time : 44 days, 3:50:30.91","type":"ESR","status":"1","hoto":"1"},{"lat":"22.6336","lng":"88.3724","name":"KLKTSTHRPAR001","address":"Sap : I-KO-KLKT-ENB-1006<br\/>Loopback : 172.16.76.64<br\/>Up-Time : 70 days, 5:48:04.25","type":"PAR","status":"1","hoto":"1"},{"lat":"22.6507","lng":"88.3701","name":"KLKTALMBESR002","address":"Sap : I-KO-KLKT-ENB-1010<br\/>Loopback : 172.23.246.34<br\/>Up-Time : 10 days, 15:32:38.57","type":"ESR","status":"1","hoto":"1"},{"lat":"22.682","lng":"88.379","name":"KLKTMTGIPAR001","address":"Sap : I-KO-KLKT-ENB-1011<br\/>Loopback : 172.16.76.214<br\/>Up-Time : 70 days, 7:12:41.64","type":"PAR","status":"1","hoto":"1"},{"lat":"22.6714","lng":"88.3705","name":"KLKTNHBTESR001","address":"Sap : I-KO-KLKT-ENB-1013<br\/>Loopback : 172.23.254.175<br\/>Up-Time : 31 days, 14:15:18.11","type":"ESR","status":"1","hoto":"1"},{"lat":"22.6319","lng":"88.3649","name":"KLKTKSPUESR004","address":"Sap : I-KO-KLKT-ENB-1014<br\/>Loopback : 172.23.245.240<br\/>Up-Time : 43 days, 13:47:01.35","type":"ESR","status":"1","hoto":"1"},{"lat":"22.6749","lng":"88.4572","name":"KLKTFTUCPAR001","address":"Sap : I-KO-KLKT-ENB-1016<br\/>Loopback : 172.16.76.80<br\/>Up-Time : 56 days, 14:38:22.08","type":"PAR","status":"1","hoto":"1"},{"lat":"22.6688","lng":"88.4729","name":"KLKTGPLHESR002","address":"Sap : I-KO-KLKT-ENB-1018<br\/>Loopback : 172.23.248.200<br\/>Up-Time : 24 days, 2:53:30.32","type":"ESR","status":"1","hoto":"1"},{"lat":"22.5767","lng":"88.3726","name":"KLKTPTLGPAR001","address":"Sap : I-KO-KLKT-ENB-1021<br\/>Loopback : 172.16.77.68<br\/>Up-Time : 70 days, 6:25:58.91","type":"PAR","status":"1","hoto":"1"},{"lat":"22.6002","lng":"88.3637","name":"KLKTRBLRESR001","address":"Sap : I-KO-KLKT-ENB-1026<br\/>Loopback : 172.23.249.68<br\/>Up-Time : 45 days, 1:31:05.69","type":"ESR","status":"1","hoto":"1"},{"lat":"22.6385","lng":"88.351","name":"KLKTBDPRESR002","address":"Sap : I-KO-KLKT-ENB-1030<br\/>Loopback : 172.23.249.52<br\/>Up-Time : 45 days, 1:48:48.10","type":"ESR","status":"1","hoto":"1"},{"lat":"22.6462","lng":"88.3635","name":"KLKTAHKGESR002","address":"Sap : I-KO-KLKT-ENB-1031<br\/>Loopback : 172.23.245.69<br\/>Up-Time : 55 days, 10:29:55.40","type":"ESR","status":"1","hoto":"1"},{"lat":"22.6206","lng":"88.3484","name":"KLKTLUETESR001","address":"Sap : I-KO-KLKT-ENB-1032<br\/>Loopback : 172.23.245.61<br\/>Up-Time : 54 days, 3:27:17.69","type":"ESR","status":"1","hoto":"1"},{"lat":"22.6281","lng":"88.3518","name":"KLKTBLRTESR003","address":"Sap : I-KO-KLKT-ENB-1034<br\/>Loopback : 172.23.246.148<br\/>Up-Time : 46 days, 13:04:53.01","type":"ESR","status":"1","hoto":"1"},{"lat":"22.6908","lng":"88.3794","name":"KLKTIDRNESR001","address":"Sap : I-KO-KLKT-ENB-1035<br\/>Loopback : 172.23.245.206<br\/>Up-Time : 33 days, 19:25:08.50","type":"ESR","status":"1","hoto":"1"},{"lat":"22.708","lng":"88.4135","name":"KLKTBHTRPAR001","address":"Sap : I-KO-KLKT-ENB-1038<br\/>Loopback : 172.16.76.79<br\/>Up-Time : 44 days, 17:46:47.45","type":"PAR","status":"1","hoto":"1"},{"lat":"22.6992","lng":"88.4327","name":"KLKTTLDRESR001","address":"Sap : I-KO-KLKT-ENB-1039<br\/>Loopback : 172.23.246.35<br\/>Up-Time : 54 days, 1:36:10.88","type":"ESR","status":"1","hoto":"1"},{"lat":"22.6886","lng":"88.374","name":"KLKTKMRHESR004","address":"Sap : I-KO-KLKT-ENB-1041<br\/>Loopback : 172.23.254.104<br\/>Up-Time : 40 days, 14:07:14.91","type":"ESR","status":"1","hoto":"1"},{"lat":"22.6756","lng":"88.371","name":"KLKTNHBTESR003","address":"Sap : I-KO-KLKT-ENB-1044<br\/>Loopback : 172.23.246.239<br\/>Up-Time : 54 days, 3:36:41.92","type":"ESR","status":"1","hoto":"1"},{"lat":"22.697","lng":"88.4438","name":"KLKTBHRTESR001","address":"Sap : I-KO-KLKT-ENB-1045<br\/>Loopback : 172.23.246.36<br\/>Up-Time : 26 days, 16:41:51.98","type":"ESR","status":"1","hoto":"1"},{"lat":"22.5594","lng":"88.3826","name":"KLKTPTRYESR002","address":"Sap : I-KO-KLKT-ENB-1050<br\/>Loopback : 172.23.249.89<br\/>Up-Time : 45 days, 1:25:16.53","type":"ESR","status":"1","hoto":"1"},{"lat":"22.5797","lng":"88.3665","name":"KLKTJMPRESR005","address":"Sap : I-KO-KLKT-ENB-1052<br\/>Loopback : 172.23.253.222<br\/>Up-Time : 61 days, 4:02:19.52","type":"ESR","status":"1","hoto":"1"},{"lat":"22.628","lng":"88.3331","name":"KLKTPTUPESR001","address":"Sap : I-KO-KLKT-ENB-1067<br\/>Loopback : 172.23.245.78<br\/>Up-Time : 40 days, 0:55:33.83","type":"ESR","status":"1","hoto":"1"},{"lat":"22.6965","lng":"88.3944","name":"KLKTMRGCESR001","address":"Sap : I-KO-KLKT-ENB-1070<br\/>Loopback : 172.23.248.196<br\/>Up-Time : 45 days, 3:14:46.29","type":"ESR","status":"1","hoto":"1"},{"lat":"22.691","lng":"88.3712","name":"KLKTAGRPESR002","address":"Sap : I-KO-KLKT-ENB-1073<br\/>Loopback : 172.23.248.65<br\/>Up-Time : 45 days, 4:23:36.51","type":"ESR","status":"1","hoto":"1"},{"lat":"22.6958","lng":"88.369","name":"KLKTPNHTESR001","address":"Sap : I-KO-KLKT-ENB-1074<br\/>Loopback : 172.23.250.75<br\/>Up-Time : 23 days, 14:17:38.52","type":"ESR","status":"1","hoto":"1"},{"lat":"22.6784","lng":"88.3467","name":"KLKTSBTLESR003","address":"Sap : I-KO-KLKT-ENB-1075<br\/>Loopback : 172.23.250.94<br\/> ","type":"ESR","status":"0","hoto":"1"},{"lat":"22.7047","lng":"88.4525","name":"KLKTBADUPAR001","address":"Sap : I-KO-KLKT-ENB-1078<br\/>Loopback : 172.16.76.81<br\/>Up-Time : 74 days, 1:33:29.86","type":"PAR","status":"1","hoto":"1"},{"lat":"22.6923","lng":"88.4662","name":"KLKTVKNNESR001","address":"Sap : I-KO-KLKT-ENB-1079<br\/>Loopback : 172.23.250.80<br\/>Up-Time : 24 days, 11:17:21.40","type":"ESR","status":"1","hoto":"1"},{"lat":"22.5553","lng":"88.3802","name":"KLKTPTRYESR001","address":"Sap : I-KO-KLKT-ENB-1087<br\/>Loopback : 172.23.249.121<br\/>Up-Time : 48 days, 15:50:28.95","type":"ESR","status":"1","hoto":"1"},{"lat":"22.583","lng":"88.3585","name":"KLKTMCUBESR006","address":"Sap : I-KO-KLKT-ENB-1089<br\/>Loopback : 172.23.254.168<br\/>Up-Time : 44 days, 3:59:22.59","type":"ESR","status":"1","hoto":"1"},{"lat":"22.5896","lng":"88.3536","name":"KLKTJRBGPAR001","address":"Sap : I-KO-KLKT-ENB-1095<br\/>Loopback : 172.16.76.97<br\/>Up-Time : 70 days, 7:20:17.09","type":"PAR","status":"1","hoto":"1"},{"lat":"22.5951","lng":"88.3442","name":"KLKTPNGRESR001","address":"Sap : I-KO-KLKT-ENB-1096<br\/>Loopback : 172.23.249.94<br\/>Up-Time : 45 days, 1:26:17.17","type":"ESR","status":"1","hoto":"1"},{"lat":"22.6053","lng":"88.3404","name":"KLKTBMGCESR001","address":"Sap : I-KO-KLKT-ENB-1098<br\/>Loopback : 172.23.245.192<br\/>Up-Time : 54 days, 5:12:16.65","type":"ESR","status":"1","hoto":"1"},{"lat":"22.6057","lng":"88.3489","name":"KLKTNMTLESR002","address":"Sap : I-KO-KLKT-ENB-1099<br\/>Loopback : 172.23.254.102<br\/>Up-Time : 44 days, 2:10:02.42","type":"ESR","status":"1","hoto":"1"},{"lat":"22.6462","lng":"88.3422","name":"KLKTNBBDESR001","address":"Sap : I-KO-KLKT-ENB-1101<br\/>Loopback : 172.23.249.152<br\/>Up-Time : 28 days, 13:48:52.16","type":"ESR","status":"1","hoto":"1"},{"lat":"22.67","lng":"88.3422","name":"KLKTUTPRESR002","address":"Sap : I-KO-KLKT-ENB-1113<br\/>Loopback : 172.23.246.53<br\/>Up-Time : 54 days, 1:33:11.29","type":"ESR","status":"1","hoto":"1"},{"lat":"22.7053","lng":"88.4646","name":"KLKTVKNSESR002","address":"Sap : I-KO-KLKT-ENB-1114<br\/>Loopback : 172.23.251.34<br\/>Up-Time : 28 days, 10:20:30.18","type":"ESR","status":"1","hoto":"1"},{"lat":"22.6992","lng":"88.4633","name":"KLKTAADAPAR001","address":"Sap : I-KO-KLKT-ENB-1115<br\/>Loopback : 172.16.77.8<br\/> ","type":"PAR","status":"0","hoto":"1"},{"lat":"22.6992","lng":"88.4633","name":"KLKTBSUGPAR001","address":"Sap : I-KO-KLKT-ENB-1115<br\/>Loopback : 172.16.77.144<br\/>Up-Time : 49 days, 15:27:11.82","type":"PAR","status":"1","hoto":"1"},{"lat":"22.7038","lng":"88.4715","name":"KLKTVKNSESR003","address":"Sap : I-KO-KLKT-ENB-1116<br\/>Loopback : 172.23.249.125<br\/>Up-Time : 24 days, 10:51:02.84","type":"ESR","status":"1","hoto":"1"},{"lat":"22.5886","lng":"88.359","name":"KLKTRMBGPAR001","address":"Sap : I-KO-KLKT-ENB-1129<br\/>Loopback : 172.16.77.187<br\/>Up-Time : 70 days, 5:49:09.74","type":"PAR","status":"1","hoto":"1"},{"lat":"22.5861","lng":"88.3524","name":"KLKTPSTAPAR001","address":"Sap : I-KO-KLKT-ENB-1132<br\/>Loopback : 172.16.77.67<br\/>Up-Time : 70 days, 6:25:21.34","type":"PAR","status":"1","hoto":"1"},{"lat":"22.5974","lng":"88.3412","name":"KLKTPNGRESR002","address":"Sap : I-KO-KLKT-ENB-1133<br\/>Loopback : 172.23.249.41<br\/>Up-Time : 45 days, 1:50:49.39","type":"ESR","status":"1","hoto":"1"},{"lat":"22.6003","lng":"88.3384","name":"KLKTMKHLPAR002","address":"Sap : I-KO-KLKT-ENB-1135<br\/>Loopback : 172.16.77.155<br\/>Up-Time : 40 days, 15:41:00.29","type":"PAR","status":"1","hoto":"1"},{"lat":"22.6029","lng":"88.3374","name":"KLKTMKHLPAR001","address":"Sap : I-KO-KLKT-ENB-1136<br\/>Loopback : 172.16.77.76<br\/>Up-Time : 59 days, 20:08:07.93","type":"PAR","status":"1","hoto":"1"},{"lat":"22.6354","lng":"88.328","name":"KLKTGHPRESR003","address":"Sap : I-KO-KLKT-ENB-1139<br\/>Loopback : 172.23.254.125<br\/>Up-Time : 34 days, 13:26:53.74","type":"ESR","status":"1","hoto":"1"},{"lat":"22.5635","lng":"88.3432","name":"KLKTBUGTESR004","address":"Sap : I-KO-KLKT-ENB-1141<br\/>Loopback : 172.23.254.234<br\/>Up-Time : 9 days, 14:28:58.37","type":"ESR","status":"1","hoto":"1"},{"lat":"22.7133","lng":"88.386","name":"KLKTPNSIPAR001","address":"Sap : I-KO-KLKT-ENB-1142<br\/>Loopback : 172.16.77.101<br\/>Up-Time : 70 days, 6:25:49.61","type":"PAR","status":"1","hoto":"1"},{"lat":"22.7241","lng":"88.3866","name":"KLKTSDPLPAR001","address":"Sap : I-KO-KLKT-ENB-1143<br\/>Loopback : 172.16.76.88<br\/>Up-Time : 70 days, 5:54:15.94","type":"PAR","status":"1","hoto":"1"},{"lat":"22.6931","lng":"88.3496","name":"KLKTABDPESR005","address":"Sap : I-KO-KLKT-ENB-1144<br\/>Loopback : 172.23.252.237<br\/>Up-Time : 44 days, 2:43:00.21","type":"ESR","status":"1","hoto":"1"},{"lat":"22.7027","lng":"88.353","name":"KLKTRJWIESR002","address":"Sap : I-KO-KLKT-ENB-1145<br\/>Loopback : 172.23.247.109<br\/>Up-Time : 48 days, 3:37:01.60","type":"ESR","status":"1","hoto":"1"},{"lat":"22.6824","lng":"88.3423","name":"KLKTSBTLESR001","address":"Sap : I-KO-KLKT-ENB-1147<br\/>Loopback : 172.23.250.60<br\/>Up-Time : 52 days, 23:58:19.24","type":"ESR","status":"1","hoto":"1"},{"lat":"22.6911","lng":"88.4803","name":"KLKTNFGCPAR001","address":"Sap : I-KO-KLKT-ENB-1152<br\/>Loopback : 172.16.77.109<br\/>Up-Time : 68 days, 7:06:55.67","type":"PAR","status":"1","hoto":"1"},{"lat":"22.5579","lng":"88.3721","name":"KLKTPHLSESR002","address":"Sap : I-KO-KLKT-ENB-1155<br\/>Loopback : 172.23.250.209<br\/>Up-Time : 45 days, 1:31:10.98","type":"ESR","status":"1","hoto":"1"},{"lat":"22.5546","lng":"88.3745","name":"KLKTANDIPAR002","address":"Sap : I-KO-KLKT-ENB-1156<br\/>Loopback : 172.16.77.185<br\/>Up-Time : 69 days, 1:31:55.45","type":"PAR","status":"1","hoto":"1"},{"lat":"22.5825","lng":"88.3504","name":"KLKTPSTAPAR002","address":"Sap : I-KO-KLKT-ENB-1161<br\/>Loopback : 172.16.77.171<br\/>Up-Time : 67 days, 6:16:18.17","type":"PAR","status":"1","hoto":"1"},{"lat":"22.6148","lng":"88.3253","name":"KLKTTKPRESR001","address":"Sap : I-KO-KLKT-ENB-1168<br\/>Loopback : 172.23.249.96<br\/>Up-Time : 9 days, 13:13:56.31","type":"ESR","status":"1","hoto":"1"},{"lat":"22.5953","lng":"88.3375","name":"KLKTNDLMESR001","address":"Sap : I-KO-KLKT-ENB-1170<br\/>Loopback : 172.23.246.43<br\/>Up-Time : 38 days, 0:58:37.54","type":"ESR","status":"1","hoto":"1"},{"lat":"22.5924","lng":"88.3369","name":"KLKTPLKNESR001","address":"Sap : I-KO-KLKT-ENB-1172<br\/>Loopback : 172.23.248.35<br\/>Up-Time : 45 days, 2:55:38.41","type":"ESR","status":"1","hoto":"1"},{"lat":"22.597","lng":"88.3276","name":"KLKTKTBAPAR003","address":"Sap : I-KO-KLKT-ENB-1173<br\/>Loopback : 172.16.76.89<br\/>Up-Time : 69 days, 2:11:53.89","type":"PAR","status":"1","hoto":"1"},{"lat":"22.6544","lng":"88.3283","name":"KLKTBLYDESR003","address":"Sap : I-KO-KLKT-ENB-1174<br\/>Loopback : 172.23.250.142<br\/>Up-Time : 44 days, 10:32:49.18","type":"ESR","status":"1","hoto":"1"},{"lat":"22.6296","lng":"88.3232","name":"KLKTBMGIESR001","address":"Sap : I-KO-KLKT-ENB-1177<br\/>Loopback : 172.23.248.148<br\/>Up-Time : 22 days, 17:12:05.35","type":"ESR","status":"1","hoto":"1"},{"lat":"22.7241","lng":"88.3803","name":"KLKTACLPESR001","address":"Sap : I-KO-KLKT-ENB-1179<br\/>Loopback : 172.23.246.185<br\/>Up-Time : 4 days, 16:22:00.51","type":"ESR","status":"1","hoto":"1"},{"lat":"22.6956","lng":"88.3459","name":"KLKTABDPESR002","address":"Sap : I-KO-KLKT-ENB-1180<br\/>Loopback : 172.23.249.95<br\/>Up-Time : 14 days, 13:45:28.12","type":"ESR","status":"1","hoto":"1"},{"lat":"22.7086","lng":"88.3537","name":"KLKTDRDGESR002","address":"Sap : I-KO-KLKT-ENB-1181<br\/>Loopback : 172.23.251.36<br\/>Up-Time : 7 days, 3:55:47.59","type":"ESR","status":"1","hoto":"1"},{"lat":"22.7089","lng":"88.3474","name":"KLKTDRDGPAR001","address":"Sap : I-KO-KLKT-ENB-1182<br\/>Loopback : 172.16.77.73<br\/>Up-Time : 67 days, 11:15:40.50","type":"PAR","status":"1","hoto":"1"},{"lat":"22.7115","lng":"88.4901","name":"KLKTNDBGPAR001","address":"Sap : I-KO-KLKT-ENB-1185<br\/>Loopback : 172.16.77.110<br\/>Up-Time : 29 days, 11:21:30.66","type":"PAR","status":"1","hoto":"1"},{"lat":"22.5807","lng":"88.4464","name":"KLKTMHSTESR001","address":"Sap : I-KO-KLKT-ENB-1187<br\/>Loopback : 172.23.245.227<br\/>Up-Time : 48 days, 15:08:55.44","type":"ESR","status":"1","hoto":"1"},{"lat":"22.5605","lng":"88.3604","name":"KLKTTLTAESR003","address":"Sap : I-KO-KLKT-ENB-1188<br\/>Loopback : 172.23.254.136<br\/>Up-Time : 43 days, 15:57:50.10","type":"ESR","status":"1","hoto":"1"},{"lat":"22.5398","lng":"88.3786","name":"KLKTGOBRESR001","address":"Sap : I-KO-KLKT-ENB-1194<br\/>Loopback : 172.23.248.228<br\/>Up-Time : 45 days, 1:41:08.14","type":"ESR","status":"1","hoto":"1"},{"lat":"22.6042","lng":"88.3217","name":"KLKTNHRKESR002","address":"Sap : I-KO-KLKT-ENB-1202<br\/>Loopback : 172.23.248.20<br\/>Up-Time : 33 days, 20:18:50.41","type":"ESR","status":"1","hoto":"1"},{"lat":"22.5968","lng":"88.3228","name":"KLKTKTBAPAR002","address":"Sap : I-KO-KLKT-ENB-1207<br\/>Loopback : 172.16.76.110<br\/>Up-Time : 70 days, 7:12:08.29","type":"PAR","status":"1","hoto":"1"},{"lat":"22.5977","lng":"88.3177","name":"KLKTGHTRESR002","address":"Sap : I-KO-KLKT-ENB-1208<br\/>Loopback : 172.23.251.113<br\/>Up-Time : 44 days, 3:56:25.68","type":"ESR","status":"1","hoto":"1"},{"lat":"22.6598","lng":"88.309","name":"KLKTBLYDESR001","address":"Sap : I-KO-KLKT-ENB-1210<br\/>Loopback : 172.23.245.35<br\/>Up-Time : 45 days, 7:34:16.36","type":"ESR","status":"1","hoto":"1"},{"lat":"22.6115","lng":"88.303","name":"KLKTNTGHESR001","address":"Sap : I-KO-KLKT-ENB-1211<br\/>Loopback : 172.23.252.175<br\/>Up-Time : 33 days, 7:01:43.05","type":"ESR","status":"1","hoto":"1"},{"lat":"22.6165","lng":"88.3187","name":"KLKTLLUHESR001","address":"Sap : I-KO-KLKT-ENB-1212<br\/>Loopback : 172.23.246.248<br\/>Up-Time : 54 days, 1:19:08.47","type":"ESR","status":"1","hoto":"1"},{"lat":"22.7235","lng":"88.3746","name":"KLKTKRDAESR002","address":"Sap : I-KO-KLKT-ENB-1213<br\/>Loopback : 172.23.248.42<br\/>Up-Time : 45 days, 3:03:25.02","type":"ESR","status":"1","hoto":"1"},{"lat":"22.7306","lng":"88.3857","name":"KLKTSRDYESR001","address":"Sap : I-KO-KLKT-ENB-1214<br\/>Loopback : 172.23.248.88<br\/>Up-Time : 45 days, 4:25:11.67","type":"ESR","status":"1","hoto":"1"},{"lat":"22.7153","lng":"88.3547","name":"KLKTDRDGESR006","address":"Sap : I-KO-KLKT-ENB-1216<br\/>Loopback : 172.23.245.197<br\/>Up-Time : 38 days, 13:18:07.94","type":"ESR","status":"1","hoto":"1"},{"lat":"22.7155","lng":"88.3385","name":"KLKTSBHRESR001","address":"Sap : I-KO-KLKT-ENB-1217<br\/>Loopback : 172.23.251.38<br\/>Up-Time : 14 days, 15:26:03.47","type":"ESR","status":"1","hoto":"1"},{"lat":"22.7302","lng":"88.4802","name":"KLKTPJHLESR001","address":"Sap : I-KO-KLKT-ENB-1218<br\/>Loopback : 172.23.252.176<br\/>Up-Time : 32 days, 19:36:45.45","type":"ESR","status":"1","hoto":"1"},{"lat":"22.5323","lng":"88.3876","name":"KLKTTPSIESR006","address":"Sap : I-KO-KLKT-ENB-1226<br\/>Loopback : 172.23.251.24<br\/>Up-Time : 44 days, 2:48:17.65","type":"ESR","status":"1","hoto":"1"},{"lat":"22.5355","lng":"88.3784","name":"KLKTKSTIESR002","address":"Sap : I-KO-KLKT-ENB-1228<br\/>Loopback : 172.23.247.166<br\/>Up-Time : 10 days, 15:01:51.31","type":"ESR","status":"1","hoto":"1"},{"lat":"22.5704","lng":"88.3481","name":"KLKTLDGHPAR001","address":"Sap : I-KO-KLKT-ENB-1233<br\/>Loopback : 172.16.77.162<br\/>Up-Time : 69 days, 2:12:30.54","type":"PAR","status":"1","hoto":"1"},{"lat":"22.6062","lng":"88.3165","name":"KLKTDSNRPAR001","address":"Sap : I-KO-KLKT-ENB-1234<br\/>Loopback : 172.16.76.70<br\/>Up-Time : 60 days, 6:45:33.41","type":"PAR","status":"1","hoto":"1"},