var maplatlng = {"latlng":[{"lat":"23.642","lng":"75.8705","name":"AAGRAAGRESR001","address":"Sap : I-MP-AAGR-ENB-6003<br\/>Loopback : 172.22.102.236<br\/>Up-Time : 23 days, 12:07:10.21","type":"ESR","status":"1","hoto":"1"},{"lat":"23.1182","lng":"83.2089","name":"ABKPBGWPESR001","address":"Sap : I-MP-ABKP-ENB-0001<br\/>Loopback : 172.23.20.9<br\/>Up-Time : 18 days, 10:42:03.92","type":"ESR","status":"1","hoto":"1"},{"lat":"23.1072","lng":"83.1897","name":"ABKPABCHESR001","address":"Sap : I-MP-ABKP-ENB-0002<br\/>Loopback : 172.23.20.20<br\/>Up-Time : 18 days, 17:58:21.29","type":"ESR","status":"1","hoto":"1"},{"lat":"23.1166","lng":"83.1899","name":"ABKPBUPRESR001","address":"Sap : I-MP-ABKP-ENB-0003<br\/>Loopback : 172.23.20.18<br\/>Up-Time : 56 days, 3:02:18.51","type":"ESR","status":"1","hoto":"1"},{"lat":"23.1229","lng":"83.2075","name":"ABKPCDNCESR001","address":"Sap : I-MP-ABKP-ENB-0004<br\/>Loopback : 172.23.20.12<br\/>Up-Time : 6 days, 17:19:54.70","type":"ESR","status":"1","hoto":"1"},{"lat":"23.1329","lng":"83.2061","name":"ABKPBRPRESR001","address":"Sap : I-MP-ABKP-ENB-0005<br\/>Loopback : 172.23.20.10<br\/>Up-Time : 32 days, 17:21:45.49","type":"ESR","status":"1","hoto":"1"},{"lat":"23.1358","lng":"83.1981","name":"ABKPAMBQESR001","address":"Sap : I-MP-ABKP-ENB-0006<br\/>Loopback : 172.23.20.15<br\/>Up-Time : 56 days, 5:21:11.45","type":"ESR","status":"1","hoto":"1"},{"lat":"23.1269","lng":"83.1917","name":"ABKPDVGJESR001","address":"Sap : I-MP-ABKP-ENB-0007<br\/>Loopback : 172.23.20.16<br\/>Up-Time : 32 days, 9:49:08.78","type":"ESR","status":"1","hoto":"1"},{"lat":"23.113","lng":"83.1813","name":"ABKPABCGESR001","address":"Sap : I-MP-ABKP-ENB-0008<br\/>Loopback : 172.23.20.19<br\/>Up-Time : 56 days, 3:02:41.74","type":"ESR","status":"1","hoto":"1"},{"lat":"23.1369","lng":"83.1885","name":"ABKPNWPRESR001","address":"Sap : I-MP-ABKP-ENB-0009<br\/>Loopback : 172.23.20.25<br\/>Up-Time : 9 days, 15:40:39.74","type":"ESR","status":"1","hoto":"1"},{"lat":"23.1203","lng":"83.1985","name":"ABKPRSPLESR001","address":"Sap : I-MP-ABKP-ENB-0010<br\/>Loopback : 172.23.20.13<br\/>Up-Time : 56 days, 5:05:09.02","type":"ESR","status":"1","hoto":"1"},{"lat":"23.1256","lng":"83.179","name":"ABKPABKVESR001","address":"Sap : I-MP-ABKP-ENB-0011<br\/>Loopback : 172.23.20.24<br\/>Up-Time : 10 days, 12:27:33.42","type":"ESR","status":"1","hoto":"1"},{"lat":"23.1484","lng":"83.19","name":"ABKPPNDRESR002","address":"Sap : I-MP-ABKP-ENB-0013<br\/>Loopback : 172.23.20.26<br\/>Up-Time : 56 days, 3:00:46.04","type":"ESR","status":"1","hoto":"1"},{"lat":"23.1449","lng":"83.1818","name":"ABKPPNDRESR001","address":"Sap : I-MP-ABKP-ENB-0014<br\/>Loopback : 172.23.20.27<br\/>Up-Time : 51 days, 6:15:14.92","type":"ESR","status":"1","hoto":"1"},{"lat":"23.142","lng":"83.173","name":"ABKPSBHNESR001","address":"Sap : I-MP-ABKP-ENB-0015<br\/>Loopback : 172.23.20.22<br\/>Up-Time : 13 days, 18:14:52.07","type":"ESR","status":"1","hoto":"1"},{"lat":"23.1346","lng":"83.1689","name":"ABKPBSNPESR001","address":"Sap : I-MP-ABKP-ENB-0016<br\/>Loopback : 172.23.20.23<br\/>Up-Time : 56 days, 4:15:36.79","type":"ESR","status":"1","hoto":"1"},{"lat":"23.1406","lng":"83.1555","name":"ABKPAJRMESR001","address":"Sap : I-MP-ABKP-ENB-0020<br\/>Loopback : 172.23.22.108<br\/>Up-Time : 59 days, 18:17:34.28","type":"ESR","status":"1","hoto":"1"},{"lat":"23.1218","lng":"83.192","name":"ABKPRYCLESR001","address":"Sap : I-MP-ABKP-ENB-6000<br\/>Loopback : 172.23.20.17<br\/>Up-Time : 56 days, 3:43:20.20","type":"ESR","status":"1","hoto":"1"},{"lat":"23.1268","lng":"83.2008","name":"ABKPRNJTESR001","address":"Sap : I-MP-ABKP-ENB-6002<br\/>Loopback : 172.23.20.14<br\/>Up-Time : 12 days, 22:32:47.58","type":"ESR","status":"1","hoto":"1"},{"lat":"23.115","lng":"83.1978","name":"ABKPKUNDESR001","address":"Sap : I-MP-ABKP-ENB-6003<br\/>Loopback : 172.23.20.11<br\/>Up-Time : 44 days, 7:33:22.75","type":"ESR","status":"1","hoto":"1"},{"lat":"22.9798","lng":"83.0455","name":"LAKPLAKPESR002","address":"Sap : I-MP-ABKP-ENB-6004<br\/>Loopback : 172.23.22.114<br\/>Up-Time : 58 days, 13:23:58.72","type":"ESR","status":"1","hoto":"1"},{"lat":"22.9103","lng":"82.9524","name":"UDPIUDPIESR001","address":"Sap : I-MP-ABKP-ENB-6006<br\/>Loopback : 172.23.25.251<br\/>Up-Time : 60 days, 2:42:29.51","type":"ESR","status":"1","hoto":"1"},{"lat":"23.1331","lng":"83.182","name":"ABKPPTLPESR001","address":"Sap : I-MP-ABKP-ENB-6007<br\/>Loopback : 172.23.20.21<br\/>Up-Time : 56 days, 3:54:03.13","type":"ESR","status":"1","hoto":"1"},{"lat":"23.0729","lng":"83.1233","name":"ABKPABKPESR001","address":"Sap : I-MP-ABKP-ENB-9004<br\/>Loopback : 172.23.22.112<br\/>Up-Time : 11 days, 10:27:26.45","type":"ESR","status":"1","hoto":"1"},{"lat":"23.0205","lng":"83.0699","name":"LAKPLAKPESR003","address":"Sap : I-MP-ABKP-ENB-9005<br\/>Loopback : 172.23.22.113<br\/>Up-Time : 63 days, 3:53:28.37","type":"ESR","status":"1","hoto":"1"},{"lat":"22.9486","lng":"83.0039","name":"LAKPLAKPESR001","address":"Sap : I-MP-ABKP-ENB-9006<br\/>Loopback : 172.23.25.244<br\/>Up-Time : 12 days, 6:02:10.00","type":"ESR","status":"1","hoto":"1"},{"lat":"21.0511","lng":"81.7431","name":"ABNPABNPESR001","address":"Sap : I-MP-ABNP-ENB-6000<br\/>Loopback : 172.23.22.82<br\/>Up-Time : 56 days, 5:41:07.04","type":"ESR","status":"1","hoto":"1"},{"lat":"21.0893","lng":"81.6255","name":"ABNPABNPESR002","address":"Sap : I-MP-ABNP-ENB-6003<br\/>Loopback : 172.23.25.107<br\/>Up-Time : 61 days, 23:25:45.18","type":"ESR","status":"1","hoto":"1"},{"lat":"21.1178","lng":"81.7647","name":"NYRPNYRPESR002","address":"Sap : I-MP-ABNP-ENB-6004<br\/>Loopback : 172.23.25.171<br\/>Up-Time : 46 days, 3:43:02.99","type":"ESR","status":"1","hoto":"1"},{"lat":"21.1181","lng":"81.7357","name":"NYRPNYRPESR001","address":"Sap : I-MP-ABNP-ENB-9007<br\/>Loopback : 172.23.16.61<br\/>Up-Time : 25 days, 16:23:42.92","type":"ESR","status":"1","hoto":"1"},{"lat":"21.349","lng":"81.395","name":"AHWRAHWRESR004","address":"Sap : I-MP-AHWR-ENB-T001<br\/>Loopback : 172.23.16.41<br\/>Up-Time : 33 days, 10:22:55.08","type":"ESR","status":"1","hoto":"1"},{"lat":"22.3052","lng":"74.3571","name":"ALRJALRJESR002","address":"Sap : I-MP-ALRJ-ENB-6000<br\/>Loopback : 172.22.90.28<br\/>Up-Time : 49 days, 13:00:31.44","type":"ESR","status":"1","hoto":"1"},{"lat":"22.0108","lng":"82.4285","name":"ALTRALTRESR003","address":"Sap : I-MP-ALTR-ENB-6000<br\/>Loopback : 172.23.16.150<br\/>Up-Time : 56 days, 1:56:21.72","type":"ESR","status":"1","hoto":"1"},{"lat":"22.0261","lng":"82.4291","name":"ALTRALTRESR004","address":"Sap : I-MP-ALTR-ENB-6001<br\/>Loopback : 172.23.16.151<br\/>Up-Time : 50 days, 5:45:17.89","type":"ESR","status":"1","hoto":"1"},{"lat":"22.0188","lng":"82.4266","name":"ALTRALTRESR002","address":"Sap : I-MP-ALTR-ENB-9002<br\/>Loopback : 172.23.16.109<br\/>Up-Time : 29 days, 19:14:12.33","type":"ESR","status":"1","hoto":"1"},{"lat":"22.0303","lng":"82.4222","name":"ALTRALTRESR005","address":"Sap : I-MP-ALTR-ENB-9003<br\/>Loopback : 172.23.22.109<br\/>Up-Time : 63 days, 1:00:36.70","type":"ESR","status":"1","hoto":"1"},{"lat":"24.2697","lng":"80.9735","name":"AMANAMANESR002","address":"Sap : I-MP-AMAN-ENB-6002<br\/>Loopback : 172.23.20.240<br\/>Up-Time : 4 days, 22:11:50.83","type":"ESR","status":"1","hoto":"1"},{"lat":"24.407","lng":"81.2469","name":"AMANAMANESR001","address":"Sap : I-MP-AMAN-ENB-6003<br\/>Loopback : 172.23.26.35<br\/>Up-Time : 34 days, 10:43:22.86","type":"ESR","status":"1","hoto":"1"},{"lat":"24.3605","lng":"81.1898","name":"AMANAMANESR008","address":"Sap : I-MP-AMAN-ENB-6005<br\/>Loopback : 172.23.26.40<br\/>Up-Time : 44 days, 3:44:30.30","type":"ESR","status":"1","hoto":"1"},{"lat":"24.502","lng":"81.1157","name":"AMANAMANESR007","address":"Sap : I-MP-AMAN-ENB-9006<br\/>Loopback : 172.23.22.60<br\/>Up-Time : 10 days, 12:06:17.99","type":"ESR","status":"1","hoto":"1"},{"lat":"26.5717","lng":"78.2611","name":"AMBHAMBHESR002","address":"Sap : I-MP-AMBH-ENB-6007<br\/>Loopback : 172.22.88.131<br\/>Up-Time : 11:43:53.06","type":"ESR","status":"1","hoto":"1"},{"lat":"21.9223","lng":"78.1213","name":"AMLAAMLAESR003","address":"Sap : I-MP-AMLA-ENB-6000<br\/>Loopback : 172.22.85.75<br\/>Up-Time : 45 days, 23:29:34.73","type":"ESR","status":"1","hoto":"1"},{"lat":"21.9436","lng":"78.234","name":"AMLAAMLAESR005","address":"Sap : I-MP-AMLA-ENB-6003<br\/>Loopback : 172.22.88.27<br\/>Up-Time : 42 days, 0:34:07.22","type":"ESR","status":"1","hoto":"1"},{"lat":"21.991","lng":"78.1904","name":"AMLAAMLAESR001","address":"Sap : I-MP-AMLA-ENB-6004<br\/>Loopback : 172.22.88.28<br\/>Up-Time : 42 days, 1:30:35.21","type":"ESR","status":"1","hoto":"1"},{"lat":"21.9009","lng":"78.1623","name":"AMLAAMLAESR006","address":"Sap : I-MP-AMLA-ENB-9006<br\/>Loopback : 172.22.86.242<br\/>Up-Time : 8 days, 12:23:58.79","type":"ESR","status":"1","hoto":"1"},{"lat":"21.8397","lng":"78.0747","name":"AMLAAMLAESR004","address":"Sap : I-MP-AMLA-ENB-9007<br\/>Loopback : 172.22.88.61<br\/>Up-Time : 7 days, 20:20:46.69","type":"ESR","status":"1","hoto":"1"},{"lat":"24.4253","lng":"80.0323","name":"AMNGAMNGESR002","address":"Sap : I-MP-AMNG-ENB-6000<br\/>Loopback : 172.23.21.17<br\/>Up-Time : 52 days, 1:45:36.26","type":"ESR","status":"1","hoto":"1"},{"lat":"22.2976","lng":"79.1666","name":"AMWDAMWDESR001","address":"Sap : I-MP-AMWD-ENB-6000<br\/>Loopback : 172.23.26.234<br\/>Up-Time : 44 days, 1:27:13.79","type":"ESR","status":"1","hoto":"1"},{"lat":"22.3403","lng":"79.1512","name":"AMWDAMWDESR002","address":"Sap : I-MP-AMWD-ENB-6001<br\/>Loopback : 172.23.26.240<br\/>Up-Time : 3 days, 12:43:57.52","type":"ESR","status":"1","hoto":"1"},{"lat":"22.1971","lng":"79.0585","name":"AMWDAMWDESR003","address":"Sap : I-MP-AMWD-ENB-6004<br\/>Loopback : 172.23.26.235<br\/>Up-Time : 44 days, 1:27:19.32","type":"ESR","status":"1","hoto":"1"},{"lat":"23.1902","lng":"81.9311","name":"BADXBADXESR001","address":"Sap : I-MP-ANPR-ENB-6001<br\/>Loopback : 172.23.20.229<br\/>Up-Time : 36 days, 3:09:41.61","type":"ESR","status":"1","hoto":"1"},{"lat":"23.1867","lng":"82.1197","name":"ANPRANPRESR007","address":"Sap : I-MP-ANPR-ENB-6002<br\/>Loopback : 172.23.20.233<br\/>Up-Time : 45 days, 4:33:28.34","type":"ESR","status":"1","hoto":"1"},{"lat":"23.1705","lng":"81.6423","name":"ANPRANPRESR002","address":"Sap : I-MP-ANPR-ENB-6003<br\/>Loopback : 172.23.20.180<br\/>Up-Time : 38 days, 12:58:22.99","type":"ESR","status":"1","hoto":"1"},{"lat":"23.1341","lng":"81.9152","name":"ANPRANPRESR004","address":"Sap : I-MP-ANPR-ENB-6005<br\/>Loopback : 172.23.24.80<br\/>Up-Time : 44 days, 2:18:47.99","type":"ESR","status":"1","hoto":"1"},{"lat":"23.1615","lng":"81.9315","name":"ANPRANPRESR005","address":"Sap : I-MP-ANPR-ENB-6006<br\/>Loopback : 172.23.23.210<br\/>Up-Time : 40 days, 4:36:21.20","type":"ESR","status":"1","hoto":"1"},{"lat":"23.1446","lng":"81.6506","name":"ANPRANPRESR009","address":"Sap : I-MP-ANPR-ENB-6007<br\/>Loopback : 172.23.20.181<br\/>Up-Time : 28 days, 23:26:13.36","type":"ESR","status":"1","hoto":"1"},{"lat":"23.2202","lng":"82.1328","name":"DOLADOLAESR001","address":"Sap : I-MP-ANPR-ENB-V001<br\/>Loopback : 172.23.25.169<br\/>Up-Time : 6 days, 22:34:54.56","type":"ESR","status":"1","hoto":"1"},{"lat":"21.195","lng":"81.9668","name":"ARNGARNGESR003","address":"Sap : I-MP-ARNG-ENB-6000<br\/>Loopback : 172.23.20.162<br\/>Up-Time : 16 days, 11:30:06.31","type":"ESR","status":"1","hoto":"1"},{"lat":"21.2311","lng":"81.7574","name":"ARNGARNGESR002","address":"Sap : I-MP-ARNG-ENB-6005<br\/>Loopback : 172.23.25.17<br\/>Up-Time : 62 days, 1:54:20.52","type":"ESR","status":"1","hoto":"1"},{"lat":"21.2283","lng":"81.783","name":"ARNGARNGESR005","address":"Sap : I-MP-ARNG-ENB-9008<br\/>Loopback : 172.23.25.208<br\/>Up-Time : 55 days, 11:53:45.60","type":"ESR","status":"1","hoto":"1"},{"lat":"21.2459","lng":"81.7738","name":"ARNGARNGESR006","address":"Sap : I-MP-ARNG-ENB-T001<br\/>Loopback : 172.23.25.16<br\/>Up-Time : 44 days, 1:21:19.03","type":"ESR","status":"1","hoto":"1"},{"lat":"21.2218","lng":"81.7648","name":"MDIRMDIRESR001","address":"Sap : I-MP-ARNG-ENB-V001<br\/>Loopback : 172.23.25.193<br\/>Up-Time : 19 days, 19:07:45.90","type":"ESR","status":"1","hoto":"1"},{"lat":"23.0191","lng":"76.7193","name":"ASTAASTAESR005","address":"Sap : I-MP-ASTA-ENB-6001<br\/>Loopback : 172.22.86.5<br\/>Up-Time : 15 days, 15:08:27.90","type":"ESR","status":"1","hoto":"1"},{"lat":"23.0168","lng":"76.7252","name":"ASTAASTAESR001","address":"Sap : I-MP-ASTA-ENB-6003<br\/>Loopback : 172.22.86.6<br\/>Up-Time : 25 days, 15:58:02.40","type":"ESR","status":"1","hoto":"1"},{"lat":"23.0154","lng":"76.5987","name":"JWRAJWRAESR002","address":"Sap : I-MP-ASTA-ENB-6004<br\/>Loopback : 172.22.86.110<br\/>Up-Time : 5 days, 23:10:23.29","type":"ESR","status":"1","hoto":"1"},{"lat":"23.0852","lng":"76.7029","name":"ASTAASTAESR008","address":"Sap : I-MP-ASTA-ENB-6005<br\/>Loopback : 172.22.89.224<br\/>Up-Time : 1 day, 19:11:13.33","type":"ESR","status":"1","hoto":"1"},{"lat":"23.0775","lng":"76.5491","name":"JWRAJWRAESR003","address":"Sap : I-MP-ASTA-ENB-6006<br\/>Loopback : 172.22.86.31<br\/>Up-Time : 15:41:07.58","type":"ESR","status":"1","hoto":"1"},{"lat":"22.9939","lng":"76.5138","name":"JWRAJWRAESR001","address":"Sap : I-MP-ASTA-ENB-6008<br\/>Loopback : 172.22.86.10<br\/>Up-Time : 45 days, 23:29:29.89","type":"ESR","status":"1","hoto":"1"},{"lat":"23.0856","lng":"76.8539","name":"ASTAASTAESR002","address":"Sap : I-MP-ASTA-ENB-6009<br\/>Loopback : 172.22.80.234<br\/>Up-Time : 8 days, 12:42:41.85","type":"ESR","status":"1","hoto":"1"},{"lat":"23.1734","lng":"76.6609","name":"ASTAASTAESR009","address":"Sap : I-MP-ASTA-ENB-6012<br\/>Loopback : 172.22.89.223<br\/>Up-Time : 45 days, 1:27:55.16","type":"ESR","status":"1","hoto":"1"},{"lat":"23.0373","lng":"76.7242","name":"ASTAASTAESR004","address":"Sap : I-MP-ASTA-ENB-9007<br\/>Loopback : 172.22.89.212<br\/>Up-Time : 13:18:21.92","type":"ESR","status":"1","hoto":"1"},{"lat":"23.0373","lng":"76.7242","name":"ASTAASTAPAR001","address":"Sap : I-MP-ASTA-ENB-9007<br\/>Loopback : 172.16.44.55<br\/> ","type":"PAR","status":"0","hoto":"1"},{"lat":"23.0586","lng":"76.7887","name":"ASTAASTAESR003","address":"Sap : I-MP-ASTA-ENB-9010<br\/>Loopback : 172.22.81.247<br\/>Up-Time : 30 days, 15:35:27.52","type":"ESR","status":"1","hoto":"1"},{"lat":"23.0193","lng":"76.6681","name":"ASTAASTAESR007","address":"Sap : I-MP-ASTA-ENB-9011<br\/>Loopback : 172.22.89.222<br\/>Up-Time : 3:20:29.12","type":"ESR","status":"1","hoto":"1"},{"lat":"22.9865","lng":"76.4913","name":"JWRAJWRAESR004","address":"Sap : I-MP-ASTA-ENB-9012<br\/>Loopback : 172.22.89.213<br\/> ","type":"ESR","status":"0","hoto":"1"},{"lat":"23.0085","lng":"76.7215","name":"ASTAASTAESR006","address":"Sap : I-MP-ASTA-ENB-9015<br\/>Loopback : 172.22.81.246<br\/>Up-Time : 14 days, 11:10:30.78","type":"ESR","status":"1","hoto":"1"},{"lat":"23.0058","lng":"76.5064","name":"JWRRJWRRESR001","address":"Sap : I-MP-ASTA-ENB-V001<br\/>Loopback : 172.22.86.11<br\/>Up-Time : 4 days, 15:28:59.35","type":"ESR","status":"1","hoto":"1"},{"lat":"26.7062","lng":"78.7487","name":"ATREATREESR001","address":"Sap : I-MP-ATRE-ENB-6001<br\/>Loopback : 172.22.86.7<br\/>Up-Time : 9 days, 9:24:21.82","type":"ESR","status":"1","hoto":"1"},{"lat":"24.9731","lng":"77.5671","name":"BAASBAASESR002","address":"Sap : I-MP-BAAS-ENB-6000<br\/>Loopback : 172.22.85.206<br\/>Up-Time : 5 days, 17:56:59.21","type":"ESR","status":"1","hoto":"1"},{"lat":"22.7943","lng":"77.8203","name":"BABIBABIESR003","address":"Sap : I-MP-BABI-ENB-6002<br\/>Loopback : 172.22.83.46<br\/>Up-Time : 46 days, 1:10:23.54","type":"ESR","status":"1","hoto":"1"},{"lat":"22.7072","lng":"77.9421","name":"BABIBABIESR001","address":"Sap : I-MP-BABI-ENB-9008<br\/>Loopback : 172.22.85.74<br\/>Up-Time : 11 days, 23:12:57.74","type":"ESR","status":"1","hoto":"1"},{"lat":"22.7054","lng":"77.9359","name":"BABIBABIESR002","address":"Sap : I-MP-BABI-ENB-H001<br\/>Loopback : 172.22.87.90<br\/>Up-Time : 46 days, 2:15:01.30","type":"ESR","status":"1","hoto":"1"},{"lat":"21.1424","lng":"81.3227","name":"DGBGDHNRESR001","address":"Sap : I-MP-BACD-ENB-W001<br\/>Loopback : 172.23.25.79<br\/>Up-Time : 38 days, 3:08:47.31","type":"ESR","status":"1","hoto":"1"},{"lat":"24.0419","lng":"78.9612","name":"BADMBADMESR001","address":"Sap : I-MP-BADM-ENB-6000<br\/>Loopback : 172.23.21.79<br\/>Up-Time : 45 days, 3:01:58.53","type":"ESR","status":"1","hoto":"1"},{"lat":"24.0385","lng":"79.1525","name":"BADMBADMESR003","address":"Sap : I-MP-BADM-ENB-6001<br\/>Loopback : 172.23.26.169<br\/>Up-Time : 27 days, 15:45:21.34","type":"ESR","status":"1","hoto":"1"},{"lat":"24.375","lng":"79.0869","name":"SHGHSHGHESR001","address":"Sap : I-MP-BADM-ENB-6004<br\/>Loopback : 172.23.23.115<br\/>Up-Time : 44 days, 3:24:15.84","type":"ESR","status":"1","hoto":"1"},{"lat":"24.4489","lng":"82.1738","name":"BAHZBAHZESR001","address":"Sap : I-MP-BAHZ-ENB-6000<br\/>Loopback : 172.23.24.175<br\/>Up-Time : 18 days, 23:52:55.18","type":"ESR","status":"1","hoto":"1"},{"lat":"24.5662","lng":"79.3045","name":"BAMRBAMRESR002","address":"Sap : I-MP-BAMR-ENB-6000<br\/>Loopback : 172.23.21.83<br\/>Up-Time : 12 days, 12:43:07.29","type":"ESR","status":"1","hoto":"1"},{"lat":"24.5049","lng":"79.0789","name":"GUWAGUWAESR002","address":"Sap : I-MP-BAMR-ENB-6002<br\/>Loopback : 172.23.23.113<br\/>Up-Time : 11 days, 11:12:05.24","type":"ESR","status":"1","hoto":"1"},{"lat":"24.4332","lng":"79.0859","name":"GUWAGUWAESR001","address":"Sap : I-MP-BAMR-ENB-6003<br\/>Loopback : 172.23.23.114<br\/>Up-Time : 16 days, 13:53:08.66","type":"ESR","status":"1","hoto":"1"},{"lat":"24.4793","lng":"79.2682","name":"BAMRBAMRESR001","address":"Sap : I-MP-BAMR-ENB-6004<br\/>Loopback : 172.23.21.82<br\/>Up-Time : 33 days, 8:22:51.53","type":"ESR","status":"1","hoto":"1"},{"lat":"24.5722","lng":"79.1702","name":"GUWAGUWAESR003","address":"Sap : I-MP-BAMR-ENB-H001<br\/>Loopback : 172.23.25.48<br\/>Up-Time : 20 days, 20:54:51.36","type":"ESR","status":"1","hoto":"1"},{"lat":"21.2805","lng":"82.8293","name":"BANABANAESR003","address":"Sap : I-MP-BANA-ENB-6000<br\/>Loopback : 172.22.241.184<br\/>Up-Time : 33 days, 12:19:36.72","type":"ESR","status":"1","hoto":"1"},{"lat":"21.2805","lng":"82.8293","name":"BANABANAPAR001","address":"Sap : I-MP-BANA-ENB-6000<br\/>Loopback : 172.16.74.88<br\/> ","type":"PAR","status":"0","hoto":"1"},{"lat":"21.2969","lng":"82.9226","name":"BANABANAESR001","address":"Sap : I-MP-BANA-ENB-9002<br\/>Loopback : 172.22.245.12<br\/>Up-Time : 16 days, 13:19:29.88","type":"ESR","status":"1","hoto":"1"},{"lat":"21.2791","lng":"82.8175","name":"BANABANAESR002","address":"Sap : I-MP-BANA-ENB-V001<br\/>Loopback : 172.22.245.189<br\/>Up-Time : 1 day, 18:07:16.74","type":"ESR","status":"1","hoto":"1"},{"lat":"20.7322","lng":"81.2076","name":"BAODBAODESR001","address":"Sap : I-MP-BAOD-ENB-6000<br\/>Loopback : 172.23.20.186<br\/>Up-Time : 63 days, 3:56:07.69","type":"ESR","status":"1","hoto":"1"},{"lat":"23.892","lng":"76.8887","name":"BAORBAORESR003","address":"Sap : I-MP-BAOR-ENB-6000<br\/>Loopback : 172.22.97.227<br\/>Up-Time : 14 days, 10:58:53.38","type":"ESR","status":"1","hoto":"1"},{"lat":"23.9218","lng":"76.9092","name":"BAORBAORESR001","address":"Sap : I-MP-BAOR-ENB-6002<br\/>Loopback : 172.22.85.114<br\/>Up-Time : 45 days, 15:44:19.55","type":"ESR","status":"1","hoto":"1"},{"lat":"23.9218","lng":"76.9092","name":"BAORBAORPAR001","address":"Sap : I-MP-BAOR-ENB-6002<br\/>Loopback : 172.16.48.27<br\/> ","type":"PAR","status":"0","hoto":"1"},{"lat":"23.9891","lng":"76.9363","name":"BAORBAORESR005","address":"Sap : I-MP-BAOR-ENB-6004<br\/>Loopback : 172.22.89.146<br\/>Up-Time : 1 day, 23:08:18.13","type":"ESR","status":"1","hoto":"1"},{"lat":"23.9384","lng":"76.9591","name":"BAORBAORESR006","address":"Sap : I-MP-BAOR-ENB-6008<br\/>Loopback : 172.22.89.25<br\/>Up-Time : 19 days, 14:39:30.82","type":"ESR","status":"1","hoto":"1"},{"lat":"23.9607","lng":"76.8342","name":"RAJHRAJHESR007","address":"Sap : I-MP-BAOR-ENB-9008<br\/>Loopback : 172.22.90.64<br\/>Up-Time : 4 days, 13:01:41.08","type":"ESR","status":"1","hoto":"1"},{"lat":"23.0299","lng":"78.0767","name":"BARMBARMESR003","address":"Sap : I-MP-BARM-ENB-6000<br\/>Loopback : 172.22.82.2<br\/>Up-Time : 18 days, 10:58:45.14","type":"ESR","status":"1","hoto":"1"},{"lat":"24.0476","lng":"79.2616","name":"BATYBATYESR003","address":"Sap : I-MP-BATY-ENB-6003<br\/>Loopback : 172.23.26.170<br\/>Up-Time : 26 days, 8:50:23.68","type":"ESR","status":"1","hoto":"1"},{"lat":"23.3634","lng":"81.0436","name":"PAILPAILESR002","address":"Sap : I-MP-BAVH-ENB-6001<br\/>Loopback : 172.23.21.221<br\/>Up-Time : 52 days, 1:41:23.78","type":"ESR","status":"1","hoto":"1"},{"lat":"23.3477","lng":"81.1905","name":"PAILPAILESR001","address":"Sap : I-MP-BAVH-ENB-6003<br\/>Loopback : 172.23.16.20<br\/>Up-Time : 45 days, 3:32:40.35","type":"ESR","status":"1","hoto":"1"},{"lat":"23.3415","lng":"81.0518","name":"PAILPAILESR003","address":"Sap : I-MP-BAVH-ENB-6005<br\/>Loopback : 172.23.21.65<br\/>Up-Time : 22 days, 20:17:33.77","type":"ESR","status":"1","hoto":"1"},{"lat":"23.3617","lng":"80.9915","name":"NWRZNWRZESR001","address":"Sap : I-MP-BAVH-ENB-6006<br\/>Loopback : 172.23.22.7<br\/>Up-Time : 30 days, 19:20:33.29","type":"ESR","status":"1","hoto":"1"},{"lat":"23.527","lng":"80.8211","name":"BAVHBAVHESR003","address":"Sap : I-MP-BAVH-ENB-6009<br\/>Loopback : 172.23.22.5<br\/>Up-Time : 16 days, 8:42:28.88","type":"ESR","status":"1","hoto":"1"},{"lat":"23.5241","lng":"80.8337","name":"BAVHBAVHESR004","address":"Sap : I-MP-BAVH-ENB-6010<br\/>Loopback : 172.23.22.123<br\/>Up-Time : 30 days, 11:01:40.06","type":"ESR","status":"1","hoto":"1"},{"lat":"23.5338","lng":"80.8423","name":"BAVHBAVHESR001","address":"Sap : I-MP-BAVH-ENB-6011<br\/>Loopback : 172.23.16.19<br\/> ","type":"ESR","status":"0","hoto":"1"},{"lat":"23.5338","lng":"80.8423","name":"BAVHBAVHESR002","address":"Sap : I-MP-BAVH-ENB-6011<br\/>Loopback : 172.23.22.6<br\/>Up-Time : 41 days, 15:22:08.28","type":"ESR","status":"1","hoto":"1"},{"lat":"23.4017","lng":"80.9714","name":"NWRZNWRZESR002","address":"Sap : I-MP-BAVH-ENB-9012<br\/>Loopback : 172.23.22.179<br\/>Up-Time : 45 days, 3:47:25.01","type":"ESR","status":"1","hoto":"1"},{"lat":"23.465","lng":"80.9072","name":"KKELKKELESR001","address":"Sap : I-MP-BAVH-ENB-9013<br\/>Loopback : 172.23.22.183<br\/>Up-Time : 44 days, 2:33:52.29","type":"ESR","status":"1","hoto":"1"},{"lat":"21.6911","lng":"82.0626","name":"BAZRBAZRESR002","address":"Sap : I-MP-BAZR-ENB-6000<br\/>Loopback : 172.23.26.32<br\/>Up-Time : 60 days, 2:38:36.56","type":"ESR","status":"1","hoto":"1"},{"lat":"21.6824","lng":"82.0887","name":"BAZRBAZRESR001","address":"Sap : I-MP-BAZR-ENB-6001<br\/>Loopback : 172.23.26.37<br\/>Up-Time : 52 days, 19:04:04.16","type":"ESR","status":"1","hoto":"1"},{"lat":"21.6459","lng":"82.2743","name":"BAZRBAZRESR004","address":"Sap : I-MP-BAZR-ENB-6003<br\/>Loopback : 172.23.26.43<br\/>Up-Time : 11 days, 17:55:06.66","type":"ESR","status":"1","hoto":"1"},{"lat":"21.6429","lng":"82.3397","name":"LWNNLWNNESR001","address":"Sap : I-MP-BAZR-ENB-6004<br\/>Loopback : 172.23.26.44<br\/>Up-Time : 60 days, 0:36:12.72","type":"ESR","status":"1","hoto":"1"},{"lat":"21.7543","lng":"82.1969","name":"BAZRBAZRESR003","address":"Sap : I-MP-BAZR-ENB-6005<br\/>Loopback : 172.23.26.38<br\/>Up-Time : 29 days, 3:55:43.38","type":"ESR","status":"1","hoto":"1"},{"lat":"21.6723","lng":"82.0844","name":"RWNNRWNNESR001","address":"Sap : I-MP-BAZR-ENB-S001<br\/>Loopback : 172.23.26.55<br\/>Up-Time : 44 days, 3:50:54.83","type":"ESR","status":"1","hoto":"1"},{"lat":"22.8351","lng":"78.6764","name":"BBCHBBCHESR001","address":"Sap : I-MP-BBCH-ENB-6000<br\/>Loopback : 172.22.89.117<br\/>Up-Time : 9:40:06.39","type":"ESR","status":"1","hoto":"1"},{"lat":"22.6017","lng":"80.9036","name":"BCHYBCHYESR002","address":"Sap : I-MP-BCHY-ENB-6001<br\/>Loopback : 172.23.25.175<br\/>Up-Time : 28 days, 10:54:36.79","type":"ESR","status":"1","hoto":"1"},{"lat":"22.5154","lng":"80.8097","name":"BCHYBCHYESR001","address":"Sap : I-MP-BCHY-ENB-6003<br\/>Loopback : 172.23.25.38<br\/>Up-Time : 11 days, 10:14:03.25","type":"ESR","status":"1","hoto":"1"},{"lat":"22.4835","lng":"80.5442","name":"BCHYBCHYESR005","address":"Sap : I-MP-BCHY-ENB-6005<br\/>Loopback : 172.23.22.107<br\/>Up-Time : 7 days, 23:35:15.60","type":"ESR","status":"1","hoto":"1"},{"lat":"22.3436","lng":"80.901","name":"BCHYBCHYESR003","address":"Sap : I-MP-BCHY-ENB-6006<br\/>Loopback : 172.23.22.157<br\/>Up-Time : 11 days, 10:27:36.39","type":"ESR","status":"1","hoto":"1"},{"lat":"22.4179","lng":"80.7832","name":"BCHYBCHYESR006","address":"Sap : I-MP-BCHY-ENB-6010<br\/>Loopback : 172.23.22.156<br\/>Up-Time : 52 days, 2:01:36.94","type":"ESR","status":"1","hoto":"1"},{"lat":"22.5348","lng":"80.8509","name":"BCHYBCHYESR004","address":"Sap : I-MP-BCHY-ENB-6011<br\/>Loopback : 172.23.25.39<br\/>Up-Time : 27 days, 8:05:24.10","type":"ESR","status":"1","hoto":"1"},{"lat":"22.4594","lng":"80.637","name":"BCHYBCHYESR007","address":"Sap : I-MP-BCHY-ENB-9011<br\/>Loopback : 172.23.26.33<br\/>Up-Time : 9:45:34.47","type":"ESR","status":"1","hoto":"1"},{"lat":"22.5149","lng":"80.4811","name":"BCHYBCHYESR008","address":"Sap : I-MP-BCHY-ENB-9012<br\/>Loopback : 172.23.23.215<br\/>Up-Time : 11 days, 10:43:23.17","type":"ESR","status":"1","hoto":"1"},{"lat":"23.1703","lng":"79.4637","name":"BDKNBDKNESR002","address":"Sap : I-MP-BDKN-ENB-6000<br\/>Loopback : 172.23.26.42<br\/>Up-Time : 44 days, 3:41:46.29","type":"ESR","status":"1","hoto":"1"},{"lat":"22.7803","lng":"77.6832","name":"BDNIBDNIPAR001","address":"Sap : I-MP-BDNI-ENB-6001<br\/>Loopback : 172.22.85.58<br\/> ","type":"PAR","status":"0","hoto":"1"},{"lat":"22.8481","lng":"77.8973","name":"BDNIBDNIESR004","address":"Sap : I-MP-BDNI-ENB-6005<br\/>Loopback : 172.22.83.47<br\/>Up-Time : 48 days, 4:57:11.01","type":"ESR","status":"1","hoto":"1"},{"lat":"22.774","lng":"77.6783","name":"BDNIBDNIESR003","address":"Sap : I-MP-BDNI-ENB-9001<br\/>Loopback : 172.22.85.87<br\/>Up-Time : 21 days, 23:14:50.16","type":"ESR","status":"1","hoto":"1"},{"lat":"22.7918","lng":"77.683","name":"BDNIBDNIPAR002","address":"Sap : I-MP-BDNI-ENB-9008<br\/>Loopback : 172.22.85.57<br\/> ","type":"PAR","status":"0","hoto":"1"},{"lat":"23.1811","lng":"81.5845","name":"SOHASOHAESR002","address":"Sap : I-MP-BDPI-ENB-0004<br\/>Loopback : 172.23.20.136<br\/>Up-Time : 54 days, 8:53:02.72","type":"ESR","status":"1","hoto":"1"},{"lat":"23.1877","lng":"81.6052","name":"SOHASOHAESR010","address":"Sap : I-MP-BDPI-ENB-0005<br\/>Loopback : 172.23.22.1<br\/>Up-Time : 27 days, 11:00:44.74","type":"ESR","status":"1","hoto":"1"},{"lat":"23.1975","lng":"81.5814","name":"SOHASOHAESR007","address":"Sap : I-MP-BDPI-ENB-0007<br\/>Loopback : 172.23.21.135<br\/>Up-Time : 15 days, 11:14:14.74","type":"ESR","status":"1","hoto":"1"},{"lat":"23.2134","lng":"81.5869","name":"SOHASOHAESR006","address":"Sap : I-MP-BDPI-ENB-0008<br\/>Loopback : 172.23.16.118<br\/>Up-Time : 32 days, 18:10:32.58","type":"ESR","status":"1","hoto":"1"},{"lat":"23.2062","lng":"81.5776","name":"SOHASOHAESR005","address":"Sap : I-MP-BDPI-ENB-0009<br\/>Loopback : 172.23.16.117<br\/>Up-Time : 63 days, 3:10:55.43","type":"ESR","status":"1","hoto":"1"},{"lat":"23.1892","lng":"81.582","name":"SOHASOHAESR008","address":"Sap : I-MP-BDPI-ENB-0010<br\/>Loopback : 172.23.21.136<br\/> ","type":"ESR","status":"0","hoto":"1"},{"lat":"23.1855","lng":"81.5758","name":"SOHASOHAESR011","address":"Sap : I-MP-BDPI-ENB-0011<br\/>Loopback : 172.23.22.10<br\/>Up-Time : 47 days, 9:05:46.26","type":"ESR","status":"1","hoto":"1"},{"lat":"23.184","lng":"81.5617","name":"DNPUDNPUESR004","address":"Sap : I-MP-BDPI-ENB-0013<br\/>Loopback : 172.23.16.121<br\/>Up-Time : 45 days, 2:52:32.61","type":"ESR","status":"1","hoto":"1"},{"lat":"23.1813","lng":"81.5507","name":"DNPUDNPUESR002","address":"Sap : I-MP-BDPI-ENB-0014<br\/>Loopback : 172.23.21.133<br\/>Up-Time : 45 days, 3:21:37.22","type":"ESR","status":"1","hoto":"1"},{"lat":"23.1893","lng":"81.5589","name":"DNPUDNPUESR005","address":"Sap : I-MP-BDPI-ENB-0015<br\/>Loopback : 172.23.16.120<br\/>Up-Time : 23 days, 9:51:57.52","type":"ESR","status":"1","hoto":"1"},{"lat":"23.1884","lng":"81.5523","name":"DNPUDNPUESR006","address":"Sap : I-MP-BDPI-ENB-0016<br\/>Loopback : 172.23.21.255<br\/>Up-Time : 40 days, 4:39:33.81","type":"ESR","status":"1","hoto":"1"},{"lat":"23.199","lng":"81.5406","name":"BDPIMLIMESR003","address":"Sap : I-MP-BDPI-ENB-0017<br\/>Loopback : 172.23.20.156<br\/>Up-Time : 45 days, 4:33:38.65","type":"ESR","status":"1","hoto":"1"},{"lat":"23.2196","lng":"81.5217","name":"BDPIBHUTESR001","address":"Sap : I-MP-BDPI-ENB-0021<br\/>Loopback : 172.23.16.113<br\/>Up-Time : 18 days, 16:30:55.51","type":"ESR","status":"1","hoto":"1"},{"lat":"23.1859","lng":"81.5274","name":"SOHASOHAESR004","address":"Sap : I-MP-BDPI-ENB-0022<br\/>Loopback : 172.23.21.131<br\/> ","type":"ESR","status":"0","hoto":"1"},{"lat":"23.1993","lng":"81.5284","name":"SOHASOHAESR003","address":"Sap : I-MP-BDPI-ENB-0023<br\/>Loopback : 172.23.21.130<br\/>Up-Time : 48 days, 4:38:28.35","type":"ESR","status":"1","hoto":"1"},{"lat":"23.1849","lng":"81.5472","name":"DNPUDNPUESR003","address":"Sap : I-MP-BDPI-ENB-0024<br\/>Loopback : 172.23.21.132<br\/>Up-Time : 40 days, 16:21:31.91","type":"ESR","status":"1","hoto":"1"},{"lat":"23.2123","lng":"81.5478","name":"BDPIJILEESR001","address":"Sap : I-MP-BDPI-ENB-0025<br\/>Loopback : 172.23.21.134<br\/>Up-Time : 48 days, 13:19:16.46","type":"ESR","status":"1","hoto":"1"},{"lat":"23.2064","lng":"81.531","name":"BDPINGRPESR001","address":"Sap : I-MP-BDPI-ENB-6000<br\/>Loopback : 172.23.21.129<br\/>Up-Time : 30 days, 11:35:06.17","type":"ESR","status":"1","hoto":"1"},{"lat":"23.2047","lng":"81.5888","name":"SOHASOHAESR015","address":"Sap : I-MP-BDPI-ENB-H001<br\/>Loopback : 172.23.20.169<br\/>Up-Time : 45 days, 4:32:27.96","type":"ESR","status":"1","hoto":"1"},{"lat":"23.1456","lng":"81.6028","name":"ANPRANPRESR008","address":"Sap : I-MP-BDPI-ENB-H002<br\/>Loopback : 172.23.16.174<br\/>Up-Time : 45 days, 2:36:54.65","type":"ESR","status":"1","hoto":"1"},{"lat":"23.2144","lng":"81.5316","name":"BDPICHRBESR001","address":"Sap : I-MP-BDPI-ENB-V001<br\/>Loopback : 172.23.21.92<br\/>Up-Time : 44 days, 16:18:22.82","type":"ESR","status":"1","hoto":"1"},{"lat":"23.201","lng":"81.5354","name":"BDPIMLIMESR001","address":"Sap : I-MP-BDPI-ENB-V002<br\/>Loopback : 172.23.20.155<br\/>Up-Time : 45 days, 0:53:23.06","type":"ESR","status":"1","hoto":"1"},{"lat":"22.0284","lng":"74.9219","name":"BDWNBDWNESR004","address":"Sap : I-MP-BDWN-ENB-A001<br\/>Loopback : 172.22.89.170<br\/>Up-Time : 4 days, 12:11:23.95","type":"ESR","status":"1","hoto":"1"},{"lat":"23.0184","lng":"75.2329","name":"BDWRBDWRESR002","address":"Sap : I-MP-BDWR-ENB-6000<br\/>Loopback : 172.22.97.99<br\/>Up-Time : 45 days, 2:44:44.92","type":"ESR","status":"1","hoto":"1"},{"lat":"22.872","lng":"75.2507","name":"BDWRBDWRESR007","address":"Sap : I-MP-BDWR-ENB-6001<br\/>Loopback : 172.22.102.190<br\/>Up-Time : 54 days, 7:08:09.95","type":"ESR","status":"1","hoto":"1"},{"lat":"23.0783","lng":"75.2885","name":"BDWRBDWRESR004","address":"Sap : I-MP-BDWR-ENB-6003<br\/>Loopback : 172.22.99.67<br\/>Up-Time : 34 days, 17:26:21.54","type":"ESR","status":"1","hoto":"1"},{"lat":"23.0748","lng":"75.2111","name":"BDWRBDWRESR001","address":"Sap : I-MP-BDWR-ENB-6004<br\/>Loopback : 172.22.105.76<br\/>Up-Time : 54 days, 5:22:39.56","type":"ESR","status":"1","hoto":"1"},{"lat":"23.0478","lng":"75.1317","name":"BDWRBDWRESR003","address":"Sap : I-MP-BDWR-ENB-6006<br\/>Loopback : 172.22.99.66<br\/>Up-Time : 54 days, 10:59:41.93","type":"ESR","status":"1","hoto":"1"},{"lat":"22.9474","lng":"75.2521","name":"BDWRBDWRESR008","address":"Sap : I-MP-BDWR-ENB-9007<br\/>Loopback : 172.22.100.168<br\/>Up-Time : 34 days, 13:28:47.57","type":"ESR","status":"1","hoto":"1"},{"lat":"21.5389","lng":"81.5966","name":"BELABELAESR003","address":"Sap : I-MP-BELA-ENB-6000<br\/>Loopback : 172.23.25.174<br\/>Up-Time : 60 days, 2:05:59.61","type":"ESR","status":"1","hoto":"1"},{"lat":"21.4117","lng":"81.5967","name":"BELABELAESR001","address":"Sap : I-MP-BELA-ENB-6002<br\/>Loopback : 172.23.25.160<br\/>Up-Time : 60 days, 0:41:41.12","type":"ESR","status":"1","hoto":"1"},{"lat":"21.6645","lng":"81.4106","name":"BELABELAESR004","address":"Sap : I-MP-BELA-ENB-6003<br\/>Loopback : 172.23.16.49<br\/>Up-Time : 56 days, 6:08:12.32","type":"ESR","status":"1","hoto":"1"},{"lat":"21.4598","lng":"81.5679","name":"BELABELAESR006","address":"Sap : I-MP-BELA-ENB-6004<br\/>Loopback : 172.23.25.173<br\/>Up-Time : 60 days, 2:05:52.02","type":"ESR","status":"1","hoto":"1"},{"lat":"21.6186","lng":"81.6345","name":"BELABELAESR007","address":"Sap : I-MP-BELA-ENB-T001<br\/>Loopback : 172.23.25.116<br\/>Up-Time : 44 days, 3:49:59.69","type":"ESR","status":"1","hoto":"1"},{"lat":"21.6274","lng":"81.454","name":"BELABELAESR008","address":"Sap : I-MP-BELA-ENB-T002<br\/>Loopback : 172.23.22.53<br\/>Up-Time : 44 days, 1:32:42.82","type":"ESR","status":"1","hoto":"1"},{"lat":"22.6857","lng":"75.6111","name":"BETMBETMESR001","address":"Sap : I-MP-BETM-ENB-6000<br\/>Loopback : 172.22.80.243<br\/>Up-Time : 54 days, 4:33:06.84","type":"ESR","status":"1","hoto":"1"},{"lat":"22.5412","lng":"83.7597","name":"BGCHBGCHESR001","address":"Sap : I-MP-BGCH-ENB-6003<br\/>Loopback : 172.23.89.52<br\/>Up-Time : 26 days, 22:30:41.95","type":"ESR","status":"1","hoto":"1"},{"lat":"22.7187","lng":"76.4229","name":"BGLIBGLIESR001","address":"Sap : I-MP-BGLI-ENB-6001<br\/>Loopback : 172.22.82.212<br\/>Up-Time : 21 days, 15:46:24.97","type":"ESR","status":"1","hoto":"1"},{"lat":"22.7113","lng":"76.3192","name":"BGLIBGLIESR003","address":"Sap : I-MP-BGLI-ENB-6003<br\/>Loopback : 172.22.86.230<br\/>Up-Time : 46 days, 1:12:05.74","type":"ESR","status":"1","hoto":"1"},{"lat":"22.8001","lng":"76.3665","name":"HTPYHTPYESR002","address":"Sap : I-MP-BGLI-ENB-6004<br\/>Loopback : 172.22.82.213<br\/>Up-Time : 47 days, 15:46:39.45","type":"ESR","status":"1","hoto":"1"},{"lat":"22.7692","lng":"76.2978","name":"HTPYHTPYESR001","address":"Sap : I-MP-BGLI-ENB-6005<br\/>Loopback : 172.22.86.228<br\/>Up-Time : 46 days, 0:09:14.48","type":"ESR","status":"1","hoto":"1"},{"lat":"22.7333","lng":"76.2419","name":"BGLIBGLIESR004","address":"Sap : I-MP-BGLI-ENB-6006<br\/>Loopback : 172.22.86.229<br\/>Up-Time : 46 days, 0:10:23.69","type":"ESR","status":"1","hoto":"1"},{"lat":"22.8407","lng":"76.304","name":"SMHDSMHDESR001","address":"Sap : I-MP-BGLI-ENB-6007<br\/>Loopback : 172.22.86.227<br\/>Up-Time : 5 days, 10:17:45.90","type":"ESR","status":"1","hoto":"1"},{"lat":"22.8612","lng":"76.247","name":"HTPYHTPYESR003","address":"Sap : I-MP-BGLI-ENB-6008<br\/>Loopback : 172.22.86.231<br\/>Up-Time : 46 days, 1:11:36.41","type":"ESR","status":"1","hoto":"1"},{"lat":"22.7127","lng":"76.2283","name":"BGLIBGLIESR002","address":"Sap : I-MP-BGLI-ENB-9011<br\/>Loopback : 172.22.87.245<br\/>Up-Time : 17 days, 15:13:24.75","type":"ESR","status":"1","hoto":"1"},{"lat":"23.5954","lng":"78.3376","name":"BGMJBGMJESR002","address":"Sap : I-MP-BGMJ-ENB-6000<br\/>Loopback : 172.22.86.33<br\/>Up-Time : 52 days, 5:05:24.35","type":"ESR","status":"1","hoto":"1"},{"lat":"23.603","lng":"78.3431","name":"BGMJBGMJESR003","address":"Sap : I-MP-BGMJ-ENB-6001<br\/>Loopback : 172.22.86.35<br\/>Up-Time : 46 days, 0:09:01.30","type":"ESR","status":"1","hoto":"1"},{"lat":"23.6348","lng":"78.303","name":"BGMJBGMJESR004","address":"Sap : I-MP-BGMJ-ENB-6002<br\/>Loopback : 172.22.87.33<br\/>Up-Time : 46 days, 1:15:28.63","type":"ESR","status":"1","hoto":"1"},{"lat":"23.5731","lng":"78.3989","name":"BGMJBGMJESR001","address":"Sap : I-MP-BGMJ-ENB-6003<br\/>Loopback : 172.22.87.34<br\/>Up-Time : 6 days, 22:55:52.33","type":"ESR","status":"1","hoto":"1"},{"lat":"21.0539","lng":"82.3755","name":"BGRABGRAESR001","address":"Sap : I-MP-BGRA-ENB-T001<br\/>Loopback : 172.23.20.195<br\/> ","type":"ESR","status":"0","hoto":"1"},{"lat":"25.9449","lng":"78.1024","name":"COURCOURESR002","address":"Sap : I-MP-BHAR-ENB-6002<br\/>Loopback : 172.22.83.208<br\/>Up-Time : 3 days, 18:11:41.06","type":"ESR","status":"1","hoto":"1"},{"lat":"25.8939","lng":"78.0133","name":"COURCOURESR001","address":"Sap : I-MP-BHAR-ENB-6005<br\/>Loopback : 172.22.83.207<br\/>Up-Time : 3 days, 12:15:28.45","type":"ESR","status":"1","hoto":"1"},{"lat":"26.0584","lng":"78.2135","name":"ANTRANTRESR001","address":"Sap : I-MP-BHAR-ENB-V001<br\/>Loopback : 172.22.88.153<br\/>Up-Time : 1 day, 20:30:47.71","type":"ESR","status":"1","hoto":"1"},{"lat":"24.757","lng":"79.067","name":"BHDGBHDGESR002","address":"Sap : I-MP-BHDG-ENB-6000<br\/>Loopback : 172.23.21.223<br\/>Up-Time : 21 days, 20:58:33.15","type":"ESR","status":"1","hoto":"1"},{"lat":"24.7856","lng":"79.1266","name":"BHDGBHDGESR004","address":"Sap : I-MP-BHDG-ENB-6001<br\/>Loopback : 172.23.25.121<br\/>Up-Time : 44 days, 3:50:03.51","type":"ESR","status":"1","hoto":"1"},{"lat":"24.7063","lng":"79.2173","name":"BHDGBHDGESR001","address":"Sap : I-MP-BHDG-ENB-6003<br\/>Loopback : 172.23.21.222<br\/>Up-Time : 45 days, 3:42:54.81","type":"ESR","status":"1","hoto":"1"},{"lat":"24.7736","lng":"79.0023","name":"BHDGBHDGESR003","address":"Sap : I-MP-BHDG-ENB-9005<br\/>Loopback : 172.23.23.212<br\/>Up-Time : 13 days, 10:28:18.21","type":"ESR","status":"1","hoto":"1"},{"lat":"21.8173","lng":"75.8625","name":"BHONBHONESR002","address":"Sap : I-MP-BHON-ENB-6000<br\/>Loopback : 172.23.4.76<br\/>Up-Time : 17 days, 6:36:52.66","type":"ESR","status":"1","hoto":"1"},{"lat":"21.8685","lng":"75.9656","name":"BHONBHONESR003","address":"Sap : I-MP-BHON-ENB-6001<br\/>Loopback : 172.23.4.77<br\/>Up-Time : 41 days, 15:16:03.71","type":"ESR","status":"1","hoto":"1"},{"lat":"22.0195","lng":"76.1371","name":"BHONBHONESR001","address":"Sap : I-MP-BHON-ENB-6002<br\/>Loopback : 172.22.86.135<br\/>Up-Time : 46 days, 2:31:45.46","type":"ESR","status":"1","hoto":"1"},{"lat":"21.9404","lng":"75.8248","name":"BHONBHONESR004","address":"Sap : I-MP-BHON-ENB-6003<br\/>Loopback : 172.23.7.72<br\/>Up-Time : 33 days, 17:49:00.89","type":"ESR","status":"1","hoto":"1"},{"lat":"23.1826","lng":"77.4562","name":"BHPLSHPRPAR001","address":"Sap : I-MP-BHPL-AG2-0001<br\/>Loopback : 172.16.44.3<br\/>Up-Time : 66 days, 1:58:58.41","type":"PAR","status":"1","hoto":"1"},{"lat":"23.1826","lng":"77.4562","name":"BHPLSHPRPAR002","address":"Sap : I-MP-BHPL-AG2-0001<br\/>Loopback : 172.16.44.4<br\/>Up-Time : 66 days, 1:59:53.81","type":"PAR","status":"1","hoto":"1"},{"lat":"23.2299","lng":"77.4148","name":"BHPLSVNRAAR001","address":"Sap : I-MP-BHPL-AG2-0002<br\/>Loopback : 49.44.3.51<br\/>Up-Time : 27 days, 13:23:16.21","type":"AAR","status":"1","hoto":"0"},{"lat":"23.2976","lng":"77.4039","name":"BHPLGMNRAAR001","address":"Sap : I-MP-BHPL-AG2-0003<br\/>Loopback : 49.44.3.49<br\/>Up-Time : 70 days, 22:29:10.18","type":"AAR","status":"1","hoto":"0"},{"lat":"23.2668","lng":"77.3934","name":"BHPLIMMGESR002","address":"Sap : I-MP-BHPL-ENB-0004<br\/>Loopback : 172.22.88.231<br\/>Up-Time : 45 days, 3:45:14.95","type":"ESR","status":"1","hoto":"1"},{"lat":"23.093","lng":"77.509","name":"BHPLMNDPESR002","address":"Sap : I-MP-BHPL-ENB-0011<br\/>Loopback : 172.22.88.125<br\/>Up-Time : 26 days, 23:03:41.29","type":"ESR","status":"1","hoto":"1"},{"lat":"23.2232","lng":"77.4339","name":"BHPLANKRESR001","address":"Sap : I-MP-BHPL-ENB-0013<br\/>Loopback : 172.22.87.152<br\/>Up-Time : 5 days, 12:44:03.07","type":"ESR","status":"1","hoto":"1"},{"lat":"23.3066","lng":"77.351","name":"BHPLGDHGESR001","address":"Sap : I-MP-BHPL-ENB-0014<br\/>Loopback : 172.22.87.170<br\/>Up-Time : 19 days, 16:02:25.52","type":"ESR","status":"1","hoto":"1"},{"lat":"23.2651","lng":"77.389","name":"BHPLPBHUESR001","address":"Sap : I-MP-BHPL-ENB-0015<br\/>Loopback : 172.22.88.119<br\/>Up-Time : 39 days, 8:50:12.79","type":"ESR","status":"1","hoto":"1"},{"lat":"23.2551","lng":"77.4209","name":"BHPLASHBESR002","address":"Sap : I-MP-BHPL-ENB-0016<br\/>Loopback : 172.22.89.13<br\/>Up-Time : 45 days, 4:39:47.32","type":"ESR","status":"1","hoto":"1"},{"lat":"23.2547","lng":"77.4147","name":"BHPLBRKIESR001","address":"Sap : I-MP-BHPL-ENB-0018<br\/>Loopback : 172.22.88.188<br\/>Up-Time : 45 days, 2:50:52.93","type":"ESR","status":"1","hoto":"1"},{"lat":"23.2578","lng":"77.4145","name":"BHPLRMNAESR002","address":"Sap : I-MP-BHPL-ENB-0019<br\/>Loopback : 172.22.89.46<br\/>Up-Time : 13 days, 16:19:37.20","type":"ESR","status":"1","hoto":"1"},{"lat":"23.2591","lng":"77.4232","name":"BHPLJGNTESR001","address":"Sap : I-MP-BHPL-ENB-0021<br\/>Loopback : 172.22.89.17<br\/>Up-Time : 9 days, 15:46:21.04","type":"ESR","status":"1","hoto":"1"},{"lat":"23.2502","lng":"77.4237","name":"BHPLJNSIESR001","address":"Sap : I-MP-BHPL-ENB-0023<br\/>Loopback : 172.22.88.87<br\/>Up-Time : 45 days, 1:35:37.04","type":"ESR","status":"1","hoto":"1"},{"lat":"23.2473","lng":"77.421","name":"BHPLVSDRESR001","address":"Sap : I-MP-BHPL-ENB-0024<br\/>Loopback : 172.22.88.86<br\/>Up-Time : 41 days, 14:48:55.80","type":"ESR","status":"1","hoto":"1"},{"lat":"23.2548","lng":"77.4089","name":"BHPLRMNAESR001","address":"Sap : I-MP-BHPL-ENB-0026<br\/>Loopback : 172.22.88.187<br\/>Up-Time : 45 days, 2:56:46.96","type":"ESR","status":"1","hoto":"1"},{"lat":"23.2514","lng":"77.4281","name":"BHPLOSBHESR001","address":"Sap : I-MP-BHPL-ENB-0030<br\/>Loopback : 172.22.82.223<br\/>Up-Time : 37 days, 7:46:25.26","type":"ESR","status":"1","hoto":"1"},{"lat":"23.2586","lng":"77.4025","name":"BHPLIBHMESR001","address":"Sap : I-MP-BHPL-ENB-0031<br\/>Loopback : 172.22.88.242<br\/>Up-Time : 21 days, 1:32:38.99","type":"ESR","status":"1","hoto":"1"},{"lat":"23.2553","lng":"77.4019","name":"BHPLCWKTESR002","address":"Sap : I-MP-BHPL-ENB-0034<br\/>Loopback : 172.22.88.235<br\/>Up-Time : 10 days, 11:56:20.03","type":"ESR","status":"1","hoto":"1"},{"lat":"23.2508","lng":"77.4013","name":"BHPLCBDPESR001","address":"Sap : I-MP-BHPL-ENB-0036<br\/>Loopback : 172.22.82.134<br\/>Up-Time : 54 days, 2:53:41.57","type":"ESR","status":"1","hoto":"1"},{"lat":"23.262","lng":"77.399","name":"BHPLKLBSESR001","address":"Sap : I-MP-BHPL-ENB-0037<br\/>Loopback : 172.22.88.94<br\/>Up-Time : 7 days, 5:20:42.38","type":"ESR","status":"1","hoto":"1"},{"lat":"23.2634","lng":"77.3954","name":"BHPLIMMGESR001","address":"Sap : I-MP-BHPL-ENB-0038<br\/>Loopback : 172.22.83.35<br\/>Up-Time : 1 day, 14:02:21.92","type":"ESR","status":"1","hoto":"1"},{"lat":"23.226","lng":"77.4322","name":"BHPLANKRESR002","address":"Sap : I-MP-BHPL-ENB-0040<br\/>Loopback : 172.22.87.109<br\/>Up-Time : 52 days, 3:57:26.06","type":"ESR","status":"1","hoto":"1"},{"lat":"23.2208","lng":"77.428","name":"BHPLRVSKESR002","address":"Sap : I-MP-BHPL-ENB-0042<br\/>Loopback : 172.22.86.179<br\/>Up-Time : 13 days, 10:34:57.26","type":"ESR","status":"1","hoto":"1"},{"lat":"23.2279","lng":"77.4283","name":"BHPLSHJCESR001","address":"Sap : I-MP-BHPL-ENB-0044<br\/>Loopback : 172.22.87.209<br\/>Up-Time : 46 days, 2:08:19.17","type":"ESR","status":"1","hoto":"1"},{"lat":"23.2172","lng":"77.4358","name":"BHPLAREBESR002","address":"Sap : I-MP-BHPL-ENB-0046<br\/>Loopback : 172.22.89.3<br\/>Up-Time : 10:32:54.70","type":"ESR","status":"1","hoto":"1"},{"lat":"23.2145","lng":"77.4311","name":"BHPLAREEESR001","address":"Sap : I-MP-BHPL-ENB-0048<br\/>Loopback : 172.22.87.17<br\/>Up-Time : 20 days, 13:05:10.80","type":"ESR","status":"1","hoto":"1"},{"lat":"23.2175","lng":"77.4218","name":"BHPLCHRIESR001","address":"Sap : I-MP-BHPL-ENB-0050<br\/>Loopback : 172.22.87.203<br\/>Up-Time : 46 days, 2:04:05.19","type":"ESR","status":"1","hoto":"1"},{"lat":"23.235","lng":"77.4354","name":"BHPLMPNAESR001","address":"Sap : I-MP-BHPL-ENB-0051<br\/>Loopback : 172.22.87.205<br\/>Up-Time : 46 days, 2:03:22.61","type":"ESR","status":"1","hoto":"1"},{"lat":"23.2346","lng":"77.4294","name":"BHPLARHLESR006","address":"Sap : I-MP-BHPL-ENB-0053<br\/>Loopback : 172.22.82.190<br\/>Up-Time : 29 days, 11:06:44.19","type":"ESR","status":"1","hoto":"1"},{"lat":"23.2405","lng":"77.4315","name":"BHPLARHLESR001","address":"Sap : I-MP-BHPL-ENB-0055<br\/>Loopback : 172.22.87.23<br\/>Up-Time : 27 days, 17:13:29.30","type":"ESR","status":"1","hoto":"1"},{"lat":"23.2109","lng":"77.4261","name":"BHPLSHPUESR001","address":"Sap : I-MP-BHPL-ENB-0057<br\/>Loopback : 172.22.88.215<br\/>Up-Time : 52 days, 3:55:09.49","type":"ESR","status":"1","hoto":"1"},{"lat":"23.2245","lng":"77.4277","name":"BHPLSHJCESR002","address":"Sap : I-MP-BHPL-ENB-0058<br\/>Loopback : 172.22.87.204<br\/>Up-Time : 46 days, 2:05:08.49","type":"ESR","status":"1","hoto":"1"},{"lat":"23.2464","lng":"77.4317","name":"BHPLARHLESR002","address":"Sap : I-MP-BHPL-ENB-0062<br\/>Loopback : 172.22.87.24<br\/>Up-Time : 13 days, 17:27:45.08","type":"ESR","status":"1","hoto":"1"},{"lat":"23.221","lng":"77.4094","name":"BHPLPCSLESR001","address":"Sap : I-MP-BHPL-ENB-0065<br\/>Loopback : 172.22.87.148<br\/>Up-Time : 39 days, 12:20:57.37","type":"ESR","status":"1","hoto":"1"},{"lat":"23.2353","lng":"77.4186","name":"BHPLBMNGESR001","address":"Sap : I-MP-BHPL-ENB-0066<br\/>Loopback : 172.22.88.172<br\/>Up-Time : 31 days, 16:07:26.74","type":"ESR","status":"1","hoto":"1"},{"lat":"23.2309","lng":"77.4055","name":"BHPLTLSNESR001","address":"Sap : I-MP-BHPL-ENB-0067<br\/>Loopback : 172.22.83.36<br\/>Up-Time : 46 days, 1:39:22.20","type":"ESR","status":"1","hoto":"1"},{"lat":"23.234","lng":"77.4007","name":"BHPLNTTAESR001","address":"Sap : I-MP-BHPL-ENB-0070<br\/>Loopback : 172.22.87.159<br\/>Up-Time : 52 days, 3:37:05.06","type":"ESR","status":"1","hoto":"1"},{"lat":"23.2408","lng":"77.3986","name":"BHPLSHYLESR001","address":"Sap : I-MP-BHPL-ENB-0074<br\/>Loopback : 172.22.86.177<br\/>Up-Time : 46 days, 2:14:48.69","type":"ESR","status":"1","hoto":"1"},{"lat":"23.2262","lng":"77.393","name":"BHPLSTRNESR002","address":"Sap : I-MP-BHPL-ENB-0075<br\/>Loopback : 172.22.87.115<br\/>Up-Time : 5 days, 19:46:46.45","type":"ESR","status":"1","hoto":"1"},{"lat":"23.2176","lng":"77.3973","name":"BHPLBPNGESR002","address":"Sap : I-MP-BHPL-ENB-0077<br\/>Loopback : 172.22.82.159<br\/>Up-Time : 48 days, 4:45:15.51","type":"ESR","status":"1","hoto":"1"},{"lat":"23.2156","lng":"77.3794","name":"BHPLBSAFESR001","address":"Sap : I-MP-BHPL-ENB-0080<br\/>Loopback : 172.22.83.25<br\/>Up-Time : 46 days, 1:42:45.25","type":"ESR","status":"1","hoto":"1"},{"lat":"23.2461","lng":"77.3975","name":"BHPLSHYLESR002","address":"Sap : I-MP-BHPL-ENB-0081<br\/>Loopback : 172.22.86.255<br\/>Up-Time : 13 days, 8:30:46.84","type":"ESR","status":"1","hoto":"1"},{"lat":"23.2215","lng":"77.3942","name":"BHPLGTQTESR001","address":"Sap : I-MP-BHPL-ENB-0084<br\/>Loopback : 172.22.82.160<br\/>Up-Time : 31 days, 10:56:03.27","type":"ESR","status":"1","hoto":"1"},{"lat":"23.2419","lng":"77.389","name":"BHPLKRSGESR002","address":"Sap : I-MP-BHPL-ENB-0085<br\/>Loopback : 172.22.88.50<br\/>Up-Time : 16 days, 12:32:09.02","type":"ESR","status":"1","hoto":"1"},{"lat":"23.2451","lng":"77.3923","name":"BHPLKRSAESR001","address":"Sap : I-MP-BHPL-ENB-0086<br\/>Loopback : 172.22.87.1<br\/>Up-Time : 19 days, 12:39:50.67","type":"ESR","status":"1","hoto":"1"},{"lat":"23.2167","lng":"77.3885","name":"BHPLNYBSESR001","address":"Sap : I-MP-BHPL-ENB-0087<br\/>Loopback : 172.22.87.164<br\/>Up-Time : 15 days, 16:47:01.97","type":"ESR","status":"1","hoto":"1"},{"lat":"23.2118","lng":"77.3884","name":"BHPLNHRUESR001","address":"Sap : I-MP-BHPL-ENB-0089<br\/>Loopback : 172.22.82.148<br\/>Up-Time : 36 days, 15:03:46.74","type":"ESR","status":"1","hoto":"1"},{"lat":"23.2394","lng":"77.4367","name":"BHPLGUTMESR002","address":"Sap : I-MP-BHPL-ENB-0092<br\/>Loopback : 172.22.87.118<br\/>Up-Time : 6 days, 12:26:25.48","type":"ESR","status":"1","hoto":"1"},{"lat":"23.1878","lng":"77.4154","name":"BHPLSRVMESR001","address":"Sap : I-MP-BHPL-ENB-0093<br\/>Loopback : 172.22.87.114<br\/>Up-Time : 53 days, 0:26:41.78","type":"ESR","status":"1","hoto":"1"},{"lat":"23.1826","lng":"77.4119","name":"BHPLFTNNESR001","address":"Sap : I-MP-BHPL-ENB-0097<br\/>Loopback : 172.22.87.113<br\/>Up-Time : 46 days, 1:51:56.45","type":"ESR","status":"1","hoto":"1"},{"lat":"23.1888","lng":"77.4261","name":"BHPLIDESESR002","address":"Sap : I-MP-BHPL-ENB-0098<br\/>Loopback : 172.22.87.137<br\/>Up-Time : 46 days, 1:07:22.70","type":"ESR","status":"1","hoto":"1"},{"lat":"23.1939","lng":"77.4329","name":"BHPLGLMHESR001","address":"Sap : I-MP-BHPL-ENB-0100<br\/>Loopback : 172.22.87.123<br\/>Up-Time : 11:37:51.51","type":"ESR","status":"1","hoto":"1"},{"lat":"23.1971","lng":"77.4302","name":"BHPLSHRAESR001","address":"Sap : I-MP-BHPL-ENB-0102<br\/>Loopback : 172.22.87.8<br\/>Up-Time : 46 days, 2:23:54.02","type":"ESR","status":"1","hoto":"1"},{"lat":"23.2018","lng":"77.4256","name":"BHPLSHPUESR004","address":"Sap : I-MP-BHPL-ENB-0105<br\/>Loopback : 172.22.87.9<br\/>Up-Time : 52 days, 23:58:36.60","type":"ESR","status":"1","hoto":"1"},{"lat":"23.2059","lng":"77.4311","name":"BHPLSHPUESR002","address":"Sap : I-MP-BHPL-ENB-0106<br\/>Loopback : 172.22.87.5<br\/>Up-Time : 46 days, 2:28:19.51","type":"ESR","status":"1","hoto":"1"},{"lat":"23.2022","lng":"77.4299","name":"BHPLSHPUESR005","address":"Sap : I-MP-BHPL-ENB-0107<br\/>Loopback : 172.22.88.48<br\/>Up-Time : 45 days, 4:52:36.43","type":"ESR","status":"1","hoto":"1"},{"lat":"23.1997","lng":"77.4377","name":"BHPLMHMNESR001","address":"Sap : I-MP-BHPL-ENB-0108<br\/>Loopback : 172.22.87.125<br\/>Up-Time : 34 days, 13:26:33.93","type":"ESR","status":"1","hoto":"1"},{"lat":"23.1926","lng":"77.4505","name":"BHPLBKTUESR001","address":"Sap : I-MP-BHPL-ENB-0109<br\/>Loopback : 172.22.87.144<br\/>Up-Time : 16 days, 8:21:28.40","type":"ESR","status":"1","hoto":"1"},{"lat":"23.2293","lng":"77.4422","name":"BHPLIDSTESR002","address":"Sap : I-MP-BHPL-ENB-0111<br\/>Loopback : 172.22.89.27<br\/>Up-Time : 15 days, 19:11:37.39","type":"ESR","status":"1","hoto":"1"},{"lat":"23.2107","lng":"77.4311","name":"BHPLSHPUESR003","address":"Sap : I-MP-BHPL-ENB-0112<br\/>Loopback : 172.22.87.231<br\/>Up-Time : 6 days, 6:49:01.19","type":"ESR","status":"1","hoto":"1"},{"lat":"23.2071","lng":"77.4403","name":"BHPLMHMNESR002","address":"Sap : I-MP-BHPL-ENB-0113<br\/>Loopback : 172.22.87.6<br\/>Up-Time : 48 days, 4:43:43.43","type":"ESR","status":"1","hoto":"1"},{"lat":"23.2057","lng":"77.4435","name":"BHPLMHMNESR003","address":"Sap : I-MP-BHPL-ENB-0114<br\/>Loopback : 172.22.87.252<br\/>Up-Time : 46 days, 1:30:24.39","type":"ESR","status":"1","hoto":"1"},{"lat":"23.2044","lng":"77.4104","name":"BHPLBHPLESR021","address":"Sap : I-MP-BHPL-ENB-0117<br\/>Loopback : 172.22.88.240<br\/>Up-Time : 31 days, 16:48:53.77","type":"ESR","status":"1","hoto":"1"},{"lat":"23.2006","lng":"77.4106","name":"BHPLKLSTESR001","address":"Sap : I-MP-BHPL-ENB-0118<br\/>Loopback : 172.22.82.255<br\/>Up-Time : 40 days, 5:30:53.23","type":"ESR","status":"1","hoto":"1"},{"lat":"23.2698","lng":"77.386","name":"BHPLGNHSESR001","address":"Sap : I-MP-BHPL-ENB-0119<br\/>Loopback : 172.22.88.78<br\/>Up-Time : 45 days, 1:33:19.01","type":"ESR","status":"1","hoto":"1"},{"lat":"23.2723","lng":"77.3903","name":"BHPLRMNRESR001","address":"Sap : I-MP-BHPL-ENB-0120<br\/>Loopback : 172.22.88.79<br\/>Up-Time : 45 days, 1:26:52.47","type":"ESR","status":"1","hoto":"1"},{"lat":"23.2612","lng":"77.3793","name":"BHPLUPERESR001","address":"Sap : I-MP-BHPL-ENB-0123<br\/>Loopback : 172.22.82.149<br\/>Up-Time : 48 days, 4:40:53.73","type":"ESR","status":"1","hoto":"1"},{"lat":"23.2715","lng":"77.3802","name":"BHPLSHLMESR001","address":"Sap : I-MP-BHPL-ENB-0124<br\/>Loopback : 172.22.88.77<br\/>Up-Time : 45 days, 3:37:36.01","type":"ESR","status":"1","hoto":"1"},{"lat":"23.2759","lng":"77.3987","name":"BHPLVSDHESR001","address":"Sap : I-MP-BHPL-ENB-0126<br\/>Loopback : 172.22.89.28<br\/>Up-Time : 45 days, 3:08:37.08","type":"ESR","status":"1","hoto":"1"},{"lat":"23.2754","lng":"77.3835","name":"BHPLMULNESR001","address":"Sap : I-MP-BHPL-ENB-0127<br\/>Loopback : 172.22.82.234<br\/>Up-Time : 45 days, 23:31:56.71","type":"ESR","status":"1","hoto":"1"},{"lat":"23.2772","lng":"77.4023","name":"BHPLGRNPESR001","address":"Sap : I-MP-BHPL-ENB-0133<br\/>Loopback : 172.22.82.221<br\/>Up-Time : 33 days, 14:44:23.14","type":"ESR","status":"1","hoto":"1"},{"lat":"23.272","lng":"77.369","name":"BHPLHLPRESR001","address":"Sap : I-MP-BHPL-ENB-0138<br\/>Loopback : 172.22.83.41<br\/>Up-Time : 52 days, 5:13:23.02","type":"ESR","status":"1","hoto":"1"},{"lat":"23.2802","lng":"77.3749","name":"BHPLBTLNESR001","address":"Sap : I-MP-BHPL-ENB-0139<br\/>Loopback : 172.22.82.232<br\/>Up-Time : 30 days, 12:17:33.21","type":"ESR","status":"1","hoto":"1"},{"lat":"23.2764","lng":"77.3752","name":"BHPLRMNDESR001","address":"Sap : I-MP-BHPL-ENB-0140<br\/>Loopback : 172.22.82.233<br\/>Up-Time : 45 days, 8:12:43.55","type":"ESR","status":"1","hoto":"1"},{"lat":"23.2755","lng":"77.3682","name":"BHPLVLBNESR001","address":"Sap : I-MP-BHPL-ENB-0141<br\/>Loopback : 172.22.83.43<br\/>Up-Time : 46 days, 1:18:58.61","type":"ESR","status":"1","hoto":"1"},{"lat":"23.2592","lng":"77.3701","name":"BHPLKHNUESR001","address":"Sap : I-MP-BHPL-ENB-0142<br\/>Loopback : 172.22.88.88<br\/>Up-Time : 45 days, 3:46:08.50","type":"ESR","status":"1","hoto":"1"},{"lat":"23.2866","lng":"77.3936","name":"BHPLJNQTESR001","address":"Sap : I-MP-BHPL-ENB-0143<br\/>Loopback : 172.22.83.37<br\/>Up-Time : 10 days, 15:36:47.98","type":"ESR","status":"1","hoto":"1"},{"lat":"23.2511","lng":"77.4798","name":"BHPLRJVGESR001","address":"Sap : I-MP-BHPL-ENB-0145<br\/>Loopback : 172.22.82.170<br\/>Up-Time : 13:52:34.08","type":"ESR","status":"1","hoto":"1"},{"lat":"23.2666","lng":"77.4726","name":"BHPLANSVESR002","address":"Sap : I-MP-BHPL-ENB-0150<br\/>Loopback : 172.22.88.117<br\/>Up-Time : 43 days, 12:28:00.21","type":"ESR","status":"1","hoto":"1"},{"lat":"23.2684","lng":"77.4698","name":"BHPLANSVESR001","address":"Sap : I-MP-BHPL-ENB-0151<br\/>Loopback : 172.22.82.167<br\/>Up-Time : 48 days, 4:59:54.53","type":"ESR","status":"1","hoto":"1"},{"lat":"23.26","lng":"77.4639","name":"BHPLBHTNESR001","address":"Sap : I-MP-BHPL-ENB-0152<br\/>Loopback : 172.22.82.171<br\/>Up-Time : 9 days, 15:43:11.41","type":"ESR","status":"1","hoto":"1"},{"lat":"23.2645","lng":"77.4639","name":"BHPLDRGHESR001","address":"Sap : I-MP-BHPL-ENB-0153<br\/>Loopback : 172.22.82.168<br\/>Up-Time : 5 days, 14:36:24.65","type":"ESR","status":"1","hoto":"1"},{"lat":"23.2694","lng":"77.4641","name":"BHPLBWNNESR001","address":"Sap : I-MP-BHPL-ENB-0154<br\/>Loopback : 172.22.88.175<br\/>Up-Time : 3 days, 6:02:13.59","type":"ESR","status":"1","hoto":"1"},{"lat":"23.2749","lng":"77.472","name":"BHPLIDUMESR001","address":"Sap : I-MP-BHPL-ENB-0155<br\/>Loopback : 172.22.88.184<br\/>Up-Time : 3 days, 16:47:55.71","type":"ESR","status":"1","hoto":"1"},{"lat":"23.272","lng":"77.4599","name":"BHPLNERLESR002","address":"Sap : I-MP-BHPL-ENB-0158<br\/>Loopback : 172.22.88.123<br\/>Up-Time : 5 days, 14:16:14.06","type":"ESR","status":"1","hoto":"1"},{"lat":"23.2488","lng":"77.4906","name":"BHPLGPLNESR002","address":"Sap : I-MP-BHPL-ENB-0161<br\/>Loopback : 172.22.82.139<br\/>Up-Time : 4 days, 14:38:37.78","type":"ESR","status":"1","hoto":"1"},{"lat":"23.239","lng":"77.4886","name":"BHPLBLJGESR001","address":"Sap : I-MP-BHPL-ENB-0162<br\/>Loopback : 172.22.82.236<br\/>Up-Time : 46 days, 2:45:31.68","type":"ESR","status":"1","hoto":"1"},{"lat":"23.2416","lng":"77.4966","name":"BHPLGPLNESR001","address":"Sap : I-MP-BHPL-ENB-0163<br\/>Loopback : 172.22.88.179<br\/>Up-Time : 40 days, 13:29:26.69","type":"ESR","status":"1","hoto":"1"},{"lat":"23.2369","lng":"77.4951","name":"BHPLRDHKESR001","address":"Sap : I-MP-BHPL-ENB-0164<br\/>Loopback : 172.22.88.183<br\/>Up-Time : 45 days, 2:52:06.61","type":"ESR","status":"1","hoto":"1"},{"lat":"23.234","lng":"77.4883","name":"BHPLAVDPESR001","address":"Sap : I-MP-BHPL-ENB-0166<br\/>Loopback : 172.22.82.244<br\/>Up-Time : 25 days, 8:49:20.08","type":"ESR","status":"1","hoto":"1"},{"lat":"23.2422","lng":"77.489","name":"BHPLBLJGESR002","address":"Sap : I-MP-BHPL-ENB-0167<br\/>Loopback : 172.22.88.177<br\/>Up-Time : 13 days, 15:28:49.60","type":"ESR","status":"1","hoto":"1"},{"lat":"23.227","lng":"77.4946","name":"BHPLKNCGESR001","address":"Sap : I-MP-BHPL-ENB-0169<br\/>Loopback : 172.22.82.241<br\/>Up-Time : 23 days, 8:42:48.19","type":"ESR","status":"1","hoto":"1"},{"lat":"23.2196","lng":"77.4877","name":"BHPLADRSESR001","address":"Sap : I-MP-BHPL-ENB-0170<br\/>Loopback : 172.22.87.57<br\/>Up-Time : 6 days, 11:52:03.82","type":"ESR","status":"1","hoto":"1"},{"lat":"23.2275","lng":"77.4816","name":"BHPLBRKEESR002","address":"Sap : I-MP-BHPL-ENB-0171<br\/>Loopback : 172.22.87.58<br\/>Up-Time : 46 days, 2:11:55.83","type":"ESR","status":"1","hoto":"1"},{"lat":"23.2209","lng":"77.4815","name":"BHPLPKSVESR001","address":"Sap : I-MP-BHPL-ENB-0172<br\/>Loopback : 172.22.82.247<br\/>Up-Time : 12 days, 12:49:32.93","type":"ESR","status":"1","hoto":"1"},{"lat":"23.2708","lng":"77.4347","name":"BHPLKISHESR001","address":"Sap : I-MP-BHPL-ENB-0174<br\/>Loopback : 172.22.83.22<br\/>Up-Time : 36 days, 12:59:59.47","type":"ESR","status":"1","hoto":"1"},{"lat":"23.2633","lng":"77.4331","name":"BHPLSNDRESR001","address":"Sap : I-MP-BHPL-ENB-0175<br\/>Loopback : 172.22.83.18<br\/>Up-Time : 46 days, 2:25:50.91","type":"ESR","status":"1","hoto":"1"},{"lat":"23.2622","lng":"77.4273","name":"BHPLMYURESR001","address":"Sap : I-MP-BHPL-ENB-0176<br\/>Loopback : 172.22.82.206<br\/>Up-Time : 3 days, 15:56:21.46","type":"ESR","status":"1","hoto":"1"},{"lat":"23.2482","lng":"77.4355","name":"BHPLSBSNESR001","address":"Sap : I-MP-BHPL-ENB-0181<br\/>Loopback : 172.22.88.236<br\/>Up-Time : 5 days, 12:03:47.87","type":"ESR","status":"1","hoto":"1"},{"lat":"23.2647","lng":"77.4225","name":"BHPLPUSPESR001","address":"Sap : I-MP-BHPL-ENB-0183<br\/>Loopback : 172.22.82.207<br\/>Up-Time : 3 days, 4:14:51.37","type":"ESR","status":"1","hoto":"1"},{"lat":"23.212","lng":"77.4583","name":"BHPLBRKPESR001","address":"Sap : I-MP-BHPL-ENB-0184<br\/>Loopback : 172.22.88.92<br\/>Up-Time : 9 days, 13:20:19.27","type":"ESR","status":"1","hoto":"1"},{"lat":"23.2167","lng":"77.4605","name":"BHPLSKTNESR001","address":"Sap : I-MP-BHPL-ENB-0185<br\/>Loopback : 172.22.88.46<br\/>Up-Time : 10 days, 12:43:07.29","type":"ESR","status":"1","hoto":"1"},{"lat":"23.2137","lng":"77.4628","name":"BHPLSTDAESR001","address":"Sap : I-MP-BHPL-ENB-0186<br\/>Loopback : 172.22.88.45<br\/>Up-Time : 10 days, 12:43:06.09","type":"ESR","status":"1","hoto":"1"},{"lat":"23.2134","lng":"77.4552","name":"BHPLAKPRESR001","address":"Sap : I-MP-BHPL-ENB-0188<br\/>Loopback : 172.22.88.95<br\/>Up-Time : 3 days, 20:42:39.03","type":"ESR","status":"1","hoto":"1"},{"lat":"23.2118","lng":"77.4481","name":"BHPLSKIBESR001","address":"Sap : I-MP-BHPL-ENB-0189<br\/>Loopback : 172.22.88.13<br\/>Up-Time : 46 days, 1:55:04.08","type":"ESR","status":"1","hoto":"1"},{"lat":"23.2181","lng":"77.451","name":"BHPLSKTBESR002","address":"Sap : I-MP-BHPL-ENB-0190<br\/>Loopback : 172.22.82.250<br\/>Up-Time : 46 days, 1:43:08.90","type":"ESR","status":"1","hoto":"1"},{"lat":"23.2728","lng":"77.3412","name":"BHPLHMUKESR001","address":"Sap : I-MP-BHPL-ENB-0194<br\/>Loopback : 172.22.82.177<br\/>Up-Time : 10 days, 20:23:48.20","type":"ESR","status":"1","hoto":"1"},{"lat":"23.2653","lng":"77.3445","name":"BHPLBHTAESR001","address":"Sap : I-MP-BHPL-ENB-0195<br\/>Loopback : 172.22.82.178<br\/>Up-Time : 48 days, 3:50:54.41","type":"ESR","status":"1","hoto":"1"},{"lat":"23.2669","lng":"77.3343","name":"BHPLMCPRESR002","address":"Sap : I-MP-BHPL-ENB-0196<br\/>Loopback : 172.22.82.180<br\/>Up-Time : 16:48:15.54","type":"ESR","status":"1","hoto":"1"},{"lat":"23.1931","lng":"77.4214","name":"BHPLIDESESR001","address":"Sap : I-MP-BHPL-ENB-0197<br\/>Loopback : 172.22.87.138<br\/>Up-Time : 28 days, 15:34:47.21","type":"ESR","status":"1","hoto":"1"},{"lat":"23.2265","lng":"77.4461","name":"BHPLIDSTESR001","address":"Sap : I-MP-BHPL-ENB-0198<br\/>Loopback : 172.22.88.49<br\/>Up-Time : 45 days, 4:52:19.25","type":"ESR","status":"1","hoto":"1"},{"lat":"23.2225","lng":"77.3833","name":"BHPLSHTNESR001","address":"Sap : I-MP-BHPL-ENB-0199<br\/>Loopback : 172.22.87.169<br\/>Up-Time : 52 days, 3:54:56.28","type":"ESR","status":"1","hoto":"1"},{"lat":"23.2373","lng":"77.4482","name":"BHPLGVDCESR002","address":"Sap : I-MP-BHPL-ENB-0200<br\/>Loopback : 172.22.87.120<br\/>Up-Time : 56 days, 12:28:37.83","type":"ESR","status":"1","hoto":"1"},{"lat":"23.2392","lng":"77.4119","name":"BHPLARHLESR005","address":"Sap : I-MP-BHPL-ENB-0202<br\/>Loopback : 172.22.87.19<br\/>Up-Time : 46 days, 1:43:13.67","type":"ESR","status":"1","hoto":"1"},{"lat":"23.2175","lng":"77.417","name":"BHPLBHPLESR019","address":"Sap : I-MP-BHPL-ENB-0204<br\/>Loopback : 172.22.87.146<br\/>Up-Time : 46 days, 1:35:31.81","type":"ESR","status":"1","hoto":"1"},{"lat":"23.1786","lng":"77.4255","name":"BHPLJKTNESR001","address":"Sap : I-MP-BHPL-ENB-0205<br\/>Loopback : 172.22.87.121<br\/>Up-Time : 12 days, 9:20:20.96","type":"ESR","status":"1","hoto":"1"},{"lat":"23.1753","lng":"77.4172","name":"BHPLLLTNESR001","address":"Sap : I-MP-BHPL-ENB-0206<br\/>Loopback : 172.22.88.173<br\/>Up-Time : 45 days, 2:43:39.98","type":"ESR","status":"1","hoto":"1"},{"lat":"23.2782","lng":"77.4194","name":"BHPLIDCCESR001","address":"Sap : I-MP-BHPL-ENB-0211<br\/>Loopback : 172.22.88.246<br\/>Up-Time : 33 days, 6:52:25.27","type":"ESR","status":"1","hoto":"1"},{"lat":"23.2836","lng":"77.4134","name":"BHPLCHLAESR001","address":"Sap : I-MP-BHPL-ENB-0212<br\/>Loopback : 172.22.88.181<br\/>Up-Time : 30 days, 12:25:33.52","type":"ESR","status":"1","hoto":"1"},{"lat":"23.2935","lng":"77.3957","name":"BHPLKSWHESR001","address":"Sap : I-MP-BHPL-ENB-0214<br\/>Loopback : 172.22.83.14<br\/>Up-Time : 46 days, 2:34:22.69","type":"ESR","status":"1","hoto":"1"},{"lat":"23.2428","lng":"77.4675","name":"BHPLPLNIESR001","address":"Sap : I-MP-BHPL-ENB-0217<br\/>Loopback : 172.22.83.26<br\/>Up-Time : 46 days, 2:26:33.21","type":"ESR","status":"1","hoto":"1"},{"lat":"23.2769","lng":"77.465","name":"BHPLSHRDESR002","address":"Sap : I-MP-BHPL-ENB-0219<br\/>Loopback : 172.22.88.121<br\/>Up-Time : 52 days, 3:33:21.77","type":"ESR","status":"1","hoto":"1"},{"lat":"23.2424","lng":"77.4498","name":"BHPLGVDCESR001","address":"Sap : I-MP-BHPL-ENB-0220<br\/>Loopback : 172.22.87.59<br\/>Up-Time : 46 days, 2:10:44.69","type":"ESR","status":"1","hoto":"1"},{"lat":"23.2818","lng":"77.4583","name":"BHPLOCHDESR001","address":"Sap : I-MP-BHPL-ENB-0223<br\/>Loopback : 172.22.87.129<br\/>Up-Time : 11 days, 13:17:14.90","type":"ESR","status":"1","hoto":"1"},{"lat":"23.2494","lng":"77.5008","name":"BHPLGPLNESR003","address":"Sap : I-MP-BHPL-ENB-0224<br\/>Loopback : 172.22.82.138<br\/>Up-Time : 6 days, 8:11:06.01","type":"ESR","status":"1","hoto":"1"},{"lat":"23.2131","lng":"77.477","name":"BHPLBRHEESR001","address":"Sap : I-MP-BHPL-ENB-0226<br\/>Loopback : 172.22.88.109<br\/>Up-Time : 46 days, 2:50:11.56","type":"ESR","status":"1","hoto":"1"},{"lat":"23.2237","lng":"77.4699","name":"BHPLBRKEESR001","address":"Sap : I-MP-BHPL-ENB-0228<br\/>Loopback : 172.22.88.74<br\/>Up-Time : 5 days, 7:03:18.05","type":"ESR","status":"1","hoto":"1"},{"lat":"23.2239","lng":"77.4626","name":"BHPLBRKEESR003","address":"Sap : I-MP-BHPL-ENB-0231<br\/>Loopback : 172.22.87.161<br\/>Up-Time : 46 days, 2:33:58.75","type":"ESR","status":"1","hoto":"1"},{"lat":"23.1937","lng":"77.4623","name":"BHPLSKRHESR001","address":"Sap : I-MP-BHPL-ENB-0232<br\/>Loopback : 172.22.85.12<br\/>Up-Time : 46 days, 0:28:21.67","type":"ESR","status":"1","hoto":"1"},{"lat":"23.2633","lng":"77.3393","name":"BHPLBHTAESR002","address":"Sap : I-MP-BHPL-ENB-0234<br\/>Loopback : 172.22.82.179<br\/>Up-Time : 9 days, 21:04:14.08","type":"ESR","status":"1","hoto":"1"},{"lat":"23.2372","lng":"77.4729","name":"BHPLPLNDESR001","address":"Sap : I-MP-BHPL-ENB-0235<br\/>Loopback : 172.22.88.56<br\/>Up-Time : 19 days, 14:37:41.52","type":"ESR","status":"1","hoto":"1"},{"lat":"23.2294","lng":"77.4624","name":"BHPLKNCNESR001","address":"Sap : I-MP-BHPL-ENB-0236<br\/>Loopback : 172.22.87.206<br\/>Up-Time : 46 days, 2:03:54.71","type":"ESR","status":"1","hoto":"1"},{"lat":"23.1695","lng":"77.4379","name":"BHPLAKREESR001","address":"Sap : I-MP-BHPL-ENB-0237<br\/>Loopback : 172.22.86.250<br\/>Up-Time : 46 days, 3:00:57.81","type":"ESR","status":"1","hoto":"1"},{"lat":"23.1736","lng":"77.4424","name":"BHPLBWDKESR001","address":"Sap : I-MP-BHPL-ENB-0240<br\/>Loopback : 172.22.86.251<br\/>Up-Time : 46 days, 2:55:11.15","type":"ESR","status":"1","hoto":"1"},{"lat":"23.1845","lng":"77.4666","name":"BHPLPRVSESR001","address":"Sap : I-MP-BHPL-ENB-0241<br\/>Loopback : 172.22.85.120<br\/>Up-Time : 46 days, 3:05:24.81","type":"ESR","status":"1","hoto":"1"},{"lat":"23.2955","lng":"77.4194","name":"BHPLKLYNESR001","address":"Sap : I-MP-BHPL-ENB-0242<br\/>Loopback : 172.22.88.180<br\/>Up-Time : 7 days, 20:31:26.85","type":"ESR","status":"1","hoto":"1"},{"lat":"23.2865","lng":"77.3614","name":"BHPLLLGTESR001","address":"Sap : I-MP-BHPL-ENB-0245<br\/>Loopback : 172.22.88.116<br\/>Up-Time : 16 days, 13:56:29.22","type":"ESR","status":"1","hoto":"1"},{"lat":"23.2895","lng":"77.352","name":"BHPLSVDHESR002","address":"Sap : I-MP-BHPL-ENB-0246<br\/>Loopback : 172.22.83.15<br\/>Up-Time : 39 days, 13:13:40.80","type":"ESR","status":"1","hoto":"1"},{"lat":"23.1901","lng":"77.47","name":"BHPLBGMLESR001","address":"Sap : I-MP-BHPL-ENB-0248<br\/>Loopback : 172.22.88.12<br\/>Up-Time : 19 days, 18:37:40.57","type":"ESR","status":"1","hoto":"1"},{"lat":"23.2824","lng":"77.3216","name":"BHPLBHPLESR010","address":"Sap : I-MP-BHPL-ENB-0249<br\/>Loopback : 172.22.83.44<br\/>Up-Time : 3 days, 12:13:33.91","type":"ESR","status":"1","hoto":"1"},{"lat":"23.1611","lng":"77.4292","name":"BHPLSKHDESR001","address":"Sap : I-MP-BHPL-ENB-0250<br\/>Loopback : 172.22.82.198<br\/>Up-Time : 16 days, 13:00:25.55","type":"ESR","status":"1","hoto":"1"},{"lat":"23.1593","lng":"77.4179","name":"BHPLRJSHESR001","address":"Sap : I-MP-BHPL-ENB-0251<br\/>Loopback : 172.22.82.219<br\/>Up-Time : 48 days, 3:43:30.77","type":"ESR","status":"1","hoto":"1"},{"lat":"23.1574","lng":"77.4125","name":"BHPLDULTESR001","address":"Sap : I-MP-BHPL-ENB-0252<br\/>Loopback : 172.22.82.164<br\/>Up-Time : 48 days, 5:17:25.92","type":"ESR","status":"1","hoto":"1"},{"lat":"23.1728","lng":"77.4597","name":"BHPLBHPLESR006","address":"Sap : I-MP-BHPL-ENB-0253<br\/>Loopback : 172.22.88.218<br\/>Up-Time : 45 days, 1:35:31.95","type":"ESR","status":"1","hoto":"1"},{"lat":"23.1869","lng":"77.4889","name":"BHPLKTRHESR001","address":"Sap : I-MP-BHPL-ENB-0254<br\/>Loopback : 172.22.88.14<br\/>Up-Time : 46 days, 1:48:04.23","type":"ESR","status":"1","hoto":"1"},{"lat":"23.2979","lng":"77.3449","name":"BHPLTGRGESR001","address":"Sap : I-MP-BHPL-ENB-0257<br\/>Loopback : 172.22.87.149<br\/>Up-Time : 46 days, 1:34:37.41","type":"ESR","status":"1","hoto":"1"},{"lat":"23.2321","lng":"77.3976","name":"BHPLSTTRESR001","address":"Sap : I-MP-BHPL-ENB-0261<br\/>Loopback : 172.22.87.61<br\/>Up-Time : 46 days, 2:06:24.96","type":"ESR","status":"1","hoto":"1"},{"lat":"23.2283","lng":"77.3968","name":"BHPLSTTRESR002","address":"Sap : I-MP-BHPL-ENB-0262<br\/>Loopback : 172.22.88.210<br\/>Up-Time : 45 days, 4:07:54.90","type":"ESR","status":"1","hoto":"1"},{"lat":"23.2254","lng":"77.4145","name":"BHPLSHVIESR001","address":"Sap : I-MP-BHPL-ENB-0263<br\/>Loopback : 172.22.87.72<br\/>Up-Time : 31 days, 15:32:38.99","type":"ESR","status":"1","hoto":"1"},{"lat":"23.1935","lng":"77.4821","name":"BHPLBMGEESR002","address":"Sap : I-MP-BHPL-ENB-0264<br\/>Loopback : 172.22.88.2<br\/>Up-Time : 45 days, 3:44:39.01","type":"ESR","status":"1","hoto":"1"},{"lat":"23.1704","lng":"77.4652","name":"BHPLGLDNESR001","address":"Sap : I-MP-BHPL-ENB-0270<br\/>Loopback : 172.22.88.217<br\/>Up-Time : 45 days, 1:34:27.59","type":"ESR","status":"1","hoto":"1"},{"lat":"23.1664","lng":"77.4234","name":"KLRRSVHRESR001","address":"Sap : I-MP-BHPL-ENB-0274<br\/>Loopback : 172.22.82.201<br\/> ","type":"ESR","status":"0","hoto":"1"},{"lat":"23.236","lng":"77.4237","name":"BHPLARHLESR004","address":"Sap : I-MP-BHPL-ENB-0279<br\/>Loopback : 172.22.87.20<br\/>Up-Time : 20 days, 10:39:43.83","type":"ESR","status":"1","hoto":"1"},{"lat":"23.3002","lng":"77.4286","name":"BHPLRSLKESR001","address":"Sap : I-MP-BHPL-ENB-0281<br\/>Loopback : 172.22.82.246<br\/>Up-Time : 2 days, 12:29:05.80","type":"ESR","status":"1","hoto":"1"},{"lat":"23.1925","lng":"77.3439","name":"BHPLALMNESR001","address":"Sap : I-MP-BHPL-ENB-0282<br\/>Loopback : 172.22.87.190<br\/>Up-Time : 38 days, 11:16:33.04","type":"ESR","status":"1","hoto":"1"},{"lat":"23.1205","lng":"77.4962","name":"BHPLHRGNESR001","address":"Sap : I-MP-BHPL-ENB-0286<br\/>Loopback : 172.22.88.222<br\/>Up-Time : 51 days, 14:41:19.66","type":"ESR","status":"1","hoto":"1"},{"lat":"23.136","lng":"77.4885","name":"BHPLHRGNESR003","address":"Sap : I-MP-BHPL-ENB-0287<br\/>Loopback : 172.22.88.115<br\/>Up-Time : 46 days, 2:59:07.49","type":"ESR","status":"1","hoto":"1"},{"lat":"23.1299","lng":"77.4896","name":"BHPLHRGNESR002","address":"Sap : I-MP-BHPL-ENB-0288<br\/>Loopback : 172.22.88.221<br\/>Up-Time : 39 days, 23:06:31.37","type":"ESR","status":"1","hoto":"1"},{"lat":"23.0595","lng":"77.5459","name":"BHPLITKLESR001","address":"Sap : I-MP-BHPL-ENB-0289<br\/>Loopback : 172.22.88.62<br\/>Up-Time : 8 days, 13:12:33.36","type":"ESR","status":"1","hoto":"1"},{"lat":"23.148","lng":"77.489","name":"BHPLBRPRESR002","address":"Sap : I-MP-BHPL-ENB-0291<br\/>Loopback : 172.22.88.244<br\/>Up-Time : 45 days, 2:24:40.92","type":"ESR","status":"1","hoto":"1"},{"lat":"23.2515","lng":"77.5217","name":"BHPLGIITESR001","address":"Sap : I-MP-BHPL-ENB-0292<br\/>Loopback : 172.22.82.137<br\/>Up-Time : 6 days, 13:49:32.81","type":"ESR","status":"1","hoto":"1"},{"lat":"23.2354","lng":"77.3883","name":"BHPLKRSGESR001","address":"Sap : I-MP-BHPL-ENB-0293<br\/>Loopback : 172.22.88.91<br\/>Up-Time : 53 days, 0:18:53.73","type":"ESR","status":"1","hoto":"1"},{"lat":"23.2301","lng":"77.4012","name":"BHPLSTTNESR001","address":"Sap : I-MP-BHPL-ENB-0294<br\/>Loopback : 172.22.87.60<br\/>Up-Time : 46 days, 2:06:28.13","type":"ESR","status":"1","hoto":"1"},{"lat":"23.2533","lng":"77.4682","name":"BHPLHZRTESR001","address":"Sap : I-MP-BHPL-ENB-0295<br\/>Loopback : 172.22.82.169<br\/>Up-Time : 3 days, 16:18:11.11","type":"ESR","status":"1","hoto":"1"},{"lat":"23.2427","lng":"77.4082","name":"BHPLCTPRESR001","address":"Sap : I-MP-BHPL-ENB-0296<br\/>Loopback : 172.22.88.75<br\/>Up-Time : 45 days, 3:37:05.58","type":"ESR","status":"1","hoto":"1"},{"lat":"23.3124","lng":"77.3524","name":"BHPLBHPLESR008","address":"Sap : I-MP-BHPL-ENB-0298<br\/>Loopback : 172.22.87.171<br\/>Up-Time : 16 days, 12:45:11.76","type":"ESR","status":"1","hoto":"1"},{"lat":"23.3024","lng":"77.3753","name":"BHPLNYPRESR001","address":"Sap : I-MP-BHPL-ENB-0299<br\/>Loopback : 172.22.87.163<br\/>Up-Time : 46 days, 0:03:58.62","type":"ESR","status":"1","hoto":"1"},{"lat":"23.1121","lng":"77.5239","name":"BHPLIDTLESR001","address":"Sap : I-MP-BHPL-ENB-0300<br\/>Loopback : 172.22.88.113<br\/>Up-Time : 5 days, 21:39:32.71","type":"ESR","status":"1","hoto":"1"},{"lat":"23.1418","lng":"77.4089","name":"KLRRCHCLESR001","address":"Sap : I-MP-BHPL-ENB-0305<br\/>Loopback : 172.22.82.199<br\/>Up-Time : 48 days, 4:57:28.34","type":"ESR","status":"1","hoto":"1"},{"lat":"23.1502","lng":"77.4116","name":"KLRRBRGHESR001","address":"Sap : I-MP-BHPL-ENB-0306<br\/>Loopback : 172.22.82.200<br\/>Up-Time : 19 days, 14:18:24.96","type":"ESR","status":"1","hoto":"1"},{"lat":"23.2372","lng":"77.4399","name":"BHPLGUTMESR003","address":"Sap : I-MP-BHPL-ENB-0309<br\/>Loopback : 172.22.87.117<br\/>Up-Time : 6 days, 12:26:43.51","type":"ESR","status":"1","hoto":"1"},{"lat":"23.2513","lng":"77.4564","name":"BHPLBHEEESR001","address":"Sap : I-MP-BHPL-ENB-0310<br\/>Loopback : 172.22.87.62<br\/>Up-Time : 11 days, 15:02:48.67","type":"ESR","status":"1","hoto":"1"},{"lat":"23.249","lng":"77.4713","name":"BHPLGDHNESR001","address":"Sap : I-MP-BHPL-ENB-0312<br\/>Loopback : 172.22.88.178<br\/>Up-Time : 19 days, 11:21:23.92","type":"ESR","status":"1","hoto":"1"},{"lat":"23.2162","lng":"77.4403","name":"BHPLARECESR002","address":"Sap : I-MP-BHPL-ENB-0313<br\/>Loopback : 172.22.88.47<br\/>Up-Time : 23:11:47.03","type":"ESR","status":"1","hoto":"1"},{"lat":"23.2313","lng":"77.4275","name":"BHPLCHNPESR001","address":"Sap : I-MP-BHPL-ENB-0314<br\/>Loopback : 172.22.87.3<br\/>Up-Time : 33 days, 17:21:48.93","type":"ESR","status":"1","hoto":"1"},{"lat":"23.3105","lng":"77.405","name":"BHPLCIAEESR001","address":"Sap : I-MP-BHPL-ENB-0315<br\/>Loopback : 172.22.83.24<br\/>Up-Time : 30 days, 12:51:11.54","type":"ESR","status":"1","hoto":"1"},{"lat":"23.2648","lng":"77.3735","name":"BHPLKHFIESR002","address":"Sap : I-MP-BHPL-ENB-0316<br\/>Loopback : 172.22.88.89<br\/>Up-Time : 45 days, 1:36:40.24","type":"ESR","status":"1","hoto":"1"},{"lat":"23.1907","lng":"77.4852","name":"BHPLBMGEESR001","address":"Sap : I-MP-BHPL-ENB-0317<br\/>Loopback : 172.22.88.57<br\/>Up-Time : 45 days, 3:58:54.23","type":"ESR","status":"1","hoto":"1"},{"lat":"23.2418","lng":"77.2405","name":"BHPLBHPLESR024","address":"Sap : I-MP-BHPL-ENB-0318<br\/>Loopback : 172.22.87.224<br\/>Up-Time : 46 days, 1:53:26.92","type":"ESR","status":"1","hoto":"1"},{"lat":"23.2738","lng":"77.409","name":"BHPLKZCPESR002","address":"Sap : I-MP-BHPL-ENB-0320<br\/>Loopback : 172.22.89.61<br\/>Up-Time : 45 days, 3:18:47.39","type":"ESR","status":"1","hoto":"1"},{"lat":"23.1356","lng":"77.5344","name":"BHPLBHPLESR001","address":"Sap : I-MP-BHPL-ENB-6000<br\/>Loopback : 172.22.88.132<br\/>Up-Time : 46 days, 1:08:43.18","type":"ESR","status":"1","hoto":"1"},{"lat":"23.1676","lng":"77.3206","name":"BHPLBHPLESR002","address":"Sap : I-MP-BHPL-ENB-6001<br\/>Loopback : 172.22.87.107<br\/>Up-Time : 30 days, 15:47:37.11","type":"ESR","status":"1","hoto":"1"},{"lat":"23.1996","lng":"77.4473","name":"BHPLNRYAESR001","address":"Sap : I-MP-BHPL-ENB-6003<br\/>Loopback : 172.22.87.253<br\/>Up-Time : 10 days, 18:40:26.35","type":"ESR","status":"1","hoto":"1"},{"lat":"23.2378","lng":"77.427","name":"BHPLARHLESR003","address":"Sap : I-MP-BHPL-ENB-6004<br\/>Loopback : 172.22.87.21<br\/>Up-Time : 46 days, 1:02:28.67","type":"ESR","status":"1","hoto":"1"},{"lat":"23.2595","lng":"77.3971","name":"BHPLPERGESR001","address":"Sap : I-MP-BHPL-ENB-6005<br\/>Loopback : 172.22.88.93<br\/> ","type":"ESR","status":"0","hoto":"1"},{"lat":"23.2338","lng":"77.4411","name":"BHPLGUTMESR001","address":"Sap : I-MP-BHPL-ENB-6006<br\/>Loopback : 172.22.87.119<br\/>Up-Time : 52 days, 3:49:23.14","type":"ESR","status":"1","hoto":"1"},{"lat":"23.2888","lng":"77.4208","name":"BHPLSNDGESR001","address":"Sap : I-MP-BHPL-ENB-6007<br\/>Loopback : 172.22.83.9<br\/>Up-Time : 4 days, 13:51:19.54","type":"ESR","status":"1","hoto":"1"},{"lat":"23.2774","lng":"77.341","name":"BHPLPCWTESR001","address":"Sap : I-MP-BHPL-ENB-6008<br\/>Loopback : 172.22.82.182<br\/>Up-Time : 35 days, 21:52:05.58","type":"ESR","status":"1","hoto":"1"},{"lat":"23.2697","lng":"77.4092","name":"BHPLRSLDESR001","address":"Sap : I-MP-BHPL-ENB-6010<br\/>Loopback : 172.22.89.67<br\/>Up-Time : 45 days, 1:16:28.67","type":"ESR","status":"1","hoto":"1"},{"lat":"23.2051","lng":"77.435","name":"BHPLLLJPESR001","address":"Sap : I-MP-BHPL-ENB-6011<br\/>Loopback : 172.22.87.140<br\/>Up-Time : 46 days, 1:39:22.69","type":"ESR","status":"1","hoto":"1"},{"lat":"23.2778","lng":"77.3719","name":"BHPLNYNPESR001","address":"Sap : I-MP-BHPL-ENB-6013<br\/>Loopback : 172.22.83.38<br\/>Up-Time : 46 days, 1:28:02.95","type":"ESR","status":"1","hoto":"1"},{"lat":"23.27","lng":"77.426","name":"BHPLSKRNESR001","address":"Sap : I-MP-BHPL-ENB-6016<br\/>Loopback : 172.22.83.20<br\/>Up-Time : 46 days, 1:31:57.74","type":"ESR","status":"1","hoto":"1"},{"lat":"23.2178","lng":"77.4278","name":"BHPLRVSKESR001","address":"Sap : I-MP-BHPL-ENB-6019<br\/>Loopback : 172.22.87.89<br\/>Up-Time : 46 days, 2:10:57.90","type":"ESR","status":"1","hoto":"1"},{"lat":"23.264","lng":"77.4115","name":"BHPLRLYYESR001","address":"Sap : I-MP-BHPL-ENB-6024<br\/>Loopback : 172.22.83.16<br\/>Up-Time : 46 days, 2:26:51.76","type":"ESR","status":"1","hoto":"1"},{"lat":"23.2514","lng":"77.4633","name":"BHPLKPNRESR001","address":"Sap : I-MP-BHPL-ENB-6025<br\/>Loopback : 172.22.87.150<br\/>Up-Time : 24 days, 10:03:13.90","type":"ESR","status":"1","hoto":"1"},{"lat":"23.1922","lng":"77.4363","name":"BHPLANMKESR001","address":"Sap : I-MP-BHPL-ENB-6026<br\/>Loopback : 172.22.87.151<br\/>Up-Time : 16 days, 13:04:28.06","type":"ESR","status":"1","hoto":"1"},{"lat":"23.1793","lng":"77.4188","name":"BHPLGNPTESR001","address":"Sap : I-MP-BHPL-ENB-6028<br\/>Loopback : 172.22.87.7<br\/>Up-Time : 46 days, 2:16:27.40","type":"ESR","status":"1","hoto":"1"},{"lat":"23.217","lng":"77.4538","name":"BHPLSKTBESR001","address":"Sap : I-MP-BHPL-ENB-6029<br\/>Loopback : 172.22.82.249<br\/>Up-Time : 11 days, 12:08:47.52","type":"ESR","status":"1","hoto":"1"},{"lat":"23.2612","lng":"77.4596","name":"BHPLBHTNESR002","address":"Sap : I-MP-BHPL-ENB-6030<br\/>Loopback : 172.22.83.40<br\/>Up-Time : 46 days, 1:11:14.83","type":"ESR","status":"1","hoto":"1"},{"lat":"23.3039","lng":"77.4091","name":"BHPLRDKSESR001","address":"Sap : I-MP-BHPL-ENB-6031<br\/>Loopback : 172.22.87.158<br\/>Up-Time : 31 days, 17:26:02.25","type":"ESR","status":"1","hoto":"1"},{"lat":"23.2966","lng":"77.3545","name":"BHPLSVDHESR001","address":"Sap : I-MP-BHPL-ENB-6033<br\/>Loopback : 172.22.82.231<br\/>Up-Time : 14 days, 16:37:23.82","type":"ESR","status":"1","hoto":"1"},{"lat":"23.2316","lng":"77.4355","name":"BHPLMPNBESR001","address":"Sap : I-MP-BHPL-ENB-6034<br\/>Loopback : 172.22.87.2<br\/>Up-Time : 46 days, 0:09:03.04","type":"ESR","status":"1","hoto":"1"},{"lat":"23.1986","lng":"77.4202","name":"BHPLSHRCESR001","address":"Sap : I-MP-BHPL-ENB-6035<br\/>Loopback : 172.22.88.191<br\/>Up-Time : 25 days, 12:31:34.52","type":"ESR","status":"1","hoto":"1"},{"lat":"23.2552","lng":"77.4326","name":"BHPLAHKGESR001","address":"Sap : I-MP-BHPL-ENB-6036<br\/>Loopback : 172.22.83.17<br\/>Up-Time : 15:02:04.40","type":"ESR","status":"1","hoto":"1"},{"lat":"23.1955","lng":"77.4726","name":"BHPLARVDESR001","address":"Sap : I-MP-BHPL-ENB-6037<br\/>Loopback : 172.22.83.13<br\/>Up-Time : 46 days, 2:29:52.22","type":"ESR","status":"1","hoto":"1"},{"lat":"23.2111","lng":"77.4361","name":"BHPLAREGESR001","address":"Sap : I-MP-BHPL-ENB-6038<br\/>Loopback : 172.22.87.16<br\/>Up-Time : 46 days, 1:12:53.06","type":"ESR","status":"1","hoto":"1"},{"lat":"23.2655","lng":"77.401","name":"BHPLSJDCESR001","address":"Sap : I-MP-BHPL-ENB-6039<br\/>Loopback : 172.22.89.1<br\/>Up-Time : 45 days, 3:09:56.75","type":"ESR","status":"1","hoto":"1"},{"lat":"23.2493","lng":"77.4182","name":"BHPLJHGRESR002","address":"Sap : I-MP-BHPL-ENB-6040<br\/>Loopback : 172.22.83.3<br\/>Up-Time : 39 days, 11:03:31.34","type":"ESR","status":"1","hoto":"1"},{"lat":"23.2132","lng":"77.3927","name":"BHPLAKSJESR001","address":"Sap : I-MP-BHPL-ENB-6042<br\/>Loopback : 172.22.87.236<br\/>Up-Time : 46 days, 1:41:04.15","type":"ESR","status":"1","hoto":"1"},{"lat":"23.2224","lng":"77.437","name":"BHPLAREBESR001","address":"Sap : I-MP-BHPL-ENB-6043<br\/>Loopback : 172.22.87.153<br\/> ","type":"ESR","status":"0","hoto":"1"},{"lat":"23.2281","lng":"77.488","name":"BHPLSMNVESR001","address":"Sap : I-MP-BHPL-ENB-6044<br\/>Loopback : 172.22.82.243<br\/>Up-Time : 46 days, 2:42:15.02","type":"ESR","status":"1","hoto":"1"},{"lat":"23.2021","lng":"77.3546","name":"BHPLKPALESR001","address":"Sap : I-MP-BHPL-ENB-6045<br\/>Loopback : 172.22.87.174<br\/>Up-Time : 41 days, 11:46:55.49","type":"ESR","status":"1","hoto":"1"},{"lat":"23.2776","lng":"77.4619","name":"BHPLSHRDESR001","address":"Sap : I-MP-BHPL-ENB-6046<br\/>Loopback : 172.22.88.122<br\/>Up-Time : 23 days, 11:57:59.98","type":"ESR","status":"1","hoto":"1"},{"lat":"23.1812","lng":"77.4571","name":"BHPLSHPRESR001","address":"Sap : I-MP-BHPL-ENB-6049<br\/>Loopback : 172.22.85.122<br\/>Up-Time : 30 days, 14:00:10.66","type":"ESR","status":"1","hoto":"1"},{"lat":"23.224","lng":"77.4044","name":"BHPLHRSVESR001","address":"Sap : I-MP-BHPL-ENB-6053<br\/>Loopback : 172.22.87.175<br\/>Up-Time : 42 days, 1:32:03.17","type":"ESR","status":"1","hoto":"1"},{"lat":"23.2395","lng":"77.4409","name":"BHPLBHRTESR001","address":"Sap : I-MP-BHPL-ENB-6054<br\/>Loopback : 172.22.87.116<br\/>Up-Time : 46 days, 1:51:56.26","type":"ESR","status":"1","hoto":"1"},{"lat":"23.2616","lng":"77.3878","name":"BHPLSJDNESR001","address":"Sap : I-MP-BHPL-ENB-6055<br\/>Loopback : 172.22.88.120<br\/>Up-Time : 31 days, 14:03:32.65","type":"ESR","status":"1","hoto":"1"},{"lat":"23.2309","lng":"77.3938","name":"BHPLSTRNESR001","address":"Sap : I-MP-BHPL-ENB-6056<br\/>Loopback : 172.22.88.71<br\/>Up-Time : 61 days, 3:45:20.85","type":"ESR","status":"1","hoto":"1"},{"lat":"23.2517","lng":"77.5041","name":"BHPLGPLNESR004","address":"Sap : I-MP-BHPL-ENB-6057<br\/>Loopback : 172.22.82.140<br\/>Up-Time : 44 days, 10:01:15.06","type":"ESR","status":"1","hoto":"1"},{"lat":"23.2052","lng":"77.4174","name":"BHPLJNKIESR001","address":"Sap : I-MP-BHPL-ENB-6059<br\/>Loopback : 172.22.83.1<br\/>Up-Time : 46 days, 2:20:03.04","type":"ESR","status":"1","hoto":"1"},{"lat":"23.2592","lng":"77.444","name":"BHPLMPEBESR001","address":"Sap : I-MP-BHPL-ENB-6061<br\/>Loopback : 172.22.82.162<br\/>Up-Time : 39 days, 11:36:08.27","type":"ESR","status":"1","hoto":"1"},{"lat":"23.2532","lng":"77.4264","name":"BHPLASHBESR001","address":"Sap : I-MP-BHPL-ENB-6064<br\/>Loopback : 172.22.82.224<br\/>Up-Time : 48 days, 3:43:50.08","type":"ESR","status":"1","hoto":"1"},{"lat":"23.2588","lng":"77.4107","name":"BHPLCHWNESR001","address":"Sap : I-MP-BHPL-ENB-6065<br\/>Loopback : 172.22.82.165<br\/>Up-Time : 48 days, 5:00:57.01","type":"ESR","status":"1","hoto":"1"},{"lat":"23.2595","lng":"77.4738","name":"BHPLKMLNESR001","address":"Sap : I-MP-BHPL-ENB-6066<br\/>Loopback : 172.22.82.235<br\/>Up-Time : 11 days, 15:17:39.69","type":"ESR","status":"1","hoto":"1"},{"lat":"23.1891","lng":"77.4336","name":"BHPLSBHYESR001","address":"Sap : I-MP-BHPL-ENB-6067<br\/>Loopback : 172.22.87.154<br\/>Up-Time : 46 days, 1:26:41.29","type":"ESR","status":"1","hoto":"1"},{"lat":"23.2308","lng":"77.4317","name":"BHPLSHJNESR001","address":"Sap : I-MP-BHPL-ENB-6069<br\/>Loopback : 172.22.87.4<br\/>Up-Time : 46 days, 2:20:25.87","type":"ESR","status":"1","hoto":"1"},{"lat":"23.1851","lng":"77.4177","name":"BHPLMDKNESR001","address":"Sap : I-MP-BHPL-ENB-6070<br\/>Loopback : 172.22.86.254<br\/>Up-Time : 46 days, 0:10:32.47","type":"ESR","status":"1","hoto":"1"},{"lat":"23.2553","lng":"77.3996","name":"BHPLCWKTESR001","address":"Sap : I-MP-BHPL-ENB-6071<br\/>Loopback : 172.22.82.135<br\/>Up-Time : 54 days, 2:45:48.65","type":"ESR","status":"1","hoto":"1"},{"lat":"23.2521","lng":"77.4365","name":"BHPLSBDCESR001","address":"Sap : I-MP-BHPL-ENB-6072<br\/>Loopback : 172.22.88.237<br\/>Up-Time : 45 days, 1:26:33.00","type":"ESR","status":"1","hoto":"1"},{"lat":"23.2398","lng":"77.4053","name":"BHPLMLVYESR001","address":"Sap : I-MP-BHPL-ENB-6073<br\/>Loopback : 172.22.87.18<br\/>Up-Time : 52 days, 3:35:48.72","type":"ESR","status":"1","hoto":"1"},{"lat":"23.1649","lng":"77.4137","name":"BHPLSURBESR001","address":"Sap : I-MP-BHPL-ENB-6075<br\/>Loopback : 172.22.88.189<br\/>Up-Time : 5 days, 2:51:10.10","type":"ESR","status":"1","hoto":"1"},{"lat":"23.2762","lng":"77.4052","name":"BHPLCWKSESR001","address":"Sap : I-MP-BHPL-ENB-6078<br\/>Loopback : 172.22.82.222<br\/>Up-Time : 48 days, 4:53:39.88","type":"ESR","status":"1","hoto":"1"},{"lat":"23.262","lng":"77.469","name":"BHPLKRNGESR001","address":"Sap : I-MP-BHPL-ENB-6080<br\/>Loopback : 172.22.83.4<br\/>Up-Time : 46 days, 1:35:39.47","type":"ESR","status":"1","hoto":"1"},{"lat":"23.2642","lng":"77.4066","name":"BHPLGHRKESR001","address":"Sap : I-MP-BHPL-ENB-6081<br\/>Loopback : 172.22.88.255<br\/>Up-Time : 12 days, 17:11:21.29","type":"ESR","status":"1","hoto":"1"},{"lat":"23.3659","lng":"77.4009","name":"BHPLBHPLESR025","address":"Sap : I-MP-BHPL-ENB-6084<br\/>Loopback : 172.22.82.175<br\/>Up-Time : 4 days, 21:03:27.44","type":"ESR","status":"1","hoto":"1"},{"lat":"23.0867","lng":"77.3907","name":"BHPLBHPLESR014","address":"Sap : I-MP-BHPL-ENB-6085<br\/>Loopback : 172.22.88.211<br\/>Up-Time : 10 days, 14:52:36.48","type":"ESR","status":"1","hoto":"1"},{"lat":"23.2558","lng":"77.5642","name":"BHPLBHPLESR003","address":"Sap : I-MP-BHPL-ENB-6086<br\/>Loopback : 172.22.86.106<br\/>Up-Time : 2 days, 9:13:16.09","type":"ESR","status":"1","hoto":"1"},{"lat":"23.0748","lng":"77.5327","name":"BHPLJHKLESR001","address":"Sap : I-MP-BHPL-ENB-6087<br\/>Loopback : 172.22.89.206<br\/>Up-Time : 21 days, 7:46:02.53","type":"ESR","status":"1","hoto":"1"},{"lat":"23.1068","lng":"77.5094","name":"BHPLMNDPESR001","address":"Sap : I-MP-BHPL-ENB-6089<br\/>Loopback : 172.22.88.96<br\/>Up-Time : 18 days, 11:19:15.61","type":"ESR","status":"1","hoto":"1"},{"lat":"23.3378","lng":"77.2752","name":"BHPLBHPLESR004","address":"Sap : I-MP-BHPL-ENB-6090<br\/>Loopback : 172.22.86.14<br\/>Up-Time : 18 days, 18:29:24.85","type":"ESR","status":"1","hoto":"1"},{"lat":"23.2262","lng":"77.2132","name":"BHPLBHPLESR015","address":"Sap : I-MP-BHPL-ENB-6091<br\/>Loopback : 172.22.87.84<br\/>Up-Time : 22 days, 10:58:53.15","type":"ESR","status":"1","hoto":"1"},{"lat":"23.3152","lng":"77.1917","name":"BHPLBHPLESR013","address":"Sap : I-MP-BHPL-ENB-6093<br\/>Loopback : 172.22.88.129<br\/>Up-Time : 22 days, 10:23:04.02","type":"ESR","status":"1","hoto":"1"},{"lat":"23.108","lng":"77.4006","name":"BHPLBHPLESR026","address":"Sap : I-MP-BHPL-ENB-9001<br\/>Loopback : 172.22.88.212<br\/>Up-Time : 45 days, 4:01:34.01","type":"ESR","status":"1","hoto":"1"},{"lat":"23.1198","lng":"77.4039","name":"BHPLBHPLESR023","address":"Sap : I-MP-BHPL-ENB-9002<br\/>Loopback : 172.22.82.202<br\/>Up-Time : 48 days, 5:19:12.51","type":"ESR","status":"1","hoto":"1"},{"lat":"23.2374","lng":"77.5133","name":"BHPLBHPLESR011","address":"Sap : I-MP-BHPL-ENB-9003<br\/>Loopback : 172.22.88.239<br\/>Up-Time : 3 days, 11:08:18.41","type":"ESR","status":"1","hoto":"1"},{"lat":"23.2679","lng":"77.3091","name":"BHPLBHPLESR009","address":"Sap : I-MP-BHPL-ENB-9005<br\/>Loopback : 172.22.83.51<br\/>Up-Time : 14 days, 14:04:44.56","type":"ESR","status":"1","hoto":"1"},{"lat":"23.2549","lng":"77.2778","name":"BHPLBHPLESR012","address":"Sap : I-MP-BHPL-ENB-9013<br\/>Loopback : 172.22.83.45<br\/>Up-Time : 46 days, 1:10:28.56","type":"ESR","status":"1","hoto":"1"},{"lat":"23.15","lng":"77.4781","name":"BHPLBRPRESR001","address":"Sap : I-MP-BHPL-ENB-9018<br\/>Loopback : 172.22.88.216<br\/>Up-Time : 3 days, 14:39:00.73","type":"ESR","status":"1","hoto":"1"},{"lat":"23.184","lng":"77.4613","name":"BHPLDEPKESR001","address":"Sap : I-MP-BHPL-ENB-A001<br\/>Loopback : 172.22.85.121<br\/>Up-Time : 26 days, 6:19:12.34","type":"ESR","status":"1","hoto":"1"},{"lat":"23.1733","lng":"77.4765","name":"BHPLJTKDESR001","address":"Sap : I-MP-BHPL-ENB-A003<br\/>Loopback : 172.22.87.36<br\/>Up-Time : 42 days, 13:58:21.66","type":"ESR","status":"1","hoto":"1"},{"lat":"23.2152","lng":"77.3969","name":"BHPLBPNGESR001","address":"Sap : I-MP-BHPL-ENB-B001<br\/>Loopback : 172.22.82.161<br\/>Up-Time : 20 days, 10:07:42.30","type":"ESR","status":"1","hoto":"1"},{"lat":"23.2517","lng":"77.4513","name":"BHPLBHEEESR002","address":"Sap : I-MP-BHPL-ENB-B002<br\/>Loopback : 172.22.89.26<br\/>Up-Time : 2 days, 12:34:30.02","type":"ESR","status":"1","hoto":"1"},{"lat":"23.2043","lng":"77.4376","name":"BHPLAREFESR001","address":"Sap : I-MP-BHPL-ENB-B003<br\/>Loopback : 172.22.87.168<br\/>Up-Time : 46 days, 2:30:58.56","type":"ESR","status":"1","hoto":"1"},{"lat":"23.2961","lng":"77.4131","name":"BHPLBHPRESR001","address":"Sap : I-MP-BHPL-ENB-H001<br\/>Loopback : 172.22.87.156<br\/>Up-Time : 2 days, 16:43:31.02","type":"ESR","status":"1","hoto":"1"},{"lat":"23.2201","lng":"77.4126","name":"BHPLBHPLESR020","address":"Sap : I-MP-BHPL-ENB-H002<br\/>Loopback : 172.22.87.147<br\/>Up-Time : 9 days, 2:26:12.68","type":"ESR","status":"1","hoto":"1"},{"lat":"23.1835","lng":"77.4153","name":"BHPLFRTEESR001","address":"Sap : I-MP-BHPL-ENB-H003<br\/>Loopback : 172.22.86.253<br\/>Up-Time : 12 days, 13:30:34.68","type":"ESR","status":"1","hoto":"1"},{"lat":"23.2618","lng":"77.4344","name":"BHPLPRGTESR001","address":"Sap : I-MP-BHPL-ENB-H005<br\/>Loopback : 172.22.83.21<br\/>Up-Time : 46 days, 1:33:05.16","type":"ESR","status":"1","hoto":"1"},{"lat":"23.2213","lng":"77.4957","name":"BHPLADPIESR001","address":"Sap : I-MP-BHPL-ENB-H006<br\/>Loopback : 172.22.82.242<br\/>Up-Time : 45 days, 23:32:00.58","type":"ESR","status":"1","hoto":"1"},{"lat":"23.1066","lng":"77.5197","name":"BHPLIDTLESR002","address":"Sap : I-MP-BHPL-ENB-H007<br\/>Loopback : 172.22.88.112<br\/>Up-Time : 37 days, 17:19:09.39","type":"ESR","status":"1","hoto":"1"},{"lat":"23.2708","lng":"77.3366","name":"BHPLMCPRESR001","address":"Sap : I-MP-BHPL-ENB-H008<br\/>Loopback : 172.22.82.181<br\/>Up-Time : 48 days, 4:49:56.19","type":"ESR","status":"1","hoto":"1"},{"lat":"23.2361","lng":"77.3926","name":"BHPLNTTGESR001","address":"Sap : I-MP-BHPL-ENB-H009<br\/>Loopback : 172.22.87.106<br\/>Up-Time : 46 days, 2:02:26.66","type":"ESR","status":"1","hoto":"1"},{"lat":"23.2709","lng":"77.3946","name":"BHPLSHJBESR001","address":"Sap : I-MP-BHPL-ENB-H011<br\/>Loopback : 172.22.88.80<br\/>Up-Time : 14 days, 13:51:11.11","type":"ESR","status":"1","hoto":"1"},{"lat":"23.2784","lng":"77.4521","name":"BHPLKLULESR001","address":"Sap : I-MP-BHPL-ENB-H012<br\/>Loopback : 172.22.87.128<br\/>Up-Time : 46 days, 1:07:56.90","type":"ESR","status":"1","hoto":"1"},{"lat":"23.2553","lng":"77.4256","name":"BHPLASHBESR003","address":"Sap : I-MP-BHPL-ENB-H013<br\/>Loopback : 172.22.82.225<br\/>Up-Time : 48 days, 3:43:03.55","type":"ESR","status":"1","hoto":"1"},{"lat":"23.0973","lng":"77.5192","name":"MADPIDTLESR001","address":"Sap : I-MP-BHPL-ENB-H017<br\/>Loopback : 172.22.88.124<br\/>Up-Time : 46 days, 1:06:10.41","type":"ESR","status":"1","hoto":"1"},{"lat":"23.2124","lng":"77.3682","name":"BHPLBHPLESR017","address":"Sap : I-MP-BHPL-ENB-H018<br\/>Loopback : 172.22.87.173<br\/>Up-Time : 46 days, 2:32:03.43","type":"ESR","status":"1","hoto":"1"},{"lat":"23.1016","lng":"77.5282","name":"MADPIDTLESR002","address":"Sap : I-MP-BHPL-ENB-H019<br\/>Loopback : 172.22.88.114<br\/>Up-Time : 4 days, 18:37:54.55","type":"ESR","status":"1","hoto":"1"},{"lat":"23.2746","lng":"77.272","name":"BHPLBHPLESR016","address":"Sap : I-MP-BHPL-ENB-H020<br\/>Loopback : 172.22.83.50<br\/>Up-Time : 38 days, 13:51:41.32","type":"ESR","status":"1","hoto":"1"},{"lat":"23.2737","lng":"77.4168","name":"BHPLDWKNESR001","address":"Sap : I-MP-BHPL-ENB-H021<br\/>Loopback : 172.22.88.254<br\/>Up-Time : 45 days, 2:31:15.53","type":"ESR","status":"1","hoto":"1"},{"lat":"23.2614","lng":"77.4159","name":"BHPLRSHNESR001","address":"Sap : I-MP-BHPL-ENB-H022<br\/>Loopback : 172.22.87.219<br\/>Up-Time : 30 days, 4:48:28.55","type":"ESR","status":"1","hoto":"1"},{"lat":"23.2694","lng":"77.4588","name":"BHPLNERLESR001","address":"Sap : I-MP-BHPL-ENB-H023<br\/>Loopback : 172.22.88.174<br\/>Up-Time : 45 days, 2:44:42.48","type":"ESR","status":"1","hoto":"1"},{"lat":"23.2389","lng":"77.3825","name":"BHPLKRSAESR002","address":"Sap : I-MP-BHPL-ENB-H024<br\/>Loopback : 172.22.88.209<br\/>Up-Time : 45 days, 3:51:06.22","type":"ESR","status":"1","hoto":"1"},{"lat":"23.1978","lng":"77.4151","name":"BHPLPRKHESR001","address":"Sap : I-MP-BHPL-ENB-H025<br\/>Loopback : 172.22.87.122<br\/>Up-Time : 18 days, 12:37:40.07","type":"ESR","status":"1","hoto":"1"},{"lat":"23.2527","lng":"77.4311","name":"BHPLAHKGESR002","address":"Sap : I-MP-BHPL-ENB-H026<br\/>Loopback : 172.22.82.163<br\/>Up-Time : 31 days, 17:33:02.00","type":"ESR","status":"1","hoto":"1"},{"lat":"23.2948","lng":"77.3799","name":"BHPLNGRIESR001","address":"Sap : I-MP-BHPL-ENB-H027<br\/>Loopback : 172.22.87.162<br\/>Up-Time : 46 days, 2:28:12.88","type":"ESR","status":"1","hoto":"1"},{"lat":"23.2087","lng":"77.3956","name":"BHPLBHPLESR005","address":"Sap : I-MP-BHPL-ENB-H028<br\/>Loopback : 172.22.83.2<br\/>Up-Time : 46 days, 2:16:41.80","type":"ESR","status":"1","hoto":"1"},{"lat":"23.2178","lng":"77.4459","name":"BHPLSKTAESR001","address":"Sap : I-MP-BHPL-ENB-H030<br\/>Loopback : 172.22.83.12<br\/>Up-Time : 46 days, 1:36:00.14","type":"ESR","status":"1","hoto":"1"},{"lat":"23.1628","lng":"77.4195","name":"KLRRRHSHESR001","address":"Sap : I-MP-BHPL-ENB-H031<br\/>Loopback : 172.22.82.220<br\/>Up-Time : 19 days, 10:38:22.60","type":"ESR","status":"1","hoto":"1"},{"lat":"23.2728","lng":"77.3987","name":"BHPLSHJBESR002","address":"Sap : I-MP-BHPL-ENB-H032<br\/>Loopback : 172.22.88.82<br\/>Up-Time : 45 days, 3:16:22.27","type":"ESR","status":"1","hoto":"1"},{"lat":"23.2739","lng":"77.393","name":"BHPLPLCCESR001","address":"Sap : I-MP-BHPL-ENB-H033<br\/>Loopback : 172.22.82.191<br\/>Up-Time : 13 days, 15:02:44.42","type":"ESR","status":"1","hoto":"1"},{"lat":"23.2714","lng":"77.4125","name":"BHPLRSLDESR002","address":"Sap : I-MP-BHPL-ENB-H034<br\/>Loopback : 172.22.88.238<br\/>Up-Time : 45 days, 3:33:23.28","type":"ESR","status":"1","hoto":"1"},{"lat":"23.1849","lng":"77.4547","name":"BHPLSHPRESR002","address":"Sap : I-MP-BHPL-ENB-H035<br\/>Loopback : 172.22.88.3<br\/>Up-Time : 9 days, 12:30:32.66","type":"ESR","status":"1","hoto":"1"},{"lat":"23.1611","lng":"77.4661","name":"BHPLMSRDESR001","address":"Sap : I-MP-BHPL-ENB-S001<br\/>Loopback : 172.22.89.4<br\/>Up-Time : 43 days, 18:35:20.32","type":"ESR","status":"1","hoto":"1"},{"lat":"23.2908","lng":"77.4009","name":"BHPLDVKNESR001","address":"Sap : I-MP-BHPL-ENB-S002<br\/>Loopback : 172.22.82.228<br\/>Up-Time : 25 days, 13:16:50.84","type":"ESR","status":"1","hoto":"1"},{"lat":"23.2145","lng":"77.4364","name":"BHPLARECESR001","address":"Sap : I-MP-BHPL-ENB-S003<br\/>Loopback : 172.22.82.136<br\/>Up-Time : 8 days, 18:44:50.56","type":"ESR","status":"1","hoto":"1"},{"lat":"23.2843","lng":"77.3114","name":"BHPLBHPLESR022","address":"Sap : I-MP-BHPL-ENB-S004<br\/>Loopback : 172.22.82.184<br\/>Up-Time : 48 days, 4:49:56.29","type":"ESR","status":"1","hoto":"1"},{"lat":"23.2596","lng":"77.4275","name":"BHPLAHKVESR001","address":"Sap : I-MP-BHPL-ENB-S005<br\/>Loopback : 172.22.82.208<br\/>Up-Time : 48 days, 5:14:15.56","type":"ESR","status":"1","hoto":"1"},{"lat":"23.2595","lng":"77.4674","name":"BHPLSRVDESR001","address":"Sap : I-MP-BHPL-ENB-V001<br\/>Loopback : 172.22.82.172<br\/>Up-Time : 9 days, 12:56:43.74","type":"ESR","status":"1","hoto":"1"},{"lat":"23.2316","lng":"77.4903","name":"BHPLCRSTESR001","address":"Sap : I-MP-BHPL-ENB-V002<br\/>Loopback : 172.22.82.240<br\/>Up-Time : 46 days, 2:45:15.33","type":"ESR","status":"1","hoto":"1"},{"lat":"23.0972","lng":"77.5119","name":"MADPMNDPESR001","address":"Sap : I-MP-BHPL-ENB-V003<br\/>Loopback : 172.22.88.126<br\/>Up-Time : 36 days, 13:11:13.32","type":"ESR","status":"1","hoto":"1"},{"lat":"23.2666","lng":"77.377","name":"BHPLKHFIESR001","address":"Sap : I-MP-BHPL-ENB-V004<br\/>Loopback : 172.22.88.55<br\/>Up-Time : 45 days, 3:51:45.84","type":"ESR","status":"1","hoto":"1"},{"lat":"23.2924","lng":"77.4089","name":"BHPLVSWKESR001","address":"Sap : I-MP-BHPL-ENB-V005<br\/>Loopback : 172.22.83.10<br\/>Up-Time : 46 days, 2:24:41.29","type":"ESR","status":"1","hoto":"1"},{"lat":"23.2769","lng":"77.4338","name":"BHPLKRYSESR001","address":"Sap : I-MP-BHPL-ENB-V006<br\/>Loopback : 172.22.88.253<br\/>Up-Time : 45 days, 2:31:19.25","type":"ESR","status":"1","hoto":"1"},{"lat":"23.2264","lng":"77.4373","name":"BHPLMPNBESR002","address":"Sap : I-MP-BHPL-ENB-V007<br\/>Loopback : 172.22.87.179<br\/>Up-Time : 46 days, 2:33:30.25","type":"ESR","status":"1","hoto":"1"},{"lat":"23.2643","lng":"77.438","name":"BHPLSBHCESR001","address":"Sap : I-MP-BHPL-ENB-V008<br\/>Loopback : 172.22.83.23<br\/>Up-Time : 46 days, 1:35:42.66","type":"ESR","status":"1","hoto":"1"},{"lat":"23.1938","lng":"77.4558","name":"BHPLGRJNESR001","address":"Sap : I-MP-BHPL-ENB-V009<br\/>Loopback : 172.22.85.119<br\/>Up-Time : 53 days, 14:58:00.11","type":"ESR","status":"1","hoto":"1"},{"lat":"23.2673","lng":"77.4156","name":"BHPLSKDRESR001","address":"Sap : I-MP-BHPL-ENB-V010<br\/>Loopback : 172.22.87.254<br\/>Up-Time : 61 days, 3:46:56.43","type":"ESR","status":"1","hoto":"1"},{"lat":"23.2705","lng":"77.4036","name":"BHPLKZCPESR001","address":"Sap : I-MP-BHPL-ENB-V012<br\/>Loopback : 172.22.88.230<br\/>Up-Time : 53 days, 0:13:20.20","type":"ESR","status":"1","hoto":"1"},{"lat":"23.2672","lng":"77.3828","name":"BHPLIGHHESR001","address":"Sap : I-MP-BHPL-ENB-V013<br\/>Loopback : 172.22.88.118<br\/>Up-Time : 46 days, 2:51:55.39","type":"ESR","status":"1","hoto":"1"},{"lat":"23.2257","lng":"77.4193","name":"BHPLUNTHESR001","address":"Sap : I-MP-BHPL-ENB-V014<br\/>Loopback : 172.22.87.71<br\/>Up-Time : 8 days, 21:35:21.73","type":"ESR","status":"1","hoto":"1"},{"lat":"23.2533","lng":"77.4037","name":"BHPLCWKTESR003","address":"Sap : I-MP-BHPL-ENB-V017<br\/>Loopback : 172.22.88.186<br\/>Up-Time : 45 days, 2:51:38.28","type":"ESR","status":"1","hoto":"1"},{"lat":"23.2115","lng":"77.4195","name":"BHPLEKTKESR001","address":"Sap : I-MP-BHPL-ENB-V018<br\/>Loopback : 172.22.87.232<br\/>Up-Time : 21 days, 16:48:43.17","type":"ESR","status":"1","hoto":"1"},{"lat":"23.2893","lng":"77.4244","name":"BHPLKLYNESR002","address":"Sap : I-MP-BHPL-ENB-V019<br\/>Loopback : 172.22.88.182<br\/>Up-Time : 18:16:28.57","type":"ESR","status":"1","hoto":"1"},{"lat":"23.236","lng":"77.3988","name":"BHPLNTTRESR001","address":"Sap : I-MP-BHPL-ENB-V020<br\/>Loopback : 172.22.87.160<br\/>Up-Time : 46 days, 2:28:03.66","type":"ESR","status":"1","hoto":"1"},{"lat":"23.2599","lng":"77.4972","name":"BHPLBHPLESR018","address":"Sap : I-MP-BHPL-ENB-V021<br\/>Loopback : 172.22.82.251<br\/>Up-Time : 46 days, 2:29:04.48","type":"ESR","status":"1","hoto":"1"},{"lat":"23.2373","lng":"77.4314","name":"BHPLIDRCESR001","address":"Sap : I-MP-BHPL-ENB-V023<br\/>Loopback : 172.22.87.22<br\/>Up-Time : 61 days, 4:55:54.86","type":"ESR","status":"1","hoto":"1"},{"lat":"23.2506","lng":"77.4153","name":"BHPLJHGRESR003","address":"Sap : I-MP-BHPL-ENB-V024<br\/>Loopback : 172.22.82.166<br\/>Up-Time : 2 days, 16:59:09.46","type":"ESR","status":"1","hoto":"1"},{"lat":"23.263","lng":"77.4041","name":"BHPLGHRNESR001","address":"Sap : I-MP-BHPL-ENB-V025<br\/>Loopback : 172.22.83.251<br\/>Up-Time : 46 days, 0:16:01.78","type":"ESR","status":"1","hoto":"1"},{"lat":"23.2565","lng":"77.4053","name":"BHPLASHHESR001","address":"Sap : I-MP-BHPL-ENB-V026<br\/>Loopback : 172.22.88.185<br\/>Up-Time : 45 days, 2:51:01.14","type":"ESR","status":"1","hoto":"1"},{"lat":"23.2677","lng":"77.34","name":"BHPLBHTAESR003","address":"Sap : I-MP-BHPL-ENB-V027<br\/>Loopback : 172.22.82.183<br\/>Up-Time : 15 days, 1:56:52.79","type":"ESR","status":"1","hoto":"1"},{"lat":"23.2682","lng":"77.431","name":"BHPLSKRNESR002","address":"Sap : I-MP-BHPL-ENB-V028<br\/>Loopback : 172.22.83.19<br\/>Up-Time : 46 days, 2:26:14.92","type":"ESR","status":"1","hoto":"1"},{"lat":"23.1978","lng":"77.4176","name":"BHPLCTPTESR001","address":"Sap : I-MP-BHPL-ENB-W001<br\/>Loopback : 172.22.88.190<br\/>Up-Time : 52 days, 3:49:15.35","type":"ESR","status":"1","hoto":"1"},{"lat":"24.7415","lng":"79.4175","name":"BIARBIARESR001","address":"Sap : I-MP-BIAR-ENB-6001<br\/>Loopback : 172.23.22.68<br\/>Up-Time : 19 days, 14:19:12.93","type":"ESR","status":"1","hoto":"1"},