var maplatlng = {"latlng":[{"lat":"19.2224","lng":"73.0805","name":"KLDMANDNESR001","address":"Sap : I-MU-KLDM-ENB-6003<br\/>Loopback : 172.22.4.28<br\/>Up-Time : 42 days, 2:18:40.82","type":"ESR","status":"1","hoto":"1"},{"lat":"19.2076","lng":"73.1058","name":"KLDMBLRMESR002","address":"Sap : I-MU-KLDM-ENB-6004<br\/>Loopback : 172.22.10.138<br\/>Up-Time : 56 days, 4:08:16.65","type":"ESR","status":"1","hoto":"1"},{"lat":"19.212","lng":"73.09","name":"KLDMPDRWESR001","address":"Sap : I-MU-KLDM-ENB-6005<br\/>Loopback : 172.22.4.145<br\/>Up-Time : 9 days, 20:41:50.05","type":"ESR","status":"1","hoto":"1"},{"lat":"19.2026","lng":"73.0999","name":"KLDMSNJNESR003","address":"Sap : I-MU-KLDM-ENB-6006<br\/>Loopback : 172.22.6.15<br\/>Up-Time : 42 days, 2:12:40.86","type":"ESR","status":"1","hoto":"1"},{"lat":"19.1589","lng":"73.0684","name":"KLDMDGHGESR001","address":"Sap : I-MU-KLDM-ENB-6011<br\/>Loopback : 172.22.4.33<br\/>Up-Time : 6 days, 13:55:48.32","type":"ESR","status":"1","hoto":"1"},{"lat":"19.2208","lng":"73.0873","name":"KLDMABKNESR001","address":"Sap : I-MU-KLDM-ENB-A047<br\/>Loopback : 172.22.7.179<br\/>Up-Time : 51 days, 4:03:19.04","type":"ESR","status":"1","hoto":"1"},{"lat":"19.2198","lng":"73.0924","name":"KLDMTMTVESR001","address":"Sap : I-MU-KLDM-ENB-G001<br\/>Loopback : 172.22.7.16<br\/>Up-Time : 14 days, 8:56:43.16","type":"ESR","status":"1","hoto":"1"},{"lat":"19.2061","lng":"73.0953","name":"KLDMRMCDESR001","address":"Sap : I-MU-KLDM-ENB-I018<br\/>Loopback : 172.22.5.96<br\/>Up-Time : 10 days, 15:08:59.98","type":"ESR","status":"1","hoto":"1"},{"lat":"19.2259","lng":"73.0868","name":"KLDMSMTRESR001","address":"Sap : I-MU-KLDM-ENB-V022<br\/>Loopback : 172.22.5.224<br\/>Up-Time : 61 days, 0:12:05.48","type":"ESR","status":"1","hoto":"1"},{"lat":"19.2485","lng":"73.1429","name":"KLYNMANPESR001","address":"Sap : I-MU-KLYN-ENB-6001<br\/>Loopback : 172.22.5.209<br\/>Up-Time : 42 days, 1:13:51.82","type":"ESR","status":"1","hoto":"1"},{"lat":"19.2475","lng":"73.1265","name":"KLYNRMABESR001","address":"Sap : I-MU-KLYN-ENB-6003<br\/>Loopback : 172.22.2.112<br\/>Up-Time : 54 days, 6:45:45.33","type":"ESR","status":"1","hoto":"1"},{"lat":"19.2499","lng":"73.1236","name":"KLYNRMABESR002","address":"Sap : I-MU-KLYN-ENB-6008<br\/>Loopback : 172.22.10.8<br\/>Up-Time : 26 days, 17:33:23.24","type":"ESR","status":"1","hoto":"1"},{"lat":"19.2499","lng":"73.1236","name":"KLYNRMABPAR001","address":"Sap : I-MU-KLYN-ENB-6008<br\/>Loopback : 172.16.55.124<br\/>Up-Time : 4 days, 0:38:39.78","type":"PAR","status":"1","hoto":"1"},{"lat":"19.2403","lng":"73.1287","name":"KLYNDUDHESR002","address":"Sap : I-MU-KLYN-ENB-6009<br\/>Loopback : 172.22.2.114<br\/>Up-Time : 27 days, 18:52:57.49","type":"ESR","status":"1","hoto":"1"},{"lat":"19.2414","lng":"73.135","name":"KLYNRMBGESR001","address":"Sap : I-MU-KLYN-ENB-6011<br\/>Loopback : 172.22.7.97<br\/>Up-Time : 41 days, 4:53:09.96","type":"ESR","status":"1","hoto":"1"},{"lat":"19.237","lng":"73.1307","name":"KLYNOKBGESR001","address":"Sap : I-MU-KLYN-ENB-6018<br\/>Loopback : 172.22.7.98<br\/>Up-Time : 41 days, 2:23:06.54","type":"ESR","status":"1","hoto":"1"},{"lat":"19.2302","lng":"73.1374","name":"KLYNSVJNESR001","address":"Sap : I-MU-KLYN-ENB-A033<br\/>Loopback : 172.22.10.103<br\/>Up-Time : 15 days, 23:42:04.61","type":"ESR","status":"1","hoto":"1"},{"lat":"19.2259","lng":"73.1412","name":"KLYNSVJCESR001","address":"Sap : I-MU-KLYN-ENB-A040<br\/>Loopback : 172.22.10.104<br\/>Up-Time : 53 days, 11:03:54.39","type":"ESR","status":"1","hoto":"1"},{"lat":"19.2229","lng":"73.1401","name":"KLYNMGROESR001","address":"Sap : I-MU-KLYN-ENB-A118<br\/>Loopback : 172.22.7.163<br\/>Up-Time : 41 days, 2:54:26.64","type":"ESR","status":"1","hoto":"1"},{"lat":"19.0541","lng":"72.8871","name":"MUMBSDCLAAR001","address":"Sap : I-MU-MUMB-AG2-0001<br\/>Loopback : 49.44.0.59<br\/>Up-Time : 69 days, 22:34:22.62","type":"AAR","status":"1","hoto":"0"},{"lat":"19.0617","lng":"72.8601","name":"MUMBBNDEAAR001","address":"Sap : I-MU-MUMB-AG2-0002<br\/>Loopback : 49.44.0.46<br\/>Up-Time : 46 days, 9:20:41.67","type":"AAR","status":"1","hoto":"0"},{"lat":"19.0188","lng":"72.833","name":"MUMBDDRWAAR001","address":"Sap : I-MU-MUMB-AG2-0003<br\/>Loopback : 49.44.0.50<br\/>Up-Time : 80 days, 20:03:46.25","type":"AAR","status":"1","hoto":"0"},{"lat":"18.9245","lng":"72.8228","name":"MUMBNRMPAAR001","address":"Sap : I-MU-MUMB-AG2-0004<br\/>Loopback : 49.44.0.55<br\/>Up-Time : 80 days, 4:04:37.00","type":"AAR","status":"1","hoto":"0"},{"lat":"18.981","lng":"72.8495","name":"MUMBSEWRAAR001","address":"Sap : I-MU-MUMB-AG2-0005<br\/>Loopback : 49.44.0.60<br\/>Up-Time : 78 days, 12:53:12.46","type":"AAR","status":"1","hoto":"0"},{"lat":"19.0611","lng":"73.0025","name":"NVMBKRBZAAR001","address":"Sap : I-MU-MUMB-AG2-0006<br\/>Loopback : 49.44.0.78<br\/>Up-Time : 75 days, 5:47:48.36","type":"AAR","status":"1","hoto":"0"},{"lat":"19.1966","lng":"72.9641","name":"THNEPCPKAAR001","address":"Sap : I-MU-MUMB-AG2-0007<br\/>Loopback : 49.44.0.79<br\/>Up-Time : 66 days, 23:04:27.60","type":"AAR","status":"1","hoto":"0"},{"lat":"19.0249","lng":"73.0906","name":"KMTEKMTEAAR001","address":"Sap : I-MU-MUMB-AG2-0008<br\/>Loopback : 49.44.3.89<br\/>Up-Time : 82 days, 19:46:01.85","type":"AAR","status":"1","hoto":"0"},{"lat":"19.0249","lng":"73.0906","name":"KMTEKMTEAMR001","address":"Sap : I-MU-MUMB-AG2-0008<br\/>Loopback : 10.198.39.64<br\/>Up-Time : ","type":"AMR","status":"1","hoto":"1"},{"lat":"19.1195","lng":"72.9244","name":"MUMBVWSNAAR001","address":"Sap : I-MU-MUMB-AG2-0009<br\/>Loopback : 49.44.0.62<br\/>Up-Time : 60 days, 22:29:00.62","type":"AAR","status":"1","hoto":"0"},{"lat":"19.2346","lng":"73.1262","name":"KLYNJSBGAAR001","address":"Sap : I-MU-MUMB-AG2-0010<br\/>Loopback : 49.44.3.88<br\/>Up-Time : 68 days, 3:59:06.24","type":"AAR","status":"1","hoto":"0"},{"lat":"19.1354","lng":"72.8116","name":"MUMBVSBWAAR001","address":"Sap : I-MU-MUMB-AG2-0011<br\/>Loopback : 49.44.0.61<br\/>Up-Time : 64 days, 5:04:33.24","type":"AAR","status":"1","hoto":"0"},{"lat":"19.1354","lng":"72.8116","name":"MUMBVSBWAMR001","address":"Sap : I-MU-MUMB-AG2-0011<br\/>Loopback : 10.198.39.68<br\/>Up-Time : ","type":"AMR","status":"1","hoto":"1"},{"lat":"18.9662","lng":"72.8124","name":"MUMBCMBHAAR001","address":"Sap : I-MU-MUMB-AG2-0012<br\/>Loopback : 49.44.0.49<br\/>Up-Time : 79 days, 17:34:00.60","type":"AAR","status":"1","hoto":"0"},{"lat":"18.9616","lng":"72.8368","name":"MUMBMNDIAAR001","address":"Sap : I-MU-MUMB-AG2-0014<br\/>Loopback : 49.44.0.52<br\/>Up-Time : 58 days, 2:34:24.65","type":"AAR","status":"1","hoto":"0"},{"lat":"18.9616","lng":"72.8368","name":"MUMBMNDIAMR001","address":"Sap : I-MU-MUMB-AG2-0014<br\/>Loopback : 10.198.39.112<br\/>Up-Time : ","type":"AMR","status":"1","hoto":"1"},{"lat":"18.9616","lng":"72.8368","name":"MUMBMNDIESR003","address":"Sap : I-MU-MUMB-AG2-0014<br\/>Loopback : 10.193.135.5<br\/>Up-Time : ","type":"ESR","status":"1","hoto":"1"},{"lat":"19.0873","lng":"72.912","name":"MUMBPNTNAAR001","address":"Sap : I-MU-MUMB-AG2-0015<br\/>Loopback : 49.44.0.56<br\/>Up-Time : 58 days, 5:04:33.35","type":"AAR","status":"1","hoto":"0"},{"lat":"19.0562","lng":"72.8336","name":"MUMBBNDWAAR001","address":"Sap : I-MU-MUMB-AG2-0016<br\/>Loopback : 49.44.0.47<br\/>Up-Time : 81 days, 19:46:04.87","type":"AAR","status":"1","hoto":"0"},{"lat":"19.0562","lng":"72.8336","name":"MUMBBNDWAMR001","address":"Sap : I-MU-MUMB-AG2-0016<br\/>Loopback : 10.198.39.80<br\/>Up-Time : ","type":"AMR","status":"1","hoto":"1"},{"lat":"19.2019","lng":"72.8587","name":"MUMBPOSRAAR001","address":"Sap : I-MU-MUMB-AG2-0017<br\/>Loopback : 49.44.0.57<br\/>Up-Time : 66 days, 4:54:37.94","type":"AAR","status":"1","hoto":"0"},{"lat":"19.2163","lng":"72.8409","name":"MUMBBVLWAAR001","address":"Sap : I-MU-MUMB-AG2-0018<br\/>Loopback : 49.44.0.48<br\/>Up-Time : 60 days, 5:04:27.61","type":"AAR","status":"1","hoto":"0"},{"lat":"19.1111","lng":"72.8634","name":"MUMBSAHRAAR001","address":"Sap : I-MU-MUMB-AG2-0019<br\/>Loopback : 49.44.0.58<br\/>Up-Time : 66 days, 4:54:50.66","type":"AAR","status":"1","hoto":"0"},{"lat":"19.1783","lng":"72.8347","name":"MUMBMTNRAAR001","address":"Sap : I-MU-MUMB-AG2-0020<br\/>Loopback : 49.44.0.54<br\/>Up-Time : 58 days, 5:04:37.67","type":"AAR","status":"1","hoto":"0"},{"lat":"19.0305","lng":"73.0214","name":"NVMBDRVEAAR001","address":"Sap : I-MU-MUMB-AG2-0021<br\/>Loopback : 49.44.0.77<br\/>Up-Time : 81 days, 9:04:44.37","type":"AAR","status":"1","hoto":"0"},{"lat":"19.0305","lng":"73.0214","name":"NVMBDRVEAMR001","address":"Sap : I-MU-MUMB-AG2-0021<br\/>Loopback : 10.198.39.100<br\/>Up-Time : ","type":"AMR","status":"1","hoto":"1"},{"lat":"19.235","lng":"72.8573","name":"MUMBMNPWAAR001","address":"Sap : I-MU-MUMB-AG2-0022<br\/>Loopback : 49.44.0.53<br\/>Up-Time : 69 days, 23:59:35.83","type":"AAR","status":"1","hoto":"0"},{"lat":"19.145","lng":"72.8547","name":"MUMBANDEAMR001","address":"Sap : I-MU-MUMB-AG2-0023<br\/>Loopback : 10.198.39.108<br\/>Up-Time : ","type":"AMR","status":"1","hoto":"1"},{"lat":"19.145","lng":"72.8547","name":"MUMBANDEAAR001","address":"Sap : I-MU-MUMB-AG2-0023<br\/>Loopback : 49.44.0.63<br\/>Up-Time : 68 days, 22:59:48.84","type":"AAR","status":"1","hoto":"0"},{"lat":"19.145","lng":"72.8547","name":"MUMBANDEESR002","address":"Sap : I-MU-MUMB-AG2-0023<br\/>Loopback : 10.193.134.197<br\/>Up-Time : ","type":"ESR","status":"1","hoto":"1"},{"lat":"19.2068","lng":"73.1559","name":"ULHSULNEAAR001","address":"Sap : I-MU-MUMB-AG2-0024<br\/>Loopback : 49.44.0.81<br\/>Up-Time : 68 days, 1:29:41.17","type":"AAR","status":"1","hoto":"0"},{"lat":"19.1649","lng":"72.9419","name":"MUMBMLNWAAR001","address":"Sap : I-MU-MUMB-AG2-0025<br\/>Loopback : 49.44.0.51<br\/>Up-Time : 65 days, 1:34:39.51","type":"AAR","status":"1","hoto":"0"},{"lat":"19.217","lng":"72.9812","name":"THNERBLIAMR001","address":"Sap : I-MU-MUMB-AG2-0026<br\/>Loopback : 10.198.39.104<br\/>Up-Time : ","type":"AMR","status":"1","hoto":"1"},{"lat":"19.217","lng":"72.9812","name":"THNERBLIAAR001","address":"Sap : I-MU-MUMB-AG2-0026<br\/>Loopback : 49.44.0.80<br\/>Up-Time : 63 days, 23:34:12.49","type":"AAR","status":"1","hoto":"0"},{"lat":"19.217","lng":"72.9812","name":"THNERBLIESR002","address":"Sap : I-MU-MUMB-AG2-0026<br\/>Loopback : 10.193.134.133<br\/>Up-Time : ","type":"ESR","status":"1","hoto":"1"},{"lat":"19.1265","lng":"73.0156","name":"NVMBRCPGAAR001","address":"Sap : I-MU-MUMB-AG3-0001<br\/>Loopback : 49.44.0.71<br\/>Up-Time : 82 days, 5:48:57.43","type":"AAR","status":"1","hoto":"0"},{"lat":"19.1265","lng":"73.0156","name":"NVMBRCPGPAR001","address":"Sap : I-MU-MUMB-AG3-0001<br\/>Loopback : 172.16.55.20<br\/>Up-Time : 38 days, 9:21:53.54","type":"PAR","status":"1","hoto":"1"},{"lat":"19.1265","lng":"73.0156","name":"NVMBRCPGPAR901","address":"Sap : I-MU-MUMB-AG3-0001<br\/>Loopback : 172.16.33.62<br\/>Up-Time : 308 days, 8:10:19.90","type":"PAR","status":"1","hoto":"1"},{"lat":"19.1265","lng":"73.0156","name":"NVMBRCPGPAR006","address":"Sap : I-MU-MUMB-AG3-0001<br\/>Loopback : 172.16.33.75<br\/>Up-Time : ","type":"PAR","status":"1","hoto":"1"},{"lat":"19.1265","lng":"73.0156","name":"NVMBRCPGPAR902","address":"Sap : I-MU-MUMB-AG3-0001<br\/>Loopback : 172.16.33.63<br\/>Up-Time : 199 days, 8:29:07.27","type":"PAR","status":"1","hoto":"1"},{"lat":"19.0867","lng":"72.8357","name":"MUMBKHIRAAR001","address":"Sap : I-MU-MUMB-AG3-0002<br\/>Loopback : 49.44.0.72<br\/>Up-Time : 83 days, 8:54:22.71","type":"AAR","status":"1","hoto":"0"},{"lat":"19.0867","lng":"72.8357","name":"MUMBKHIRPAR002","address":"Sap : I-MU-MUMB-AG3-0002<br\/>Loopback : 172.16.36.100<br\/>Up-Time : 66 days, 1:42:59.13","type":"PAR","status":"1","hoto":"1"},{"lat":"18.9527","lng":"72.8046","name":"MUMBMLBHESR002","address":"Sap : I-MU-MUMB-ENB-0011<br\/>Loopback : 172.22.11.105<br\/>Up-Time : 48 days, 0:59:00.78","type":"ESR","status":"1","hoto":"1"},{"lat":"18.9494","lng":"72.8405","name":"MUMBMASJESR002","address":"Sap : I-MU-MUMB-ENB-0035<br\/>Loopback : 172.22.9.137<br\/>Up-Time : 13 days, 13:44:29.19","type":"ESR","status":"1","hoto":"1"},{"lat":"18.9598","lng":"72.8379","name":"MUMBDONGESR001","address":"Sap : I-MU-MUMB-ENB-0038<br\/>Loopback : 172.22.5.199<br\/>Up-Time : 42 days, 3:02:48.61","type":"ESR","status":"1","hoto":"1"},{"lat":"19.0194","lng":"72.846","name":"MUMBHDNIESR001","address":"Sap : I-MU-MUMB-ENB-0052<br\/>Loopback : 172.22.6.38<br\/>Up-Time : 42 days, 1:53:56.05","type":"ESR","status":"1","hoto":"1"},{"lat":"19.0118","lng":"72.8541","name":"MUMBSHKNESR001","address":"Sap : I-MU-MUMB-ENB-0064<br\/>Loopback : 172.22.8.14<br\/>Up-Time : 15 days, 15:26:54.76","type":"ESR","status":"1","hoto":"1"},{"lat":"18.982","lng":"72.826","name":"MUMBDOBGESR001","address":"Sap : I-MU-MUMB-ENB-0110<br\/>Loopback : 172.22.8.101<br\/> ","type":"ESR","status":"0","hoto":"1"},{"lat":"18.9908","lng":"72.8303","name":"MUMBADRAESR002","address":"Sap : I-MU-MUMB-ENB-0134<br\/>Loopback : 172.22.7.187<br\/> ","type":"ESR","status":"0","hoto":"1"},{"lat":"18.9675","lng":"72.835","name":"MUMBMAZBESR001","address":"Sap : I-MU-MUMB-ENB-0142<br\/>Loopback : 172.22.7.197<br\/>Up-Time : 13 days, 12:06:47.75","type":"ESR","status":"1","hoto":"1"},{"lat":"19.0047","lng":"72.8316","name":"MUMBSDHMESR001","address":"Sap : I-MU-MUMB-ENB-0149<br\/>Loopback : 172.22.9.216<br\/>Up-Time : 37 days, 6:08:30.76","type":"ESR","status":"1","hoto":"1"},{"lat":"19.0111","lng":"72.833","name":"MUMBLKMNESR003","address":"Sap : I-MU-MUMB-ENB-0151<br\/>Loopback : 172.22.1.181<br\/>Up-Time : 56 days, 4:57:33.17","type":"ESR","status":"1","hoto":"1"},{"lat":"18.9827","lng":"72.8381","name":"MUMBGHODESR002","address":"Sap : I-MU-MUMB-ENB-0159<br\/>Loopback : 172.22.6.202<br\/> ","type":"ESR","status":"0","hoto":"1"},{"lat":"19.0079","lng":"72.8343","name":"MUMBDGHEESR001","address":"Sap : I-MU-MUMB-ENB-0165<br\/>Loopback : 172.22.9.66<br\/>Up-Time : 41 days, 3:09:42.85","type":"ESR","status":"1","hoto":"1"},{"lat":"19.0292","lng":"72.8384","name":"MUMBSVJLESR001","address":"Sap : I-MU-MUMB-ENB-0170<br\/>Loopback : 172.22.7.19<br\/>Up-Time : 41 days, 3:22:41.89","type":"ESR","status":"1","hoto":"1"},{"lat":"18.9681","lng":"72.8421","name":"MUMBMAZCESR001","address":"Sap : I-MU-MUMB-ENB-0172<br\/>Loopback : 172.22.6.244<br\/>Up-Time : 27 days, 12:33:22.04","type":"ESR","status":"1","hoto":"1"},{"lat":"18.9966","lng":"72.8409","name":"MUMBMINTESR002","address":"Sap : I-MU-MUMB-ENB-0179<br\/>Loopback : 172.22.6.200<br\/>Up-Time : 42 days, 2:54:54.20","type":"ESR","status":"1","hoto":"1"},{"lat":"19.0024","lng":"72.841","name":"MUMBPARXESR001","address":"Sap : I-MU-MUMB-ENB-0180<br\/>Loopback : 172.22.5.105<br\/>Up-Time : 42 days, 1:09:33.96","type":"ESR","status":"1","hoto":"1"},{"lat":"18.9649","lng":"72.8196","name":"MUMBBRATESR001","address":"Sap : I-MU-MUMB-ENB-0253<br\/>Loopback : 172.22.6.103<br\/>Up-Time : 42 days, 2:30:03.97","type":"ESR","status":"1","hoto":"1"},{"lat":"19.0243","lng":"72.8692","name":"MUMBWLCNESR001","address":"Sap : I-MU-MUMB-ENB-0254<br\/>Loopback : 172.22.7.100<br\/> ","type":"ESR","status":"0","hoto":"1"},{"lat":"19.0188","lng":"72.8605","name":"MUMBNTYNESR001","address":"Sap : I-MU-MUMB-ENB-0283<br\/>Loopback : 172.22.6.197<br\/>Up-Time : 42 days, 2:32:31.98","type":"ESR","status":"1","hoto":"1"},{"lat":"18.9706","lng":"72.8252","name":"MUMBRBISESR001","address":"Sap : I-MU-MUMB-ENB-0325<br\/>Loopback : 172.22.9.42<br\/>Up-Time : 41 days, 3:22:18.61","type":"ESR","status":"1","hoto":"1"},{"lat":"18.9428","lng":"72.8291","name":"MUMBNMRLESR004","address":"Sap : I-MU-MUMB-ENB-0338<br\/>Loopback : 172.22.11.77<br\/>Up-Time : 54 days, 7:02:30.13","type":"ESR","status":"1","hoto":"1"},{"lat":"18.9547","lng":"72.8304","name":"MUMBBHULESR001","address":"Sap : I-MU-MUMB-ENB-0363<br\/>Loopback : 172.22.6.138<br\/> ","type":"ESR","status":"0","hoto":"1"},{"lat":"18.968","lng":"72.8282","name":"MUMBBMCVESR001","address":"Sap : I-MU-MUMB-ENB-0370<br\/>Loopback : 172.22.11.139<br\/>Up-Time : 42 days, 17:54:00.99","type":"ESR","status":"1","hoto":"1"},{"lat":"18.9741","lng":"72.8287","name":"MUMBMUINESR001","address":"Sap : I-MU-MUMB-ENB-0378<br\/>Loopback : 172.22.9.85<br\/>Up-Time : 31 days, 13:30:03.37","type":"ESR","status":"1","hoto":"1"},{"lat":"19.0235","lng":"72.8725","name":"MUMBSANGESR001","address":"Sap : I-MU-MUMB-ENB-0395<br\/>Loopback : 172.22.6.228<br\/> ","type":"ESR","status":"0","hoto":"1"},{"lat":"19.0403","lng":"72.8532","name":"MUMBRPNVESR003","address":"Sap : I-MU-MUMB-ENB-0412<br\/>Loopback : 172.22.7.186<br\/>Up-Time : 41 days, 3:07:28.38","type":"ESR","status":"1","hoto":"1"},{"lat":"18.9473","lng":"72.7949","name":"MUMBTENBPAR001","address":"Sap : I-MU-MUMB-ENB-0470<br\/>Loopback : 172.16.33.160<br\/>Up-Time : 67 days, 18:01:34.68","type":"PAR","status":"1","hoto":"1"},{"lat":"18.9846","lng":"72.8316","name":"MUMBJACOESR001","address":"Sap : I-MU-MUMB-ENB-0549<br\/>Loopback : 172.22.6.238<br\/> ","type":"ESR","status":"0","hoto":"1"},{"lat":"19.0203","lng":"72.8409","name":"MUMBDDRTESR004","address":"Sap : I-MU-MUMB-ENB-0577<br\/>Loopback : 172.22.7.123<br\/>Up-Time : 41 days, 4:10:46.01","type":"ESR","status":"1","hoto":"1"},{"lat":"19.0583","lng":"72.9137","name":"MUMBSMANESR001","address":"Sap : I-MU-MUMB-ENB-0929<br\/>Loopback : 172.22.9.251<br\/>Up-Time : 21 days, 11:25:35.35","type":"ESR","status":"1","hoto":"1"},{"lat":"19.1737","lng":"72.8707","name":"MUMBKNYPESR001","address":"Sap : I-MU-MUMB-ENB-1001<br\/>Loopback : 172.22.8.224<br\/>Up-Time : 41 days, 4:01:23.91","type":"ESR","status":"1","hoto":"1"},{"lat":"19.1801","lng":"72.8675","name":"MUMBIDNGESR001","address":"Sap : I-MU-MUMB-ENB-1002<br\/>Loopback : 172.22.8.185<br\/> ","type":"ESR","status":"0","hoto":"1"},{"lat":"19.1914","lng":"72.8702","name":"MUMBHANEESR001","address":"Sap : I-MU-MUMB-ENB-1004<br\/>Loopback : 172.22.8.85<br\/>Up-Time : 51 days, 4:16:30.16","type":"ESR","status":"1","hoto":"1"},{"lat":"19.1095","lng":"72.8745","name":"MUMBGINDESR001","address":"Sap : I-MU-MUMB-ENB-1010<br\/>Loopback : 172.22.9.30<br\/>Up-Time : 52 days, 23:40:49.11","type":"ESR","status":"1","hoto":"1"},{"lat":"19.2369","lng":"72.863","name":"MUMBDULTESR001","address":"Sap : I-MU-MUMB-ENB-1011<br\/>Loopback : 172.22.8.153<br\/>Up-Time : 37 days, 6:25:59.99","type":"ESR","status":"1","hoto":"1"},{"lat":"19.1776","lng":"72.8123","name":"MUMBKHALPAR002","address":"Sap : I-MU-MUMB-ENB-1018<br\/>Loopback : 172.16.33.225<br\/>Up-Time : 30 days, 9:46:13.01","type":"PAR","status":"1","hoto":"1"},{"lat":"19.1789","lng":"72.8167","name":"MUMBMALWESR001","address":"Sap : I-MU-MUMB-ENB-1019<br\/>Loopback : 172.22.6.49<br\/>Up-Time : 13 days, 15:27:30.81","type":"ESR","status":"1","hoto":"1"},{"lat":"19.1821","lng":"72.8197","name":"MUMBMALWESR003","address":"Sap : I-MU-MUMB-ENB-1020<br\/>Loopback : 172.22.8.170<br\/>Up-Time : 41 days, 4:49:03.67","type":"ESR","status":"1","hoto":"1"},{"lat":"19.1375","lng":"72.8719","name":"MUMBEKTAESR001","address":"Sap : I-MU-MUMB-ENB-1036<br\/>Loopback : 172.22.3.169<br\/>Up-Time : 23 days, 16:00:19.06","type":"ESR","status":"1","hoto":"1"},{"lat":"19.2197","lng":"72.7831","name":"MUMBKLWAESR001","address":"Sap : I-MU-MUMB-ENB-1041<br\/>Loopback : 172.22.5.250<br\/>Up-Time : 29 days, 16:46:08.51","type":"ESR","status":"1","hoto":"1"},{"lat":"19.229","lng":"72.808","name":"MUMBUTNTESR002","address":"Sap : I-MU-MUMB-ENB-1042<br\/>Loopback : 172.22.9.91<br\/>Up-Time : 34 days, 10:53:06.32","type":"ESR","status":"1","hoto":"1"},{"lat":"19.2677","lng":"72.796","name":"MIBHUTNTESR003","address":"Sap : I-MU-MUMB-ENB-1044<br\/>Loopback : 172.22.5.167<br\/> ","type":"ESR","status":"0","hoto":"1"},{"lat":"19.2901","lng":"72.8064","name":"MIBHUTNTESR004","address":"Sap : I-MU-MUMB-ENB-1045<br\/>Loopback : 172.22.10.201<br\/>Up-Time : 56 days, 4:15:13.46","type":"ESR","status":"1","hoto":"1"},{"lat":"19.1112","lng":"72.8767","name":"MUMBSIFCESR001","address":"Sap : I-MU-MUMB-ENB-1046<br\/>Loopback : 172.22.9.135<br\/>Up-Time : 47 days, 13:07:44.26","type":"ESR","status":"1","hoto":"1"},{"lat":"19.1022","lng":"72.8809","name":"MUMBADESESR001","address":"Sap : I-MU-MUMB-ENB-1088<br\/>Loopback : 172.22.7.4<br\/> ","type":"ESR","status":"0","hoto":"1"},{"lat":"19.0586","lng":"72.8362","name":"MUMBSNTNESR004","address":"Sap : I-MU-MUMB-ENB-1093<br\/>Loopback : 172.22.9.176<br\/>Up-Time : 21 days, 17:33:08.24","type":"ESR","status":"1","hoto":"1"},{"lat":"19.0671","lng":"72.8428","name":"MUMBNIMRESR001","address":"Sap : I-MU-MUMB-ENB-1105<br\/>Loopback : 172.22.10.219<br\/> ","type":"ESR","status":"0","hoto":"1"},{"lat":"19.113","lng":"72.8779","name":"MUMBSHIUESR001","address":"Sap : I-MU-MUMB-ENB-1110<br\/>Loopback : 172.22.3.91<br\/>Up-Time : 42 days, 1:26:24.34","type":"ESR","status":"1","hoto":"1"},{"lat":"19.1226","lng":"72.8783","name":"MUMBSEEZESR001","address":"Sap : I-MU-MUMB-ENB-1113<br\/>Loopback : 172.22.3.108<br\/>Up-Time : 37 days, 19:45:19.95","type":"ESR","status":"1","hoto":"1"},{"lat":"19.1421","lng":"72.8295","name":"MUMBMHDCESR004","address":"Sap : I-MU-MUMB-ENB-1126<br\/>Loopback : 172.22.8.150<br\/>Up-Time : 52 days, 14:12:54.38","type":"ESR","status":"1","hoto":"1"},{"lat":"19.0629","lng":"72.8425","name":"MUMBKHERESR001","address":"Sap : I-MU-MUMB-ENB-1171<br\/>Loopback : 172.22.6.113<br\/> ","type":"ESR","status":"0","hoto":"1"},{"lat":"19.0552","lng":"72.8508","name":"MUMBBNESESR001","address":"Sap : I-MU-MUMB-ENB-1173<br\/>Loopback : 172.22.9.94<br\/>Up-Time : 41 days, 2:49:06.61","type":"ESR","status":"1","hoto":"1"},{"lat":"19.0689","lng":"72.8477","name":"MUMBTEACESR001","address":"Sap : I-MU-MUMB-ENB-1177<br\/>Loopback : 172.22.6.67<br\/>Up-Time : 46 days, 10:20:22.07","type":"ESR","status":"1","hoto":"1"},{"lat":"19.0745","lng":"72.8482","name":"MUMBSANLESR001","address":"Sap : I-MU-MUMB-ENB-1178<br\/>Loopback : 172.22.5.234<br\/>Up-Time : 48 days, 12:18:29.63","type":"ESR","status":"1","hoto":"1"},{"lat":"19.078","lng":"72.8493","name":"MUMBSANLESR002","address":"Sap : I-MU-MUMB-ENB-1179<br\/>Loopback : 172.22.9.207<br\/>Up-Time : 9 days, 14:31:12.73","type":"ESR","status":"1","hoto":"1"},{"lat":"19.0606","lng":"72.8525","name":"MUMBGANBESR001","address":"Sap : I-MU-MUMB-ENB-1181<br\/>Loopback : 172.22.4.46<br\/>Up-Time : 51 days, 4:28:41.54","type":"ESR","status":"1","hoto":"1"},{"lat":"19.1671","lng":"72.8384","name":"MUMBGRGPPAR001","address":"Sap : I-MU-MUMB-ENB-1213<br\/>Loopback : 172.16.33.148<br\/>Up-Time : 58 days, 4:02:25.44","type":"PAR","status":"1","hoto":"1"},{"lat":"19.1617","lng":"72.8373","name":"MUMBSSTGESR002","address":"Sap : I-MU-MUMB-ENB-1222<br\/>Loopback : 172.22.5.247<br\/>Up-Time : 61 days, 0:13:02.64","type":"ESR","status":"1","hoto":"1"},{"lat":"19.181","lng":"72.842","name":"MUMBBNDRESR001","address":"Sap : I-MU-MUMB-ENB-1228<br\/>Loopback : 172.22.5.231<br\/>Up-Time : 42 days, 14:52:32.36","type":"ESR","status":"1","hoto":"1"},{"lat":"19.1354","lng":"72.8117","name":"MUMBVSBWESR003","address":"Sap : I-MU-MUMB-ENB-1233<br\/>Loopback : 172.22.10.221<br\/> ","type":"ESR","status":"0","hoto":"1"},{"lat":"19.1093","lng":"72.8257","name":"MUMBJHTRPAR001","address":"Sap : I-MU-MUMB-ENB-1244<br\/>Loopback : 172.16.33.199<br\/>Up-Time : 3 days, 10:25:41.90","type":"PAR","status":"1","hoto":"1"},{"lat":"19.1246","lng":"72.8254","name":"MUMBFRBGESR001","address":"Sap : I-MU-MUMB-ENB-1246<br\/>Loopback : 172.22.3.76<br\/> ","type":"ESR","status":"0","hoto":"1"},{"lat":"19.1342","lng":"72.8253","name":"MUMBSVPAESR001","address":"Sap : I-MU-MUMB-ENB-1250<br\/>Loopback : 172.22.7.142<br\/>Up-Time : 47 days, 13:44:44.98","type":"ESR","status":"1","hoto":"1"},{"lat":"19.1328","lng":"72.828","name":"MUMBSRSNESR001","address":"Sap : I-MU-MUMB-ENB-1263<br\/>Loopback : 172.22.7.130<br\/> ","type":"ESR","status":"0","hoto":"1"},{"lat":"19.0902","lng":"72.8343","name":"MUMBRIZVESR001","address":"Sap : I-MU-MUMB-ENB-1268<br\/>Loopback : 172.22.11.154<br\/>Up-Time : 18 days, 18:17:38.97","type":"ESR","status":"1","hoto":"1"},{"lat":"19.1306","lng":"72.8333","name":"MUMBAZANESR001","address":"Sap : I-MU-MUMB-ENB-1276<br\/>Loopback : 172.22.10.145<br\/> ","type":"ESR","status":"0","hoto":"1"},{"lat":"19.0844","lng":"72.8367","name":"MUMBHSMKESR001","address":"Sap : I-MU-MUMB-ENB-1280<br\/>Loopback : 172.22.7.236<br\/>Up-Time : 73 days, 17:06:30.73","type":"ESR","status":"1","hoto":"1"},{"lat":"19.1461","lng":"72.8438","name":"MUMBVSIJESR002","address":"Sap : I-MU-MUMB-ENB-1282<br\/>Loopback : 172.22.3.184<br\/>Up-Time : 42 days, 3:10:56.02","type":"ESR","status":"1","hoto":"1"},{"lat":"19.1331","lng":"72.8391","name":"MUMBJGSRESR001","address":"Sap : I-MU-MUMB-ENB-1292<br\/>Loopback : 172.22.7.168<br\/> ","type":"ESR","status":"0","hoto":"1"},{"lat":"19.1395","lng":"72.8408","name":"MUMBKHANESR001","address":"Sap : I-MU-MUMB-ENB-1302<br\/>Loopback : 172.22.5.123<br\/>Up-Time : 48 days, 0:09:52.45","type":"ESR","status":"1","hoto":"1"},{"lat":"19.1954","lng":"72.8437","name":"MUMBGURSESR001","address":"Sap : I-MU-MUMB-ENB-1303<br\/>Loopback : 172.22.6.214<br\/>Up-Time : 16 days, 11:29:00.82","type":"ESR","status":"1","hoto":"1"},{"lat":"19.0483","lng":"72.8258","name":"MUMBBNDWESR002","address":"Sap : I-MU-MUMB-ENB-1315<br\/>Loopback : 172.22.9.240<br\/>Up-Time : 41 days, 3:34:21.68","type":"ESR","status":"1","hoto":"1"},{"lat":"19.1927","lng":"72.8509","name":"MUMBMVLKESR001","address":"Sap : I-MU-MUMB-ENB-1318<br\/>Loopback : 172.22.3.33<br\/>Up-Time : 26 days, 13:14:15.60","type":"ESR","status":"1","hoto":"1"},{"lat":"19.1736","lng":"72.8517","name":"MUMBDNDPESR001","address":"Sap : I-MU-MUMB-ENB-1327<br\/>Loopback : 172.22.7.110<br\/>Up-Time : 14 days, 15:16:42.92","type":"ESR","status":"1","hoto":"1"},{"lat":"19.1612","lng":"72.8573","name":"MUMBSRYSESR001","address":"Sap : I-MU-MUMB-ENB-1337<br\/>Loopback : 172.22.8.32<br\/>Up-Time : 39 days, 2:38:46.92","type":"ESR","status":"1","hoto":"1"},{"lat":"19.0928","lng":"72.8445","name":"MUMBVILAPAR002","address":"Sap : I-MU-MUMB-ENB-1356<br\/>Loopback : 172.16.33.215<br\/>Up-Time : 10 days, 14:59:00.34","type":"PAR","status":"1","hoto":"1"},{"lat":"19.1966","lng":"72.8077","name":"MUMBBHAYESR001","address":"Sap : I-MU-MUMB-ENB-1362<br\/>Loopback : 172.22.5.232<br\/>Up-Time : 27 days, 14:52:58.84","type":"ESR","status":"1","hoto":"1"},{"lat":"19.1969","lng":"72.8158","name":"MUMBGANJESR004","address":"Sap : I-MU-MUMB-ENB-1365<br\/>Loopback : 172.22.6.114<br\/>Up-Time : 34 days, 12:59:40.21","type":"ESR","status":"1","hoto":"1"},{"lat":"19.2016","lng":"72.8257","name":"MUMBGANJESR001","address":"Sap : I-MU-MUMB-ENB-1374<br\/>Loopback : 172.22.6.69<br\/>Up-Time : 41 days, 4:31:07.99","type":"ESR","status":"1","hoto":"1"},{"lat":"19.2303","lng":"72.8264","name":"MUMBGORBESR001","address":"Sap : I-MU-MUMB-ENB-1379<br\/>Loopback : 172.22.10.111<br\/>Up-Time : 60 days, 23:57:05.42","type":"ESR","status":"1","hoto":"1"},{"lat":"19.1986","lng":"72.8286","name":"MUMBGNDHESR001","address":"Sap : I-MU-MUMB-ENB-1382<br\/>Loopback : 172.22.5.11<br\/>Up-Time : 61 days, 0:50:44.81","type":"ESR","status":"1","hoto":"1"},{"lat":"19.2267","lng":"72.8283","name":"MUMBBRVEESR001","address":"Sap : I-MU-MUMB-ENB-1389<br\/>Loopback : 172.22.10.113<br\/>Up-Time : 26 days, 16:55:12.17","type":"ESR","status":"1","hoto":"1"},{"lat":"19.1133","lng":"72.8445","name":"MUMBAZDNESR001","address":"Sap : I-MU-MUMB-ENB-1394<br\/>Loopback : 172.22.8.5<br\/>Up-Time : 33 days, 13:10:48.88","type":"ESR","status":"1","hoto":"1"},{"lat":"19.2241","lng":"72.8339","name":"MUMBKDVGESR001","address":"Sap : I-MU-MUMB-ENB-1403<br\/>Loopback : 172.22.3.66<br\/>Up-Time : 61 days, 0:58:15.10","type":"ESR","status":"1","hoto":"1"},{"lat":"19.2349","lng":"72.8373","name":"MUMBUTNTESR003","address":"Sap : I-MU-MUMB-ENB-1414<br\/>Loopback : 172.22.7.101<br\/>Up-Time : 41 days, 4:33:32.06","type":"ESR","status":"1","hoto":"1"},{"lat":"19.2062","lng":"72.8467","name":"MUMBMOSIESR001","address":"Sap : I-MU-MUMB-ENB-1426<br\/>Loopback : 172.22.8.6<br\/>Up-Time : 51 days, 4:15:37.29","type":"ESR","status":"1","hoto":"1"},{"lat":"19.2294","lng":"72.8494","name":"MUMBMHATESR001","address":"Sap : I-MU-MUMB-ENB-1444<br\/>Loopback : 172.22.11.55<br\/>Up-Time : 54 days, 6:50:56.28","type":"ESR","status":"1","hoto":"1"},{"lat":"19.1415","lng":"72.8427","name":"MUMBSATRESR001","address":"Sap : I-MU-MUMB-ENB-1458<br\/>Loopback : 172.22.5.133<br\/>Up-Time : 9 days, 17:34:00.02","type":"ESR","status":"1","hoto":"1"},{"lat":"19.2221","lng":"72.8565","name":"MUMBJJWNESR001","address":"Sap : I-MU-MUMB-ENB-1464<br\/>Loopback : 172.22.5.204<br\/>Up-Time : 42 days, 1:15:27.75","type":"ESR","status":"1","hoto":"1"},{"lat":"19.2822","lng":"72.8577","name":"MIBHNAYAESR001","address":"Sap : I-MU-MUMB-ENB-1501<br\/>Loopback : 172.22.10.11<br\/>Up-Time : 56 days, 4:54:02.81","type":"ESR","status":"1","hoto":"1"},{"lat":"19.2921","lng":"72.8556","name":"MIBHPJANESR003","address":"Sap : I-MU-MUMB-ENB-1504<br\/>Loopback : 172.22.9.64<br\/>Up-Time : 52 days, 23:38:02.42","type":"ESR","status":"1","hoto":"1"},{"lat":"19.2624","lng":"72.8615","name":"MUMBSHAKESR001","address":"Sap : I-MU-MUMB-ENB-1506<br\/>Loopback : 172.22.5.189<br\/>Up-Time : 61 days, 0:10:59.23","type":"ESR","status":"1","hoto":"1"},{"lat":"19.2815","lng":"72.8643","name":"MIBHSHNEESR001","address":"Sap : I-MU-MUMB-ENB-1507<br\/>Loopback : 172.22.9.83<br\/>Up-Time : 41 days, 2:59:18.25","type":"ESR","status":"1","hoto":"1"},{"lat":"19.2852","lng":"72.8648","name":"MIBHSHNKESR001","address":"Sap : I-MU-MUMB-ENB-1508<br\/>Loopback : 172.22.10.110<br\/>Up-Time : 56 days, 0:54:45.94","type":"ESR","status":"1","hoto":"1"},{"lat":"19.2755","lng":"72.8643","name":"MIBHMRBIESR001","address":"Sap : I-MU-MUMB-ENB-1513<br\/>Loopback : 172.22.10.168<br\/>Up-Time : 56 days, 4:16:46.36","type":"ESR","status":"1","hoto":"1"},{"lat":"19.276","lng":"72.8572","name":"MIBHMIREESR002","address":"Sap : I-MU-MUMB-ENB-1514<br\/>Loopback : 172.22.10.191<br\/>Up-Time : 56 days, 0:47:20.05","type":"ESR","status":"1","hoto":"1"},{"lat":"19.2852","lng":"72.8648","name":"MIBHEVSNESR001","address":"Sap : I-MU-MUMB-ENB-1516<br\/>Loopback : 172.22.10.108<br\/>Up-Time : 61 days, 1:52:30.06","type":"ESR","status":"1","hoto":"1"},{"lat":"19.2852","lng":"72.8648","name":"MIBHPANOESR003","address":"Sap : I-MU-MUMB-ENB-1518<br\/>Loopback : 172.22.1.120<br\/>Up-Time : 49 days, 21:38:11.94","type":"ESR","status":"1","hoto":"1"},{"lat":"19.2726","lng":"72.8651","name":"MIBHMIREESR001","address":"Sap : I-MU-MUMB-ENB-1523<br\/>Loopback : 172.22.10.17<br\/>Up-Time : 56 days, 0:54:12.91","type":"ESR","status":"1","hoto":"1"},{"lat":"19.2943","lng":"72.8684","name":"MIBHBRPKESR002","address":"Sap : I-MU-MUMB-ENB-1528<br\/>Loopback : 172.22.10.2<br\/>Up-Time : 13 days, 16:46:28.63","type":"ESR","status":"1","hoto":"1"},{"lat":"19.2656","lng":"72.8716","name":"MIBHPENKESR002","address":"Sap : I-MU-MUMB-ENB-1531<br\/>Loopback : 172.22.10.246<br\/>Up-Time : 56 days, 0:47:08.98","type":"ESR","status":"1","hoto":"1"},{"lat":"19.1258","lng":"72.8458","name":"MUMBANDWESR002","address":"Sap : I-MU-MUMB-ENB-1538<br\/>Loopback : 172.22.6.11<br\/> ","type":"ESR","status":"0","hoto":"1"},{"lat":"19.2729","lng":"72.8777","name":"MIBHMIRBESR001","address":"Sap : I-MU-MUMB-ENB-1541<br\/>Loopback : 172.22.2.247<br\/>Up-Time : 42 days, 1:35:33.00","type":"ESR","status":"1","hoto":"1"},{"lat":"19.2725","lng":"72.8817","name":"MIBHAGANESR001","address":"Sap : I-MU-MUMB-ENB-1545<br\/>Loopback : 172.22.10.190<br\/>Up-Time : 56 days, 4:15:26.76","type":"ESR","status":"1","hoto":"1"},{"lat":"19.2761","lng":"72.884","name":"MIBHKSMRESR004","address":"Sap : I-MU-MUMB-ENB-1546<br\/>Loopback : 172.22.7.178<br\/>Up-Time : 41 days, 3:17:43.60","type":"ESR","status":"1","hoto":"1"},{"lat":"19.2796","lng":"72.8802","name":"MIBHKSMRESR003","address":"Sap : I-MU-MUMB-ENB-1547<br\/>Loopback : 172.22.10.225<br\/>Up-Time : 56 days, 3:10:12.59","type":"ESR","status":"1","hoto":"1"},{"lat":"19.2835","lng":"72.8811","name":"MIBHKSMRESR001","address":"Sap : I-MU-MUMB-ENB-1548<br\/>Loopback : 172.22.2.241<br\/>Up-Time : 56 days, 12:32:13.40","type":"ESR","status":"1","hoto":"1"},{"lat":"19.2729","lng":"72.8916","name":"MIBHLAXCESR001","address":"Sap : I-MU-MUMB-ENB-1556<br\/>Loopback : 172.22.2.249<br\/>Up-Time : 21 days, 7:07:36.68","type":"ESR","status":"1","hoto":"1"},{"lat":"19.2997","lng":"72.848","name":"MIBHPDMAESR002","address":"Sap : I-MU-MUMB-ENB-1560<br\/>Loopback : 172.22.10.187<br\/>Up-Time : 56 days, 4:06:23.31","type":"ESR","status":"1","hoto":"1"},{"lat":"19.3021","lng":"72.8477","name":"MIBHCHAFESR001","address":"Sap : I-MU-MUMB-ENB-1561<br\/>Loopback : 172.22.10.158<br\/>Up-Time : 51 days, 14:06:54.27","type":"ESR","status":"1","hoto":"1"},{"lat":"19.2961","lng":"72.8554","name":"MIBHLDHAESR001","address":"Sap : I-MU-MUMB-ENB-1569<br\/>Loopback : 172.22.1.90<br\/>Up-Time : 56 days, 4:54:53.60","type":"ESR","status":"1","hoto":"1"},{"lat":"19.306","lng":"72.8557","name":"MIBHVENKESR001","address":"Sap : I-MU-MUMB-ENB-1573<br\/>Loopback : 172.22.10.239<br\/>Up-Time : 61 days, 1:48:45.83","type":"ESR","status":"1","hoto":"1"},{"lat":"19.3111","lng":"72.8546","name":"MIBHBDNGESR001","address":"Sap : I-MU-MUMB-ENB-1574<br\/>Loopback : 172.22.8.16<br\/>Up-Time : 41 days, 3:19:12.68","type":"ESR","status":"1","hoto":"1"},{"lat":"19.3023","lng":"72.8648","name":"MIBHPANOESR004","address":"Sap : I-MU-MUMB-ENB-1578<br\/>Loopback : 172.22.10.19<br\/>Up-Time : 56 days, 4:14:07.17","type":"ESR","status":"1","hoto":"1"},{"lat":"19.3091","lng":"72.8605","name":"MIBHNAVGESR001","address":"Sap : I-MU-MUMB-ENB-1580<br\/>Loopback : 172.22.10.197<br\/>Up-Time : 56 days, 4:13:08.52","type":"ESR","status":"1","hoto":"1"},{"lat":"19.292","lng":"72.8776","name":"MIBHBSEBESR001","address":"Sap : I-MU-MUMB-ENB-1589<br\/>Loopback : 172.22.2.130<br\/>Up-Time : 38 days, 8:33:09.22","type":"ESR","status":"1","hoto":"1"},{"lat":"19.1098","lng":"72.8518","name":"MUMBNSBNESR001","address":"Sap : I-MU-MUMB-ENB-1591<br\/>Loopback : 172.22.10.3<br\/>Up-Time : 46 days, 11:39:15.49","type":"ESR","status":"1","hoto":"1"},{"lat":"19.1095","lng":"72.8627","name":"MUMBSAHRESR001","address":"Sap : I-MU-MUMB-ENB-1616<br\/>Loopback : 172.22.10.243<br\/>Up-Time : 40 days, 5:19:21.57","type":"ESR","status":"1","hoto":"1"},{"lat":"19.1297","lng":"72.8625","name":"MUMBSRPJESR001","address":"Sap : I-MU-MUMB-ENB-1621<br\/>Loopback : 172.22.3.158<br\/>Up-Time : 42 days, 3:06:04.77","type":"ESR","status":"1","hoto":"1"},{"lat":"19.122","lng":"72.8662","name":"MUMBMAROESR001","address":"Sap : I-MU-MUMB-ENB-1642<br\/>Loopback : 172.22.7.124<br\/> ","type":"ESR","status":"0","hoto":"1"},{"lat":"19.1499","lng":"72.844","name":"MUMBVSIJESR003","address":"Sap : I-MU-MUMB-ENB-1655<br\/>Loopback : 172.22.7.203<br\/>Up-Time : 13:22:21.64","type":"ESR","status":"1","hoto":"1"},{"lat":"19.1344","lng":"72.8651","name":"MUMBSHAMESR001","address":"Sap : I-MU-MUMB-ENB-1662<br\/>Loopback : 172.22.3.161<br\/> ","type":"ESR","status":"0","hoto":"1"},{"lat":"19.1912","lng":"72.8569","name":"MUMBKURAESR001","address":"Sap : I-MU-MUMB-ENB-1663<br\/>Loopback : 172.22.3.31<br\/>Up-Time : 42 days, 1:59:48.85","type":"ESR","status":"1","hoto":"1"},{"lat":"19.2765","lng":"72.797","name":"MIBHUTNTESR001","address":"Sap : I-MU-MUMB-ENB-1683<br\/>Loopback : 172.22.1.73<br\/> ","type":"ESR","status":"0","hoto":"1"},{"lat":"19.2985","lng":"72.8288","name":"MIBHMERDESR001","address":"Sap : I-MU-MUMB-ENB-1686<br\/>Loopback : 172.22.1.72<br\/>Up-Time : 13 days, 13:07:54.43","type":"ESR","status":"1","hoto":"1"},{"lat":"19.137","lng":"72.8682","name":"MUMBSHAMESR003","address":"Sap : I-MU-MUMB-ENB-1690<br\/>Loopback : 172.22.3.168<br\/>Up-Time : 61 days, 0:17:42.52","type":"ESR","status":"1","hoto":"1"},{"lat":"19.211","lng":"72.8426","name":"MUMBMVRNESR001","address":"Sap : I-MU-MUMB-ENB-1697<br\/>Loopback : 172.22.7.165<br\/>Up-Time : 41 days, 2:53:20.94","type":"ESR","status":"1","hoto":"1"},{"lat":"19.1462","lng":"72.8301","name":"MUMBMHDCESR002","address":"Sap : I-MU-MUMB-ENB-1702<br\/>Loopback : 172.22.8.148<br\/>Up-Time : 19 days, 15:34:52.23","type":"ESR","status":"1","hoto":"1"},{"lat":"19.2235","lng":"72.8601","name":"MUMBRAEJESR001","address":"Sap : I-MU-MUMB-ENB-1706<br\/>Loopback : 172.22.6.53<br\/>Up-Time : 42 days, 2:42:10.93","type":"ESR","status":"1","hoto":"1"},{"lat":"19.2798","lng":"72.8684","name":"MIBHMRDAESR002","address":"Sap : I-MU-MUMB-ENB-1721<br\/>Loopback : 172.22.10.171<br\/>Up-Time : 61 days, 1:46:30.84","type":"ESR","status":"1","hoto":"1"},{"lat":"19.1427","lng":"72.8406","name":"MUMBSATRESR002","address":"Sap : I-MU-MUMB-ENB-1742<br\/>Loopback : 172.22.5.147<br\/>Up-Time : 61 days, 7:02:55.05","type":"ESR","status":"1","hoto":"1"},{"lat":"19.1348","lng":"72.8607","name":"MUMBSHAMESR004","address":"Sap : I-MU-MUMB-ENB-1749<br\/>Loopback : 172.22.3.166<br\/> ","type":"ESR","status":"0","hoto":"1"},{"lat":"19.2089","lng":"72.8727","name":"MUMBDTNPPAR002","address":"Sap : I-MU-MUMB-ENB-1754<br\/>Loopback : 172.16.33.204<br\/>Up-Time : 72 days, 1:22:34.81","type":"PAR","status":"1","hoto":"1"},{"lat":"19.1203","lng":"72.8817","name":"MUMBMROLESR002","address":"Sap : I-MU-MUMB-ENB-1765<br\/>Loopback : 172.22.3.99<br\/>Up-Time : 41 days, 15:33:36.31","type":"ESR","status":"1","hoto":"1"},{"lat":"19.1142","lng":"72.8799","name":"MUMBBMNPESR002","address":"Sap : I-MU-MUMB-ENB-1772<br\/>Loopback : 172.22.8.37<br\/>Up-Time : 3 days, 12:36:40.99","type":"ESR","status":"1","hoto":"1"},{"lat":"19.1334","lng":"72.866","name":"MUMBSHAMESR002","address":"Sap : I-MU-MUMB-ENB-1785<br\/>Loopback : 172.22.3.162<br\/> ","type":"ESR","status":"0","hoto":"1"},{"lat":"19.141","lng":"72.8083","name":"MUMBJSPNESR001","address":"Sap : I-MU-MUMB-ENB-1788<br\/>Loopback : 172.22.9.177<br\/> ","type":"ESR","status":"0","hoto":"1"},{"lat":"19.0589","lng":"72.823","name":"MUMBBNDWESR003","address":"Sap : I-MU-MUMB-ENB-1797<br\/>Loopback : 172.22.6.123<br\/>Up-Time : 42 days, 1:34:12.73","type":"ESR","status":"1","hoto":"1"},{"lat":"19.0674","lng":"72.8375","name":"MUMBAMBHESR001","address":"Sap : I-MU-MUMB-ENB-1810<br\/>Loopback : 172.22.10.214<br\/> ","type":"ESR","status":"0","hoto":"1"},{"lat":"19.1099","lng":"72.8314","name":"MUMBJUHAESR001","address":"Sap : I-MU-MUMB-ENB-1818<br\/>Loopback : 172.22.10.218<br\/> ","type":"ESR","status":"0","hoto":"1"},{"lat":"19.1099","lng":"72.8314","name":"MUMBJUHAPAR002","address":"Sap : I-MU-MUMB-ENB-1818<br\/>Loopback : 172.16.33.205<br\/>Up-Time : 24 days, 12:16:31.64","type":"PAR","status":"1","hoto":"1"},{"lat":"19.1222","lng":"72.8394","name":"MUMBGLBTPAR001","address":"Sap : I-MU-MUMB-ENB-1825<br\/>Loopback : 172.16.33.197<br\/>Up-Time : 37 days, 11:01:56.79","type":"PAR","status":"1","hoto":"1"},{"lat":"19.1298","lng":"72.8418","name":"MUMBMHLNESR001","address":"Sap : I-MU-MUMB-ENB-1829<br\/>Loopback : 172.22.5.171<br\/> ","type":"ESR","status":"0","hoto":"1"},{"lat":"19.1389","lng":"72.8138","name":"MUMBVSBWESR002","address":"Sap : I-MU-MUMB-ENB-1833<br\/>Loopback : 172.22.10.224<br\/> ","type":"ESR","status":"0","hoto":"1"},{"lat":"19.0661","lng":"72.8647","name":"MUMBAMBJESR002","address":"Sap : I-MU-MUMB-ENB-1840<br\/>Loopback : 172.22.1.32<br\/>Up-Time : 56 days, 4:59:15.03","type":"ESR","status":"1","hoto":"1"},{"lat":"19.1818","lng":"72.8595","name":"MUMBPTNWESR001","address":"Sap : I-MU-MUMB-ENB-1878<br\/>Loopback : 172.22.5.124<br\/>Up-Time : 11 days, 14:29:37.82","type":"ESR","status":"1","hoto":"1"},{"lat":"19.184","lng":"72.8572","name":"MUMBMKRNESR001","address":"Sap : I-MU-MUMB-ENB-1892<br\/>Loopback : 172.22.3.43<br\/>Up-Time : 26 days, 17:12:46.16","type":"ESR","status":"1","hoto":"1"},{"lat":"19.1951","lng":"72.8479","name":"MUMBBHANESR001","address":"Sap : I-MU-MUMB-ENB-1915<br\/>Loopback : 172.22.3.202<br\/>Up-Time : 20 days, 11:55:38.63","type":"ESR","status":"1","hoto":"1"},{"lat":"19.2511","lng":"72.8632","name":"MUMBMRTCESR003","address":"Sap : I-MU-MUMB-ENB-1946<br\/>Loopback : 172.22.6.21<br\/>Up-Time : 51 days, 4:21:21.38","type":"ESR","status":"1","hoto":"1"},{"lat":"19.2064","lng":"72.8192","name":"MUMBGANJESR002","address":"Sap : I-MU-MUMB-ENB-1958<br\/>Loopback : 172.22.7.42<br\/>Up-Time : 30 days, 15:08:17.58","type":"ESR","status":"1","hoto":"1"},{"lat":"19.2009","lng":"72.8399","name":"MUMBDMNCESR001","address":"Sap : I-MU-MUMB-ENB-1986<br\/>Loopback : 172.22.3.62<br\/>Up-Time : 42 days, 1:44:02.17","type":"ESR","status":"1","hoto":"1"},{"lat":"19.0713","lng":"72.9054","name":"MUMBPESTESR002","address":"Sap : I-MU-MUMB-ENB-2005<br\/>Loopback : 172.22.8.7<br\/>Up-Time : 41 days, 4:57:32.48","type":"ESR","status":"1","hoto":"1"},{"lat":"19.0663","lng":"72.9201","name":"MUMBLOUTESR001","address":"Sap : I-MU-MUMB-ENB-2009<br\/>Loopback : 172.22.3.10<br\/>Up-Time : 51 days, 4:31:26.49","type":"ESR","status":"1","hoto":"1"},{"lat":"19.0591","lng":"72.9271","name":"MUMBKAMLESR001","address":"Sap : I-MU-MUMB-ENB-2012<br\/>Loopback : 172.22.3.17<br\/>Up-Time : 16 days, 8:57:19.05","type":"ESR","status":"1","hoto":"1"},{"lat":"19.0532","lng":"72.9329","name":"MUMBMOHIESR004","address":"Sap : I-MU-MUMB-ENB-2014<br\/>Loopback : 172.22.11.12<br\/> ","type":"ESR","status":"0","hoto":"1"},{"lat":"19.0651","lng":"72.9296","name":"MUMBSHAQESR001","address":"Sap : I-MU-MUMB-ENB-2016<br\/>Loopback : 172.22.3.15<br\/>Up-Time : 17 days, 12:14:30.79","type":"ESR","status":"1","hoto":"1"},{"lat":"19.055","lng":"72.9377","name":"MUMBEATKESR001","address":"Sap : I-MU-MUMB-ENB-2018<br\/>Loopback : 172.22.3.8<br\/> ","type":"ESR","status":"0","hoto":"1"},{"lat":"19.167","lng":"72.9314","name":"MUMBNGMNESR001","address":"Sap : I-MU-MUMB-ENB-2051<br\/>Loopback : 172.22.6.3<br\/>Up-Time : 42 days, 2:53:16.88","type":"ESR","status":"1","hoto":"1"},{"lat":"19.2005","lng":"72.9435","name":"THNERMNRESR001","address":"Sap : I-MU-MUMB-ENB-2052<br\/>Loopback : 172.22.5.196<br\/> ","type":"ESR","status":"0","hoto":"1"},{"lat":"19.1126","lng":"72.9","name":"MUMBCNDWESR001","address":"Sap : I-MU-MUMB-ENB-2060<br\/>Loopback : 172.22.7.202<br\/>Up-Time : 28 days, 13:08:05.26","type":"ESR","status":"1","hoto":"1"},{"lat":"19.1164","lng":"72.9105","name":"MUMBANDLESR007","address":"Sap : I-MU-MUMB-ENB-2072<br\/>Loopback : 172.22.11.101<br\/>Up-Time : 49 days, 12:54:24.60","type":"ESR","status":"1","hoto":"1"},{"lat":"19.18","lng":"72.9487","name":"MUMBMLDWESR001","address":"Sap : I-MU-MUMB-ENB-2088<br\/>Loopback : 172.22.5.182<br\/>Up-Time : 42 days, 2:27:32.20","type":"ESR","status":"1","hoto":"1"},{"lat":"19.1795","lng":"72.9559","name":"MUMBSDRTESR001","address":"Sap : I-MU-MUMB-ENB-2095<br\/>Loopback : 172.22.6.171<br\/>Up-Time : 42 days, 12:19:54.86","type":"ESR","status":"1","hoto":"1"},{"lat":"19.1917","lng":"72.9624","name":"THNELUSWESR003","address":"Sap : I-MU-MUMB-ENB-2112<br\/>Loopback : 172.22.5.140<br\/>Up-Time : 42 days, 1:50:07.71","type":"ESR","status":"1","hoto":"1"},{"lat":"19.1879","lng":"72.9663","name":"THNEPCPKESR003","address":"Sap : I-MU-MUMB-ENB-2115<br\/>Loopback : 172.22.5.86<br\/>Up-Time : 7 days, 12:07:23.49","type":"ESR","status":"1","hoto":"1"},{"lat":"19.1904","lng":"72.9675","name":"THNEPCPKESR004","address":"Sap : I-MU-MUMB-ENB-2121<br\/>Loopback : 172.22.5.87<br\/>Up-Time : 41 days, 13:50:15.22","type":"ESR","status":"1","hoto":"1"},{"lat":"19.192","lng":"72.9778","name":"THNETNWAESR002","address":"Sap : I-MU-MUMB-ENB-2134<br\/>Loopback : 172.22.8.1<br\/>Up-Time : 27 days, 13:03:37.24","type":"ESR","status":"1","hoto":"1"},{"lat":"19.1141","lng":"72.8893","name":"MUMBPOVCESR004","address":"Sap : I-MU-MUMB-ENB-2140<br\/>Loopback : 172.22.7.102<br\/>Up-Time : 41 days, 4:21:10.33","type":"ESR","status":"1","hoto":"1"},{"lat":"19.1945","lng":"72.9827","name":"THNETNWAPAR001","address":"Sap : I-MU-MUMB-ENB-2141<br\/>Loopback : 172.16.33.150<br\/>Up-Time : 12 days, 14:31:11.87","type":"PAR","status":"1","hoto":"1"},{"lat":"19.2481","lng":"72.9798","name":"THNEMANUESR003","address":"Sap : I-MU-MUMB-ENB-2166<br\/>Loopback : 172.22.5.116<br\/>Up-Time : 42 days, 2:27:23.37","type":"ESR","status":"1","hoto":"1"},{"lat":"19.2512","lng":"72.9775","name":"THNEARLDESR001","address":"Sap : I-MU-MUMB-ENB-2167<br\/>Loopback : 172.22.7.60<br\/>Up-Time : 41 days, 2:49:02.08","type":"ESR","status":"1","hoto":"1"},{"lat":"19.1071","lng":"72.903","name":"MUMBCNDWESR002","address":"Sap : I-MU-MUMB-ENB-2182<br\/>Loopback : 172.22.6.147<br\/>Up-Time : 41 days, 23:57:10.53","type":"ESR","status":"1","hoto":"1"},{"lat":"19.0744","lng":"72.8726","name":"MUMBKPDAESR001","address":"Sap : I-MU-MUMB-ENB-2187<br\/>Loopback : 172.22.5.68<br\/>Up-Time : 40 days, 4:52:36.12","type":"ESR","status":"1","hoto":"1"},{"lat":"19.0619","lng":"72.8773","name":"MUMBQUREESR001","address":"Sap : I-MU-MUMB-ENB-2190<br\/>Loopback : 172.22.8.198<br\/> ","type":"ESR","status":"0","hoto":"1"},{"lat":"19.064","lng":"72.881","name":"MUMBNERUESR001","address":"Sap : I-MU-MUMB-ENB-2198<br\/>Loopback : 172.22.8.105<br\/> ","type":"ESR","status":"0","hoto":"1"},{"lat":"19.0781","lng":"72.8832","name":"MUMBFRNDESR002","address":"Sap : I-MU-MUMB-ENB-2212<br\/>Loopback : 172.22.9.114<br\/>Up-Time : 8 days, 2:38:47.18","type":"ESR","status":"1","hoto":"1"},{"lat":"19.0442","lng":"72.8916","name":"MUMBCLTRESR001","address":"Sap : I-MU-MUMB-ENB-2219<br\/>Loopback : 172.22.1.169<br\/>Up-Time : 27 days, 22:43:29.13","type":"ESR","status":"1","hoto":"1"},{"lat":"19.0588","lng":"72.8891","name":"MUMBSHARESR001","address":"Sap : I-MU-MUMB-ENB-2222<br\/>Loopback : 172.22.9.5<br\/>Up-Time : 41 days, 4:20:28.52","type":"ESR","status":"1","hoto":"1"},{"lat":"19.0619","lng":"72.886","name":"MUMBKAMGESR001","address":"Sap : I-MU-MUMB-ENB-2223<br\/>Loopback : 172.22.8.75<br\/>Up-Time : 41 days, 5:08:19.64","type":"ESR","status":"1","hoto":"1"},{"lat":"19.0434","lng":"72.8952","name":"MUMBFRZTESR001","address":"Sap : I-MU-MUMB-ENB-2233<br\/>Loopback : 172.22.1.170<br\/>Up-Time : 56 days, 0:47:44.77","type":"ESR","status":"1","hoto":"1"},{"lat":"19.0591","lng":"72.8973","name":"MUMBSSHTESR001","address":"Sap : I-MU-MUMB-ENB-2249<br\/>Loopback : 172.22.6.130<br\/>Up-Time : 52 days, 23:53:31.65","type":"ESR","status":"1","hoto":"1"},{"lat":"19.0904","lng":"72.9042","name":"MUMBBANRESR001","address":"Sap : I-MU-MUMB-ENB-2282<br\/>Loopback : 172.22.3.126<br\/>Up-Time : 37 days, 15:28:59.95","type":"ESR","status":"1","hoto":"1"},{"lat":"19.0875","lng":"72.9076","name":"MUMBGTKWESR001","address":"Sap : I-MU-MUMB-ENB-2291<br\/>Loopback : 172.22.3.155<br\/>Up-Time : 36 days, 9:19:54.48","type":"ESR","status":"1","hoto":"1"},{"lat":"19.0515","lng":"72.9181","name":"MUMBDEOMESR001","address":"Sap : I-MU-MUMB-ENB-2304<br\/>Loopback : 172.22.11.15<br\/>Up-Time : 56 days, 3:22:38.82","type":"ESR","status":"1","hoto":"1"},{"lat":"19.0496","lng":"72.9175","name":"MUMBDEOMESR004","address":"Sap : I-MU-MUMB-ENB-2344<br\/>Loopback : 172.22.11.195<br\/>Up-Time : 13:50:05.60","type":"ESR","status":"1","hoto":"1"},{"lat":"19.1323","lng":"72.8955","name":"MUMBARMCESR003","address":"Sap : I-MU-MUMB-ENB-2355<br\/>Loopback : 172.22.9.159<br\/>Up-Time : 51 days, 4:08:16.05","type":"ESR","status":"1","hoto":"1"},{"lat":"19.1542","lng":"72.9344","name":"MUMBKSNRESR001","address":"Sap : I-MU-MUMB-ENB-2382<br\/>Loopback : 172.22.6.6<br\/>Up-Time : 8 days, 11:58:42.71","type":"ESR","status":"1","hoto":"1"},{"lat":"19.158","lng":"72.9308","name":"MUMBKSNRESR002","address":"Sap : I-MU-MUMB-ENB-2383<br\/>Loopback : 172.22.5.14<br\/>Up-Time : 33 days, 20:39:09.73","type":"ESR","status":"1","hoto":"1"},{"lat":"19.1536","lng":"72.9418","name":"MUMBBDPIESR001","address":"Sap : I-MU-MUMB-ENB-2396<br\/>Loopback : 172.22.5.103<br\/>Up-Time : 42 days, 1:07:11.66","type":"ESR","status":"1","hoto":"1"},{"lat":"19.1595","lng":"72.9436","name":"MUMBBDPIESR002","address":"Sap : I-MU-MUMB-ENB-2398<br\/>Loopback : 172.22.6.105<br\/>Up-Time : 18 days, 16:34:15.13","type":"ESR","status":"1","hoto":"1"},{"lat":"19.1469","lng":"72.948","name":"MUMBADRGESR001","address":"Sap : I-MU-MUMB-ENB-2408<br\/>Loopback : 172.22.8.188<br\/>Up-Time : 41 days, 4:44:18.53","type":"ESR","status":"1","hoto":"1"},{"lat":"19.1693","lng":"72.9569","name":"MUMBDTTUESR001","address":"Sap : I-MU-MUMB-ENB-2418<br\/>Loopback : 172.22.5.90<br\/>Up-Time : 42 days, 2:36:19.11","type":"ESR","status":"1","hoto":"1"},{"lat":"19.1751","lng":"72.9573","name":"MUMBJLTFESR001","address":"Sap : I-MU-MUMB-ENB-2426<br\/>Loopback : 172.22.5.238<br\/>Up-Time : 40 days, 16:35:00.86","type":"ESR","status":"1","hoto":"1"},{"lat":"19.1399","lng":"73.0062","name":"NVMBDGHBESR003","address":"Sap : I-MU-MUMB-ENB-2431<br\/>Loopback : 172.22.4.81<br\/>Up-Time : 35 days, 18:29:38.66","type":"ESR","status":"1","hoto":"1"},{"lat":"19.1772","lng":"72.9714","name":"THNEDMJPPAR001","address":"Sap : I-MU-MUMB-ENB-2436<br\/>Loopback : 172.16.33.151<br\/>Up-Time : 27 days, 12:06:38.90","type":"PAR","status":"1","hoto":"1"},{"lat":"19.1933","lng":"72.9516","name":"THNEKSANESR001","address":"Sap : I-MU-MUMB-ENB-2444<br\/>Loopback : 172.22.6.57<br\/> ","type":"ESR","status":"0","hoto":"1"},{"lat":"19.1931","lng":"72.9569","name":"THNELUSWESR004","address":"Sap : I-MU-MUMB-ENB-2445<br\/>Loopback : 172.22.7.5<br\/>Up-Time : 41 days, 3:53:30.96","type":"ESR","status":"1","hoto":"1"},{"lat":"19.1994","lng":"72.9511","name":"THNEJYBVESR002","address":"Sap : I-MU-MUMB-ENB-2451<br\/>Loopback : 172.22.6.247<br\/> ","type":"ESR","status":"0","hoto":"1"},{"lat":"19.2109","lng":"72.9497","name":"THNEYSODESR003","address":"Sap : I-MU-MUMB-ENB-2453<br\/>Loopback : 172.22.5.134<br\/> ","type":"ESR","status":"0","hoto":"1"},{"lat":"19.2083","lng":"72.9551","name":"THNEPTLNESR001","address":"Sap : I-MU-MUMB-ENB-2462<br\/>Loopback : 172.22.6.26<br\/> ","type":"ESR","status":"0","hoto":"1"},{"lat":"19.2228","lng":"72.9614","name":"THNEMHDAESR003","address":"Sap : I-MU-MUMB-ENB-2471<br\/>Loopback : 172.22.8.186<br\/>Up-Time : 41 days, 4:51:12.89","type":"ESR","status":"1","hoto":"1"},{"lat":"19.2185","lng":"72.9749","name":"THNEGNDNESR001","address":"Sap : I-MU-MUMB-ENB-2488<br\/>Loopback : 172.22.8.158<br\/>Up-Time : 41 days, 5:08:05.04","type":"ESR","status":"1","hoto":"1"},{"lat":"19.2068","lng":"72.9771","name":"THNEPNSLESR001","address":"Sap : I-MU-MUMB-ENB-2492<br\/>Loopback : 172.22.6.65<br\/>Up-Time : 42 days, 2:23:03.40","type":"ESR","status":"1","hoto":"1"},{"lat":"19.2115","lng":"72.977","name":"THNEGKLNESR002","address":"Sap : I-MU-MUMB-ENB-2493<br\/>Loopback : 172.22.7.147<br\/>Up-Time : 18 days, 12:51:26.03","type":"ESR","status":"1","hoto":"1"},{"lat":"19.2266","lng":"72.9774","name":"THNEMANHESR001","address":"Sap : I-MU-MUMB-ENB-2496<br\/>Loopback : 172.22.3.253<br\/>Up-Time : 26 days, 17:52:22.66","type":"ESR","status":"1","hoto":"1"},{"lat":"19.2038","lng":"72.9815","name":"THNERAONESR001","address":"Sap : I-MU-MUMB-ENB-2497<br\/>Loopback : 172.22.5.216<br\/>Up-Time : 42 days, 1:43:18.60","type":"ESR","status":"1","hoto":"1"},{"lat":"19.2128","lng":"72.9824","name":"THNESAITESR001","address":"Sap : I-MU-MUMB-ENB-2500<br\/>Loopback : 172.22.6.191<br\/>Up-Time : 42 days, 2:30:04.87","type":"ESR","status":"1","hoto":"1"},{"lat":"19.2223","lng":"72.9828","name":"THNEBSCAESR001","address":"Sap : I-MU-MUMB-ENB-2502<br\/>Loopback : 172.22.8.84<br\/>Up-Time : 41 days, 5:09:03.99","type":"ESR","status":"1","hoto":"1"},{"lat":"19.2026","lng":"72.9841","name":"THNERAONESR002","address":"Sap : I-MU-MUMB-ENB-2503<br\/>Loopback : 172.22.5.197<br\/>Up-Time : 42 days, 3:01:50.39","type":"ESR","status":"1","hoto":"1"},{"lat":"19.2161","lng":"72.9899","name":"THNEBLKMESR001","address":"Sap : I-MU-MUMB-ENB-2509<br\/>Loopback : 172.22.5.183<br\/>Up-Time : 42 days, 2:27:31.76","type":"ESR","status":"1","hoto":"1"},{"lat":"19.2413","lng":"72.9702","name":"THNEPTLPESR001","address":"Sap : I-MU-MUMB-ENB-2520<br\/>Loopback : 172.22.3.251<br\/>Up-Time : 42 days, 1:31:37.70","type":"ESR","status":"1","hoto":"1"},{"lat":"19.1963","lng":"72.9575","name":"THNELUSWESR001","address":"Sap : I-MU-MUMB-ENB-2522<br\/>Loopback : 172.22.10.212<br\/>Up-Time : 11 days, 7:01:55.14","type":"ESR","status":"1","hoto":"1"},{"lat":"19.0141","lng":"72.887","name":"MUMBAMBAESR001","address":"Sap : I-MU-MUMB-ENB-2529<br\/>Loopback : 172.22.1.168<br\/> ","type":"ESR","status":"0","hoto":"1"},{"lat":"19.0092","lng":"72.8994","name":"MUMBGOWNESR001","address":"Sap : I-MU-MUMB-ENB-2532<br\/>Loopback : 172.22.7.241<br\/>Up-Time : 51 days, 4:15:16.07","type":"ESR","status":"1","hoto":"1"},{"lat":"19.0639","lng":"72.9222","name":"MUMBPHASESR001","address":"Sap : I-MU-MUMB-ENB-2537<br\/>Loopback : 172.22.3.11<br\/>Up-Time : 42 days, 2:17:40.55","type":"ESR","status":"1","hoto":"1"},{"lat":"19.2444","lng":"72.9828","name":"THNEMANUESR001","address":"Sap : I-MU-MUMB-ENB-2541<br\/>Loopback : 172.22.2.225<br\/>Up-Time : 42 days, 3:26:28.38","type":"ESR","status":"1","hoto":"1"},{"lat":"19.1009","lng":"72.8904","name":"MUMBLOMKESR001","address":"Sap : I-MU-MUMB-ENB-2549<br\/>Loopback : 172.22.3.112<br\/>Up-Time : 15:17:46.02","type":"ESR","status":"1","hoto":"1"},{"lat":"19.1971","lng":"72.9439","name":"THNEWGLIESR002","address":"Sap : I-MU-MUMB-ENB-2550<br\/>Loopback : 172.22.6.40<br\/> ","type":"ESR","status":"0","hoto":"1"},{"lat":"19.0505","lng":"72.9271","name":"MUMBANSAESR001","address":"Sap : I-MU-MUMB-ENB-2557<br\/>Loopback : 172.22.3.20<br\/> ","type":"ESR","status":"0","hoto":"1"},{"lat":"19.1531","lng":"72.8882","name":"MUMBARMCESR004","address":"Sap : I-MU-MUMB-ENB-2558<br\/>Loopback : 172.22.6.189<br\/>Up-Time : 42 days, 1:50:16.75","type":"ESR","status":"1","hoto":"1"},{"lat":"19.1205","lng":"72.9092","name":"MUMBPCHKESR001","address":"Sap : I-MU-MUMB-ENB-2567<br\/>Loopback : 172.22.8.98<br\/>Up-Time : 41 days, 4:48:37.37","type":"ESR","status":"1","hoto":"1"},{"lat":"19.2602","lng":"72.9714","name":"THNEMANBPAR001","address":"Sap : I-MU-MUMB-ENB-2591<br\/>Loopback : 172.16.33.113<br\/>Up-Time : 65 days, 18:39:01.21","type":"PAR","status":"1","hoto":"1"},{"lat":"19.1187","lng":"72.9131","name":"MUMBANDLESR005","address":"Sap : I-MU-MUMB-ENB-2598<br\/>Loopback : 172.22.9.86<br\/>Up-Time : 41 days, 3:00:16.87","type":"ESR","status":"1","hoto":"1"},{"lat":"19.1169","lng":"72.9037","name":"MUMBMHAOESR001","address":"Sap : I-MU-MUMB-ENB-2608<br\/>Loopback : 172.22.9.22<br\/>Up-Time : 41 days, 4:16:45.55","type":"ESR","status":"1","hoto":"1"},{"lat":"19.1104","lng":"72.9031","name":"MUMBCNDWESR003","address":"Sap : I-MU-MUMB-ENB-2612<br\/>Loopback : 172.22.6.90<br\/>Up-Time : 41 days, 5:16:36.83","type":"ESR","status":"1","hoto":"1"},{"lat":"19.1049","lng":"72.9017","name":"MUMBANDLESR001","address":"Sap : I-MU-MUMB-ENB-2613<br\/>Loopback : 172.22.6.149<br\/>Up-Time : 21 days, 18:05:24.96","type":"ESR","status":"1","hoto":"1"},{"lat":"19.0616","lng":"72.9154","name":"MUMBIDIOESR002","address":"Sap : I-MU-MUMB-ENB-2632<br\/>Loopback : 172.22.7.151<br\/>Up-Time : 1 day, 14:15:42.13","type":"ESR","status":"1","hoto":"1"},{"lat":"19.0773","lng":"72.9009","name":"MUMBRJWDESR001","address":"Sap : I-MU-MUMB-ENB-2636<br\/>Loopback : 172.22.8.61<br\/>Up-Time : 41 days, 2:45:12.79","type":"ESR","status":"1","hoto":"1"},{"lat":"19.0511","lng":"72.9307","name":"MUMBANSAESR003","address":"Sap : I-MU-MUMB-ENB-2704<br\/>Loopback : 172.22.5.195<br\/> ","type":"ESR","status":"0","hoto":"1"},{"lat":"19.0535","lng":"72.9279","name":"MUMBANSAESR002","address":"Sap : I-MU-MUMB-ENB-2705<br\/>Loopback : 172.22.3.21<br\/> ","type":"ESR","status":"0","hoto":"1"},{"lat":"19.0523","lng":"72.9153","name":"MUMBDEOMESR002","address":"Sap : I-MU-MUMB-ENB-2706<br\/>Loopback : 172.22.10.99<br\/>Up-Time : 58 days, 15:23:26.22","type":"ESR","status":"1","hoto":"1"},{"lat":"19.081","lng":"72.9119","name":"MUMBRLPCESR001","address":"Sap : I-MU-MUMB-ENB-2710<br\/>Loopback : 172.22.6.180<br\/>Up-Time : 34 days, 10:28:45.24","type":"ESR","status":"1","hoto":"1"},{"lat":"19.1595","lng":"72.8884","name":"MUMBARMCESR002","address":"Sap : I-MU-MUMB-ENB-2714<br\/>Loopback : 172.22.7.22<br\/>Up-Time : 41 days, 3:38:02.36","type":"ESR","status":"1","hoto":"1"},{"lat":"19.0527","lng":"72.875","name":"MUMBSAMCESR002","address":"Sap : I-MU-MUMB-ENB-2715<br\/>Loopback : 172.22.6.24<br\/> ","type":"ESR","status":"0","hoto":"1"},{"lat":"19.1062","lng":"72.8947","name":"MUMBCNDWESR005","address":"Sap : I-MU-MUMB-ENB-2735<br\/>Loopback : 172.22.7.103<br\/>Up-Time : 20 days, 14:23:18.13","type":"ESR","status":"1","hoto":"1"},{"lat":"19.1101","lng":"72.9256","name":"MUMBVKRLESR001","address":"Sap : I-MU-MUMB-ENB-2738<br\/>Loopback : 172.22.9.206<br\/>Up-Time : 18 days, 17:25:39.12","type":"ESR","status":"1","hoto":"1"},{"lat":"19.0542","lng":"72.8865","name":"MUMBSDCLESR002","address":"Sap : I-MU-MUMB-ENB-2750<br\/>Loopback : 172.22.5.126<br\/>Up-Time : 42 days, 2:14:43.40","type":"ESR","status":"1","hoto":"1"},{"lat":"19.0163","lng":"73.0974","name":"KMTEKMTTESR001","address":"Sap : I-MU-MUMB-ENB-3003<br\/>Loopback : 172.22.2.53<br\/>Up-Time : 42 days, 2:01:05.69","type":"ESR","status":"1","hoto":"1"},{"lat":"19.0238","lng":"73.0953","name":"KMTEKMTCESR001","address":"Sap : I-MU-MUMB-ENB-3005<br\/>Loopback : 172.22.2.56<br\/>Up-Time : 42 days, 1:58:28.21","type":"ESR","status":"1","hoto":"1"},{"lat":"19.2308","lng":"73.0798","name":"KLDMUMESESR001","address":"Sap : I-MU-MUMB-ENB-3009<br\/>Loopback : 172.22.4.23<br\/>Up-Time : 53 days, 0:09:01.07","type":"ESR","status":"1","hoto":"1"},{"lat":"19.0143","lng":"73.1044","name":"PNVLNUPAESR001","address":"Sap : I-MU-MUMB-ENB-3015<br\/>Loopback : 172.22.1.104<br\/>Up-Time : 1 day, 15:36:22.41","type":"ESR","status":"1","hoto":"1"},{"lat":"19.0214","lng":"73.1055","name":"PNVLKLBAESR001","address":"Sap : I-MU-MUMB-ENB-3018<br\/>Loopback : 172.22.6.250<br\/>Up-Time : 42 days, 1:23:48.52","type":"ESR","status":"1","hoto":"1"},{"lat":"18.9991","lng":"73.1123","name":"PNVLKHABESR001","address":"Sap : I-MU-MUMB-ENB-3027<br\/>Loopback : 172.22.6.102<br\/>Up-Time : 42 days, 2:36:33.23","type":"ESR","status":"1","hoto":"1"},{"lat":"19.0131","lng":"73.1124","name":"PNVLPNWEESR001","address":"Sap : I-MU-MUMB-ENB-3031<br\/>Loopback : 172.22.7.119<br\/>Up-Time : 17 days, 16:12:24.78","type":"ESR","status":"1","hoto":"1"},{"lat":"19.0065","lng":"73.1171","name":"PNVLPNEAESR001","address":"Sap : I-MU-MUMB-ENB-3034<br\/>Loopback : 172.22.7.133<br\/>Up-Time : 41 days, 4:04:34.67","type":"ESR","status":"1","hoto":"1"},{"lat":"19.01","lng":"73.1178","name":"PNVLPLEFESR001","address":"Sap : I-MU-MUMB-ENB-3035<br\/>Loopback : 172.22.7.108<br\/>Up-Time : 13 days, 11:12:39.35","type":"ESR","status":"1","hoto":"1"},{"lat":"18.9874","lng":"73.12","name":"PNVLFRSTESR001","address":"Sap : I-MU-MUMB-ENB-3042<br\/>Loopback : 172.22.7.143<br\/>Up-Time : 41 days, 3:53:12.27","type":"ESR","status":"1","hoto":"1"},{"lat":"18.9942","lng":"73.1333","name":"PNVLGTGBESR001","address":"Sap : I-MU-MUMB-ENB-3050<br\/>Loopback : 172.22.6.99<br\/>Up-Time : 41 days, 5:17:25.32","type":"ESR","status":"1","hoto":"1"},{"lat":"19.0377","lng":"73.1001","name":"PNVLKLBNESR001","address":"Sap : I-MU-MUMB-ENB-3061<br\/>Loopback : 172.22.2.43<br\/>Up-Time : 1 day, 22:18:40.20","type":"ESR","status":"1","hoto":"1"},{"lat":"18.9182","lng":"72.9719","name":"PNVLJNTPESR001","address":"Sap : I-MU-MUMB-ENB-3063<br\/>Loopback : 172.22.7.47<br\/>Up-Time : 4 days, 19:26:32.74","type":"ESR","status":"1","hoto":"1"},{"lat":"18.927","lng":"73.0204","name":"PNVLJASAESR001","address":"Sap : I-MU-MUMB-ENB-3065<br\/>Loopback : 172.22.7.38<br\/>Up-Time : 51 days, 4:21:23.06","type":"ESR","status":"1","hoto":"1"},{"lat":"18.9672","lng":"73.0183","name":"PNVLKRKPESR004","address":"Sap : I-MU-MUMB-ENB-3066<br\/>Loopback : 172.22.11.13<br\/>Up-Time : 7 days, 0:01:54.33","type":"ESR","status":"1","hoto":"1"},{"lat":"19.257","lng":"73.1341","name":"KLYNVYLNESR001","address":"Sap : I-MU-MUMB-ENB-3067<br\/>Loopback : 172.22.7.90<br\/>Up-Time : 23 days, 15:06:36.63","type":"ESR","status":"1","hoto":"1"},{"lat":"19.0231","lng":"73.1211","name":"PNVLNVDEESR001","address":"Sap : I-MU-MUMB-ENB-3070<br\/>Loopback : 172.22.6.101<br\/>Up-Time : 10 days, 11:46:24.50","type":"ESR","status":"1","hoto":"1"},{"lat":"19.07","lng":"73.076","name":"NVMBKGCEESR001","address":"Sap : I-MU-MUMB-ENB-3071<br\/>Loopback : 172.22.2.78<br\/>Up-Time : 39 days, 3:28:22.96","type":"ESR","status":"1","hoto":"1"},{"lat":"19.0903","lng":"73.0771","name":"KLDMMBKGESR001","address":"Sap : I-MU-MUMB-ENB-3074<br\/>Loopback : 172.22.4.44<br\/>Up-Time : 42 days, 0:12:01.39","type":"ESR","status":"1","hoto":"1"},{"lat":"19.1873","lng":"73.0429","name":"THNEDIVAESR003","address":"Sap : I-MU-MUMB-ENB-3077<br\/>Loopback : 172.22.8.10<br\/>Up-Time : 41 days, 3:17:34.38","type":"ESR","status":"1","hoto":"1"},{"lat":"19.1897","lng":"73.0549","name":"THNEDTVLESR001","address":"Sap : I-MU-MUMB-ENB-3083<br\/>Loopback : 172.22.5.194<br\/>Up-Time : 17 days, 6:13:21.29","type":"ESR","status":"1","hoto":"1"},{"lat":"19.1804","lng":"73.0881","name":"KLDMBOPRESR001","address":"Sap : I-MU-MUMB-ENB-3085<br\/>Loopback : 172.22.4.39<br\/>Up-Time : 25 days, 11:22:35.20","type":"ESR","status":"1","hoto":"1"},{"lat":"19.1948","lng":"73.0864","name":"KLDMDSLEESR001","address":"Sap : I-MU-MUMB-ENB-3087<br\/>Loopback : 172.22.4.147<br\/>Up-Time : 50 days, 13:14:08.26","type":"ESR","status":"1","hoto":"1"},{"lat":"19.2005","lng":"73.0985","name":"KLDMSNJNESR002","address":"Sap : I-MU-MUMB-ENB-3092<br\/>Loopback : 172.22.5.110<br\/>Up-Time : 42 days, 2:24:14.61","type":"ESR","status":"1","hoto":"1"},{"lat":"19.1185","lng":"73.0578","name":"KLDMDAHIESR001","address":"Sap : I-MU-MUMB-ENB-3109<br\/>Loopback : 172.22.4.42<br\/>Up-Time : 26 days, 12:23:48.46","type":"ESR","status":"1","hoto":"1"},{"lat":"19.2067","lng":"73.0863","name":"KLDMSNLNESR001","address":"Sap : I-MU-MUMB-ENB-3110<br\/>Loopback : 172.22.4.144<br\/>Up-Time : 3 days, 9:52:35.17","type":"ESR","status":"1","hoto":"1"},{"lat":"19.2138","lng":"73.1316","name":"KLYNNDVLESR001","address":"Sap : I-MU-MUMB-ENB-3111<br\/>Loopback : 172.22.1.23<br\/>Up-Time : 3 days, 14:31:05.90","type":"ESR","status":"1","hoto":"1"},{"lat":"19.2278","lng":"73.1335","name":"KLYNJMHNESR001","address":"Sap : I-MU-MUMB-ENB-3113<br\/>Loopback : 172.22.6.235<br\/>Up-Time : 42 days, 1:07:13.56","type":"ESR","status":"1","hoto":"1"},{"lat":"19.2226","lng":"73.143","name":"KLYNSVJCESR003","address":"Sap : I-MU-MUMB-ENB-3116<br\/>Loopback : 172.22.6.91<br\/>Up-Time : 41 days, 5:16:16.01","type":"ESR","status":"1","hoto":"1"},{"lat":"19.2537","lng":"73.1339","name":"KLYNVYLNESR002","address":"Sap : I-MU-MUMB-ENB-3131<br\/>Loopback : 172.22.6.100<br\/>Up-Time : 42 days, 2:29:14.35","type":"ESR","status":"1","hoto":"1"},{"lat":"19.1691","lng":"73.026","name":"THNEMUBRESR004","address":"Sap : I-MU-MUMB-ENB-3137<br\/>Loopback : 172.22.5.155<br\/>Up-Time : 13 days, 22:56:55.82","type":"ESR","status":"1","hoto":"1"},{"lat":"19.0423","lng":"73.0144","name":"NVMBNRLFESR002","address":"Sap : I-MU-MUMB-ENB-3150<br\/>Loopback : 172.22.10.231<br\/>Up-Time : 56 days, 2:26:06.44","type":"ESR","status":"1","hoto":"1"},{"lat":"19.0574","lng":"73.0158","name":"NVMBSAJHESR001","address":"Sap : I-MU-MUMB-ENB-3155<br\/>Loopback : 172.22.4.101<br\/>Up-Time : 42 days, 2:41:57.33","type":"ESR","status":"1","hoto":"1"},{"lat":"19.1476","lng":"72.9932","name":"NVMBARLGESR001","address":"Sap : I-MU-MUMB-ENB-3156<br\/>Loopback : 172.22.5.18<br\/>Up-Time : 52 days, 6:01:42.41","type":"ESR","status":"1","hoto":"1"},{"lat":"19.1627","lng":"72.9932","name":"NVMBARLTESR001","address":"Sap : I-MU-MUMB-ENB-3160<br\/>Loopback : 172.22.10.217<br\/>Up-Time : 3 days, 14:31:10.49","type":"ESR","status":"1","hoto":"1"},{"lat":"19.12","lng":"73.0004","name":"NVMBGNSGESR001","address":"Sap : I-MU-MUMB-ENB-3170<br\/>Loopback : 172.22.4.15<br\/>Up-Time : 42 days, 2:43:19.01","type":"ESR","status":"1","hoto":"1"},{"lat":"19.1466","lng":"73.002","name":"NVMBDGHBESR002","address":"Sap : I-MU-MUMB-ENB-3175<br\/>Loopback : 172.22.4.64<br\/>Up-Time : 11 days, 18:52:16.56","type":"ESR","status":"1","hoto":"1"},{"lat":"19.1698","lng":"72.9997","name":"NVMBRMLNESR001","address":"Sap : I-MU-MUMB-ENB-3180<br\/>Loopback : 172.22.7.104<br\/>Up-Time : 49 days, 15:44:26.70","type":"ESR","status":"1","hoto":"1"},{"lat":"19.1845","lng":"72.9979","name":"NVMBBLNGESR001","address":"Sap : I-MU-MUMB-ENB-3182<br\/>Loopback : 172.22.7.132<br\/>Up-Time : 19 days, 14:08:41.44","type":"ESR","status":"1","hoto":"1"},{"lat":"19.0826","lng":"73.0114","name":"NVMBVSSAESR001","address":"Sap : I-MU-MUMB-ENB-3188<br\/>Loopback : 172.22.4.94<br\/>Up-Time : 48 days, 0:12:43.81","type":"ESR","status":"1","hoto":"1"},{"lat":"19.1838","lng":"73.0494","name":"THNEDIVAESR004","address":"Sap : I-MU-MUMB-ENB-3192<br\/>Loopback : 172.22.2.13<br\/>Up-Time : 3 days, 0:05:29.04","type":"ESR","status":"1","hoto":"1"},{"lat":"19.1079","lng":"72.9997","name":"NVMBKPRTESR002","address":"Sap : I-MU-MUMB-ENB-3193<br\/>Loopback : 172.22.8.41<br\/>Up-Time : 41 days, 2:58:31.56","type":"ESR","status":"1","hoto":"1"},{"lat":"19.0933","lng":"73.0136","name":"NVMBKPRKESR001","address":"Sap : I-MU-MUMB-ENB-3196<br\/>Loopback : 172.22.4.77<br\/>Up-Time : 42 days, 1:32:31.78","type":"ESR","status":"1","hoto":"1"},{"lat":"19.2568","lng":"73.1383","name":"KLYNVYLNESR003","address":"Sap : I-MU-MUMB-ENB-3209<br\/>Loopback : 172.22.8.154<br\/>Up-Time : 8 days, 22:26:46.75","type":"ESR","status":"1","hoto":"1"},{"lat":"19.1425","lng":"73.013","name":"NVMBDGHBESR007","address":"Sap : I-MU-MUMB-ENB-3211<br\/>Loopback : 172.22.9.247<br\/>Up-Time : 38 days, 11:56:29.42","type":"ESR","status":"1","hoto":"1"},{"lat":"19.0619","lng":"73.0268","name":"NVMBTURBESR004","address":"Sap : I-MU-MUMB-ENB-3212<br\/>Loopback : 172.22.4.99<br\/>Up-Time : 42 days, 1:10:02.33","type":"ESR","status":"1","hoto":"1"},{"lat":"19.0768","lng":"73.0278","name":"NVMBBOFAESR002","address":"Sap : I-MU-MUMB-ENB-3218<br\/>Loopback : 172.22.4.91<br\/> ","type":"ESR","status":"0","hoto":"1"},{"lat":"19.0158","lng":"73.0123","name":"NVMBKRVVESR001","address":"Sap : I-MU-MUMB-ENB-3229<br\/>Loopback : 172.22.8.92<br\/>Up-Time : 41 days, 4:44:29.91","type":"ESR","status":"1","hoto":"1"},{"lat":"19.0101","lng":"73.0373","name":"NVMBCBDSESR001","address":"Sap : I-MU-MUMB-ENB-3245<br\/>Loopback : 172.22.9.71<br\/>Up-Time : 39 days, 2:32:08.29","type":"ESR","status":"1","hoto":"1"},{"lat":"19.0774","lng":"73.1177","name":"PNVLTAMIESR004","address":"Sap : I-MU-MUMB-ENB-3262<br\/>Loopback : 172.22.2.36<br\/>Up-Time : 38 days, 10:14:26.64","type":"ESR","status":"1","hoto":"1"},{"lat":"19.0865","lng":"73.1215","name":"PNVLTAMIESR007","address":"Sap : I-MU-MUMB-ENB-3264<br\/>Loopback : 172.22.4.156<br\/>Up-Time : 14 days, 4:41:54.22","type":"ESR","status":"1","hoto":"1"},{"lat":"19.2502","lng":"73.1453","name":"KLYNSYDRESR003","address":"Sap : I-MU-MUMB-ENB-3267<br\/>Loopback : 172.22.6.208<br\/>Up-Time : 42 days, 2:55:20.37","type":"ESR","status":"1","hoto":"1"},{"lat":"19.0816","lng":"73.1296","name":"PNVLTAMIESR002","address":"Sap : I-MU-MUMB-ENB-3268<br\/>Loopback : 172.22.2.39<br\/>Up-Time : 3 days, 11:53:14.72","type":"ESR","status":"1","hoto":"1"},{"lat":"19.2296","lng":"73.0883","name":"KLDMGNSSESR001","address":"Sap : I-MU-MUMB-ENB-3269<br\/>Loopback : 172.22.4.20<br\/>Up-Time : 42 days, 2:28:20.28","type":"ESR","status":"1","hoto":"1"},{"lat":"19.0907","lng":"73.1292","name":"PNVLTAMIESR003","address":"Sap : I-MU-MUMB-ENB-3270<br\/>Loopback : 172.22.2.35<br\/>Up-Time : 40 days, 5:26:21.09","type":"ESR","status":"1","hoto":"1"},{"lat":"19.0786","lng":"73.1365","name":"PNVLTAMIESR005","address":"Sap : I-MU-MUMB-ENB-3272<br\/>Loopback : 172.22.2.38<br\/>Up-Time : 3 days, 8:23:33.73","type":"ESR","status":"1","hoto":"1"},{"lat":"19.0791","lng":"73.1453","name":"PNVLTAMIESR006","address":"Sap : I-MU-MUMB-ENB-3273<br\/>Loopback : 172.22.2.34<br\/>Up-Time : 3 days, 8:24:18.57","type":"ESR","status":"1","hoto":"1"},{"lat":"19.0365","lng":"73.0588","name":"NVMBKRGEESR001","address":"Sap : I-MU-MUMB-ENB-3275<br\/>Loopback : 172.22.11.137<br\/>Up-Time : 47 days, 17:34:16.78","type":"ESR","status":"1","hoto":"1"},{"lat":"19.202","lng":"73.0953","name":"KLDMSNJNESR001","address":"Sap : I-MU-MUMB-ENB-3286<br\/>Loopback : 172.22.4.153<br\/>Up-Time : 51 days, 4:12:27.77","type":"ESR","status":"1","hoto":"1"},{"lat":"18.993","lng":"73.1066","name":"PNVLUGAMESR001","address":"Sap : I-MU-MUMB-ENB-3287<br\/>Loopback : 172.22.10.222<br\/>Up-Time : 56 days, 3:19:56.32","type":"ESR","status":"1","hoto":"1"},{"lat":"18.9819","lng":"73.1191","name":"PNVLTKACESR002","address":"Sap : I-MU-MUMB-ENB-3290<br\/>Loopback : 172.22.9.100<br\/>Up-Time : 30 days, 15:03:43.07","type":"ESR","status":"1","hoto":"1"},{"lat":"18.8904","lng":"72.9332","name":"URANURANESR008","address":"Sap : I-MU-MUMB-ENB-3305<br\/>Loopback : 172.22.9.20<br\/>Up-Time : 15 days, 11:34:09.35","type":"ESR","status":"1","hoto":"1"},{"lat":"19.2546","lng":"73.1477","name":"KLYNSYDRESR001","address":"Sap : I-MU-MUMB-ENB-3319<br\/>Loopback : 172.22.6.128<br\/>Up-Time : 40 days, 19:04:18.98","type":"ESR","status":"1","hoto":"1"},{"lat":"19.2087","lng":"73.1004","name":"KLDMBLRMESR004","address":"Sap : I-MU-MUMB-ENB-3321<br\/>Loopback : 172.22.5.118<br\/>Up-Time : 42 days, 2:21:40.84","type":"ESR","status":"1","hoto":"1"},{"lat":"19.2136","lng":"73.1028","name":"KLDMTRMTESR001","address":"Sap : I-MU-MUMB-ENB-3323<br\/>Loopback : 172.22.6.79<br\/>Up-Time : 41 days, 4:34:54.18","type":"ESR","status":"1","hoto":"1"},{"lat":"19.2593","lng":"73.147","name":"KLYNKLYNESR001","address":"Sap : I-MU-MUMB-ENB-3325<br\/>Loopback : 172.22.9.255<br\/>Up-Time : 52 days, 23:26:58.69","type":"ESR","status":"1","hoto":"1"},{"lat":"19.2109","lng":"73.1026","name":"KLDMBLRMESR001","address":"Sap : I-MU-MUMB-ENB-3328<br\/>Loopback : 172.22.5.111<br\/>Up-Time : 42 days, 0:04:00.30","type":"ESR","status":"1","hoto":"1"},{"lat":"19.1989","lng":"72.9918","name":"THNETTCKESR001","address":"Sap : I-MU-MUMB-ENB-3341<br\/>Loopback : 172.22.6.177<br\/>Up-Time : 25 days, 20:29:55.41","type":"ESR","status":"1","hoto":"1"},{"lat":"19.2035","lng":"72.9935","name":"THNETTCKESR004","address":"Sap : I-MU-MUMB-ENB-3342<br\/>Loopback : 172.22.1.255<br\/>Up-Time : 45 days, 13:55:50.29","type":"ESR","status":"1","hoto":"1"},{"lat":"19.1574","lng":"73.0328","name":"KLDMMBKSESR001","address":"Sap : I-MU-MUMB-ENB-3366<br\/>Loopback : 172.22.2.10<br\/>Up-Time : 54 days, 7:39:00.91","type":"ESR","status":"1","hoto":"1"},{"lat":"19.1561","lng":"73.0773","name":"KLDMSHRDESR001","address":"Sap : I-MU-MUMB-ENB-3368<br\/>Loopback : 172.22.4.34<br\/>Up-Time : 5 days, 13:29:07.13","type":"ESR","status":"1","hoto":"1"},{"lat":"19.0416","lng":"73.1002","name":"PNVLKLBGESR001","address":"Sap : I-MU-MUMB-ENB-3369<br\/>Loopback : 172.22.2.42<br\/>Up-Time : 42 days, 0:38:25.90","type":"ESR","status":"1","hoto":"1"},{"lat":"19.2279","lng":"73.1451","name":"KLYNKLSVESR001","address":"Sap : I-MU-MUMB-ENB-3376<br\/>Loopback : 172.22.4.150<br\/>Up-Time : 11 days, 13:44:56.67","type":"ESR","status":"1","hoto":"1"},{"lat":"19.066","lng":"73.0014","name":"NVMBVASVESR002","address":"Sap : I-MU-MUMB-ENB-3401<br\/>Loopback : 172.22.4.106<br\/>Up-Time : 51 days, 4:32:59.14","type":"ESR","status":"1","hoto":"1"},{"lat":"19.085","lng":"73.0001","name":"NVMBVSHKESR001","address":"Sap : I-MU-MUMB-ENB-3406<br\/>Loopback : 172.22.4.5<br\/>Up-Time : 42 days, 3:02:39.64","type":"ESR","status":"1","hoto":"1"},{"lat":"19.0885","lng":"73.0045","name":"NVMBVSBIESR001","address":"Sap : I-MU-MUMB-ENB-3413<br\/>Loopback : 172.22.9.77<br\/>Up-Time : 41 days, 3:05:42.09","type":"ESR","status":"1","hoto":"1"},{"lat":"19.0916","lng":"73.0047","name":"NVMBVSHLESR001","address":"Sap : I-MU-MUMB-ENB-3414<br\/>Loopback : 172.22.4.4<br\/>Up-Time : 42 days, 3:02:04.04","type":"ESR","status":"1","hoto":"1"},{"lat":"19.1425","lng":"73.0066","name":"NVMBDGHBPAR002","address":"Sap : I-MU-MUMB-ENB-3417<br\/>Loopback : 172.16.32.176<br\/>Up-Time : 68 days, 20:47:14.57","type":"PAR","status":"1","hoto":"1"},{"lat":"19.0518","lng":"73.0994","name":"NVMBTAMIESR001","address":"Sap : I-MU-MUMB-ENB-3420<br\/>Loopback : 172.22.4.155<br\/>Up-Time : 20 days, 17:03:01.04","type":"ESR","status":"1","hoto":"1"},{"lat":"19.2132","lng":"73.0761","name":"KLDMDATTESR001","address":"Sap : I-MU-MUMB-ENB-3435<br\/>Loopback : 172.22.4.29<br\/>Up-Time : 19 days, 13:48:04.96","type":"ESR","status":"1","hoto":"1"},{"lat":"19.0449","lng":"73.0676","name":"NVMBKRGLESR002","address":"Sap : I-MU-MUMB-ENB-3445<br\/>Loopback : 172.22.2.67<br\/>Up-Time : 61 days, 1:23:25.26","type":"ESR","status":"1","hoto":"1"},{"lat":"19.0481","lng":"73.0721","name":"NVMBKRGTESR002","address":"Sap : I-MU-MUMB-ENB-3446<br\/>Loopback : 172.22.11.134<br\/>Up-Time : 56 days, 3:42:33.42","type":"ESR","status":"1","hoto":"1"},{"lat":"19.0716","lng":"73.0114","name":"NVMBVSHVESR002","address":"Sap : I-MU-MUMB-ENB-3450<br\/>Loopback : 172.22.10.23<br\/> ","type":"ESR","status":"0","hoto":"1"},{"lat":"19.0716","lng":"73.0114","name":"NVMBVSHVPAR002","address":"Sap : I-MU-MUMB-ENB-3450<br\/>Loopback : 172.16.33.118<br\/>Up-Time : ","type":"PAR","status":"1","hoto":"1"},{"lat":"19.043","lng":"73.072","name":"NVMBKRGMESR003","address":"Sap : I-MU-MUMB-ENB-3452<br\/>Loopback : 172.22.7.223<br\/>Up-Time : 49 days, 15:23:01.78","type":"ESR","status":"1","hoto":"1"},{"lat":"19.0893","lng":"73.0125","name":"NVMBVSHZESR001","address":"Sap : I-MU-MUMB-ENB-3458<br\/>Loopback : 172.22.4.60<br\/>Up-Time : 42 days, 1:36:58.84","type":"ESR","status":"1","hoto":"1"},{"lat":"19.0509","lng":"73.0798","name":"NVMBKRGSESR001","address":"Sap : I-MU-MUMB-ENB-3462<br\/>Loopback : 172.22.2.72<br\/>Up-Time : 53 days, 0:35:01.78","type":"ESR","status":"1","hoto":"1"},{"lat":"19.1031","lng":"73.0677","name":"KLDMMBKGESR003","address":"Sap : I-MU-MUMB-ENB-3469<br\/>Loopback : 172.22.5.6<br\/>Up-Time : 42 days, 2:32:28.92","type":"ESR","status":"1","hoto":"1"},{"lat":"19.0222","lng":"73.0888","name":"KMTEKMCEESR001","address":"Sap : I-MU-MUMB-ENB-3472<br\/>Loopback : 172.22.2.59<br\/> ","type":"ESR","status":"0","hoto":"1"},{"lat":"19.0222","lng":"73.0888","name":"KMTEKMCEPAR001","address":"Sap : I-MU-MUMB-ENB-3472<br\/>Loopback : 172.16.33.179<br\/>Up-Time : 68 days, 20:46:59.11","type":"PAR","status":"1","hoto":"1"},{"lat":"19.0206","lng":"73.0914","name":"KMTEKMTKESR001","address":"Sap : I-MU-MUMB-ENB-3474<br\/>Loopback : 172.22.10.242<br\/>Up-Time : 56 days, 3:29:04.58","type":"ESR","status":"1","hoto":"1"},{"lat":"19.0981","lng":"73.0138","name":"NVMBKPRLESR001","address":"Sap : I-MU-MUMB-ENB-3480<br\/>Loopback : 172.22.4.59<br\/>Up-Time : 42 days, 0:04:39.89","type":"ESR","status":"1","hoto":"1"},{"lat":"19.2068","lng":"73.0003","name":"THNEMDKLESR001","address":"Sap : I-MU-MUMB-ENB-3485<br\/>Loopback : 172.22.1.251<br\/>Up-Time : 28 days, 12:07:40.23","type":"ESR","status":"1","hoto":"1"},{"lat":"19.0599","lng":"73.0196","name":"NVMBHULTESR001","address":"Sap : I-MU-MUMB-ENB-3487<br\/>Loopback : 172.22.4.103<br\/> ","type":"ESR","status":"0","hoto":"1"},{"lat":"19.088","lng":"73.0282","name":"NVMBBOFAPAR001","address":"Sap : I-MU-MUMB-ENB-3490<br\/>Loopback : 172.16.32.174<br\/>Up-Time : ","type":"PAR","status":"1","hoto":"1"},{"lat":"19.088","lng":"73.0282","name":"NVMBBOFAESR003","address":"Sap : I-MU-MUMB-ENB-3490<br\/>Loopback : 172.22.4.93<br\/> ","type":"ESR","status":"0","hoto":"1"},{"lat":"19.0865","lng":"73.0241","name":"NVMBBOFAESR005","address":"Sap : I-MU-MUMB-ENB-3494<br\/>Loopback : 172.22.4.163<br\/>Up-Time : 13 days, 20:48:19.31","type":"ESR","status":"1","hoto":"1"},{"lat":"19.0108","lng":"73.0342","name":"NVMBCBDSESR002","address":"Sap : I-MU-MUMB-ENB-3500<br\/>Loopback : 172.22.7.105<br\/>Up-Time : 41 days, 4:21:56.49","type":"ESR","status":"1","hoto":"1"},{"lat":"19.1754","lng":"73.0031","name":"NVMBRMLNESR002","address":"Sap : I-MU-MUMB-ENB-3501<br\/>Loopback : 172.22.7.76<br\/>Up-Time : 13 days, 11:08:08.72","type":"ESR","status":"1","hoto":"1"},{"lat":"19.1122","lng":"72.9303","name":"MUMBHARBESR001","address":"Sap : I-MU-MUMB-ENB-3520<br\/>Loopback : 172.22.8.172<br\/>Up-Time : 52 days, 13:08:47.60","type":"ESR","status":"1","hoto":"1"},{"lat":"19.1593","lng":"73.0457","name":"KLDMPDKPESR001","address":"Sap : I-MU-MUMB-ENB-3601<br\/>Loopback : 172.22.2.11<br\/>Up-Time : 26 days, 23:06:00.19","type":"ESR","status":"1","hoto":"1"},{"lat":"19.0639","lng":"73.0032","name":"NVMBKRBZESR001","address":"Sap : I-MU-MUMB-ENB-3605<br\/>Loopback : 172.22.4.111<br\/>Up-Time : 9 days, 18:55:05.52","type":"ESR","status":"1","hoto":"1"},{"lat":"19.0385","lng":"73.0101","name":"NVMBNRLNESR001","address":"Sap : I-MU-MUMB-ENB-3608<br\/>Loopback : 172.22.8.90<br\/>Up-Time : 41 days, 4:44:25.09","type":"ESR","status":"1","hoto":"1"},{"lat":"19.068","lng":"73.0699","name":"NVMBKGGCESR001","address":"Sap : I-MU-MUMB-ENB-3625<br\/>Loopback : 172.22.2.79<br\/>Up-Time : 23 days, 14:54:08.46","type":"ESR","status":"1","hoto":"1"},{"lat":"19.2278","lng":"72.8603","name":"MUMBCHIBESR003","address":"Sap : I-MU-MUMB-ENB-3651<br\/>Loopback : 172.22.6.127<br\/>Up-Time : 3 days, 21:31:31.86","type":"ESR","status":"1","hoto":"1"},{"lat":"19.1956","lng":"72.8752","name":"MUMBANTAESR001","address":"Sap : I-MU-MUMB-ENB-3669<br\/>Loopback : 172.22.3.230<br\/>Up-Time : 25 days, 17:23:40.80","type":"ESR","status":"1","hoto":"1"},{"lat":"19.2156","lng":"72.8255","name":"MUMBKDVEPAR001","address":"Sap : I-MU-MUMB-ENB-3723<br\/>Loopback : 172.16.33.154<br\/>Up-Time : ","type":"PAR","status":"1","hoto":"1"},{"lat":"19.2156","lng":"72.8255","name":"MUMBKDVEESR002","address":"Sap : I-MU-MUMB-ENB-3723<br\/>Loopback : 172.22.11.31<br\/> ","type":"ESR","status":"0","hoto":"1"},{"lat":"19.2258","lng":"72.8612","name":"MUMBCHIBESR002","address":"Sap : I-MU-MUMB-ENB-3730<br\/>Loopback : 172.22.10.232<br\/>Up-Time : 56 days, 2:26:55.71","type":"ESR","status":"1","hoto":"1"},{"lat":"19.2233","lng":"72.8573","name":"MUMBDTPDESR001","address":"Sap : I-MU-MUMB-ENB-3738<br\/>Loopback : 172.22.10.238<br\/>Up-Time : 39 days, 20:00:34.02","type":"ESR","status":"1","hoto":"1"},{"lat":"19.2535","lng":"72.8663","name":"MUMBANAJESR001","address":"Sap : I-MU-MUMB-ENB-3778<br\/>Loopback : 172.22.6.168<br\/>Up-Time : 11:50:08.80","type":"ESR","status":"1","hoto":"1"},{"lat":"19.0712","lng":"72.8303","name":"MUMBAMBGESR001","address":"Sap : I-MU-MUMB-ENB-3788<br\/>Loopback : 172.22.5.241<br\/>Up-Time : 42 days, 1:53:27.51","type":"ESR","status":"1","hoto":"1"},{"lat":"19.0897","lng":"72.8277","name":"MUMBCHADESR001","address":"Sap : I-MU-MUMB-ENB-3796<br\/>Loopback : 172.22.7.73<br\/>Up-Time : 44 days, 10:58:58.47","type":"ESR","status":"1","hoto":"1"},{"lat":"19.1267","lng":"72.8507","name":"MUMBMGPDESR001","address":"Sap : I-MU-MUMB-ENB-3802<br\/>Loopback : 172.22.1.100<br\/>Up-Time : 34 days, 17:25:12.84","type":"ESR","status":"1","hoto":"1"},{"lat":"19.131","lng":"72.8548","name":"MUMBDIASESR001","address":"Sap : I-MU-MUMB-ENB-3805<br\/>Loopback : 172.22.6.172<br\/>Up-Time : 51 days, 4:18:58.69","type":"ESR","status":"1","hoto":"1"},{"lat":"19.1363","lng":"72.8706","name":"MUMBEKTAESR002","address":"Sap : I-MU-MUMB-ENB-3806<br\/>Loopback : 172.22.8.57<br\/>Up-Time : 41 days, 2:58:09.30","type":"ESR","status":"1","hoto":"1"},{"lat":"19.1299","lng":"72.8468","name":"MUMBKVNPESR001","address":"Sap : I-MU-MUMB-ENB-3835<br\/>Loopback : 172.22.5.125<br\/> ","type":"ESR","status":"0","hoto":"1"},{"lat":"19.2404","lng":"72.86","name":"MUMBAMBWESR002","address":"Sap : I-MU-MUMB-ENB-3847<br\/>Loopback : 172.22.10.241<br\/>Up-Time : 56 days, 3:30:00.99","type":"ESR","status":"1","hoto":"1"},{"lat":"19.2177","lng":"72.8702","name":"MUMBSNBTESR004","address":"Sap : I-MU-MUMB-ENB-3863<br\/>Loopback : 172.22.9.214<br\/>Up-Time : 41 days, 3:36:41.36","type":"ESR","status":"1","hoto":"1"},{"lat":"19.2132","lng":"72.835","name":"MUMBKANWESR002","address":"Sap : I-MU-MUMB-ENB-3869<br\/>Loopback : 172.22.3.56<br\/>Up-Time : 9 days, 11:17:16.36","type":"ESR","status":"1","hoto":"1"},{"lat":"19.1809","lng":"72.8167","name":"MUMBMALWESR002","address":"Sap : I-MU-MUMB-ENB-3916<br\/>Loopback : 172.22.8.106<br\/>Up-Time : 41 days, 4:20:54.34","type":"ESR","status":"1","hoto":"1"},{"lat":"19.1978","lng":"72.8181","name":"MUMBGANJESR006","address":"Sap : I-MU-MUMB-ENB-3924<br\/>Loopback : 172.22.6.141<br\/>Up-Time : 31 days, 15:09:45.62","type":"ESR","status":"1","hoto":"1"},{"lat":"19.1724","lng":"72.8484","name":"MUMBUYNGESR001","address":"Sap : I-MU-MUMB-ENB-3964<br\/>Loopback : 172.22.8.134<br\/>Up-Time : 52 days, 23:52:52.46","type":"ESR","status":"1","hoto":"1"},{"lat":"19.1464","lng":"72.8554","name":"MUMBGRESESR001","address":"Sap : I-MU-MUMB-ENB-3987<br\/>Loopback : 172.22.6.46<br\/>Up-Time : 19 days, 13:11:27.26","type":"ESR","status":"1","hoto":"1"},{"lat":"19.1857","lng":"72.8564","name":"MUMBKSMBESR001","address":"Sap : I-MU-MUMB-ENB-4026<br\/>Loopback : 172.22.3.42<br\/>Up-Time : 28 days, 13:44:53.72","type":"ESR","status":"1","hoto":"1"},{"lat":"19.2144","lng":"72.8411","name":"MUMBSTYNESR001","address":"Sap : I-MU-MUMB-ENB-4036<br\/>Loopback : 172.22.6.42<br\/>Up-Time : 42 days, 2:32:33.37","type":"ESR","status":"1","hoto":"1"},{"lat":"19.2544","lng":"72.8611","name":"MUMBMRTCESR004","address":"Sap : I-MU-MUMB-ENB-4046<br\/>Loopback : 172.22.10.235<br\/>Up-Time : 56 days, 3:43:39.20","type":"ESR","status":"1","hoto":"1"},{"lat":"19.1857","lng":"72.8002","name":"MUMBMASCESR001","address":"Sap : I-MU-MUMB-ENB-4064<br\/>Loopback : 172.22.7.39<br\/>Up-Time : 5 days, 16:16:57.16","type":"ESR","status":"1","hoto":"1"},{"lat":"19.0116","lng":"72.8243","name":"MUMBCTRMESR002","address":"Sap : I-MU-MUMB-ENB-4072<br\/>Loopback : 172.22.9.232<br\/>Up-Time : 44 days, 0:25:59.63","type":"ESR","status":"1","hoto":"1"},{"lat":"19.1517","lng":"72.8314","name":"MUMBMHDCESR001","address":"Sap : I-MU-MUMB-ENB-4087<br\/>Loopback : 172.22.10.140<br\/>Up-Time : 16 days, 19:33:10.73","type":"ESR","status":"1","hoto":"1"},{"lat":"19.0966","lng":"73.0008","name":"NVMBKPRNPAR001","address":"Sap : I-MU-MUMB-ENB-4096<br\/>Loopback : 172.16.33.115<br\/>Up-Time : 46 days, 8:51:54.34","type":"PAR","status":"1","hoto":"1"},{"lat":"18.9789","lng":"73.0298","name":"PNVLKRKPESR003","address":"Sap : I-MU-MUMB-ENB-4098<br\/>Loopback : 172.22.11.53<br\/>Up-Time : 20 days, 14:12:43.08","type":"ESR","status":"1","hoto":"1"},{"lat":"18.9804","lng":"73.1092","name":"PNVLGRSMESR001","address":"Sap : I-MU-MUMB-ENB-4100<br\/>Loopback : 172.22.10.55<br\/>Up-Time : 42 days, 18:30:09.67","type":"ESR","status":"1","hoto":"1"},{"lat":"18.9793","lng":"73.1165","name":"PNVLTKACESR001","address":"Sap : I-MU-MUMB-ENB-4105<br\/>Loopback : 172.22.9.172<br\/>Up-Time : 7 days, 13:15:50.30","type":"ESR","status":"1","hoto":"1"},{"lat":"19.0367","lng":"73.0136","name":"NVMBNRLTESR002","address":"Sap : I-MU-MUMB-ENB-4122<br\/>Loopback : 172.22.7.87<br\/>Up-Time : 41 days, 3:12:45.53","type":"ESR","status":"1","hoto":"1"},{"lat":"19.0326","lng":"73.0446","name":"NVMBBLPBESR001","address":"Sap : I-MU-MUMB-ENB-4139<br\/>Loopback : 172.22.10.94<br\/>Up-Time : 56 days, 3:09:07.89","type":"ESR","status":"1","hoto":"1"},{"lat":"19.0028","lng":"73.1189","name":"PNVLPNEDESR001","address":"Sap : I-MU-MUMB-ENB-4140<br\/>Loopback : 172.22.7.7<br\/>Up-Time : 41 days, 3:53:13.46","type":"ESR","status":"1","hoto":"1"},{"lat":"19.2251","lng":"73.132","name":"KLYNGNSNESR001","address":"Sap : I-MU-MUMB-ENB-4146<br\/>Loopback : 172.22.7.252<br\/>Up-Time : 9 days, 17:00:00.20","type":"ESR","status":"1","hoto":"1"},{"lat":"19.0616","lng":"72.8632","name":"MUMBAMBJESR003","address":"Sap : I-MU-MUMB-ENB-4203<br\/>Loopback : 172.22.5.117<br\/>Up-Time : 45 days, 7:45:41.58","type":"ESR","status":"1","hoto":"1"},{"lat":"19.3039","lng":"72.8543","name":"MIBHRAWLESR001","address":"Sap : I-MU-MUMB-ENB-4253<br\/>Loopback : 172.22.5.20<br\/>Up-Time : 61 days, 0:58:01.19","type":"ESR","status":"1","hoto":"1"},{"lat":"19.2951","lng":"72.8461","name":"MIBHPDMAESR001","address":"Sap : I-MU-MUMB-ENB-4255<br\/>Loopback : 172.22.1.65<br\/>Up-Time : 56 days, 4:53:19.53","type":"ESR","status":"1","hoto":"1"},{"lat":"19.3036","lng":"72.8671","name":"MIBHPANOESR002","address":"Sap : I-MU-MUMB-ENB-4259<br\/>Loopback : 172.22.7.10<br\/>Up-Time : 41 days, 3:26:41.84","type":"ESR","status":"1","hoto":"1"},{"lat":"19.2772","lng":"72.867","name":"MIBHMRDAESR003","address":"Sap : I-MU-MUMB-ENB-4266<br\/>Loopback : 172.22.10.198<br\/>Up-Time : 10 days, 18:17:14.13","type":"ESR","status":"1","hoto":"1"},{"lat":"19.2804","lng":"72.8657","name":"MIBHMRDAESR001","address":"Sap : I-MU-MUMB-ENB-4267<br\/>Loopback : 172.22.10.170<br\/>Up-Time : 61 days, 1:46:59.68","type":"ESR","status":"1","hoto":"1"},{"lat":"19.2632","lng":"72.8725","name":"MIBHPENKESR001","address":"Sap : I-MU-MUMB-ENB-4269<br\/>Loopback : 172.22.2.246<br\/>Up-Time : 42 days, 1:27:52.69","type":"ESR","status":"1","hoto":"1"},{"lat":"19.2885","lng":"72.8767","name":"MIBHCHNDESR001","address":"Sap : I-MU-MUMB-ENB-4271<br\/>Loopback : 172.22.5.154<br\/>Up-Time : 61 days, 0:13:27.68","type":"ESR","status":"1","hoto":"1"},{"lat":"19.2706","lng":"72.8914","name":"MIBHMAPAESR002","address":"Sap : I-MU-MUMB-ENB-4272<br\/>Loopback : 172.22.2.250<br\/>Up-Time : 42 days, 2:04:49.02","type":"ESR","status":"1","hoto":"1"},{"lat":"19.2823","lng":"72.872","name":"MIBHJVJNESR001","address":"Sap : I-MU-MUMB-ENB-4274<br\/>Loopback : 172.22.2.234<br\/>Up-Time : 15 days, 16:51:08.58","type":"ESR","status":"1","hoto":"1"},{"lat":"19.2863","lng":"72.882","name":"MIBHPAHLESR001","address":"Sap : I-MU-MUMB-ENB-4276<br\/>Loopback : 172.22.2.243<br\/>Up-Time : 42 days, 1:30:49.01","type":"ESR","status":"1","hoto":"1"},{"lat":"19.1997","lng":"72.9629","name":"THNEJJMTESR001","address":"Sap : I-MU-MUMB-ENB-4301<br\/>Loopback : 172.22.6.66<br\/>Up-Time : 42 days, 2:24:21.09","type":"ESR","status":"1","hoto":"1"},{"lat":"19.2118","lng":"72.9553","name":"THNEYSODESR001","address":"Sap : I-MU-MUMB-ENB-4302<br\/>Loopback : 172.22.7.68<br\/> ","type":"ESR","status":"0","hoto":"1"},{"lat":"19.2088","lng":"73.0071","name":"THNERGKUESR002","address":"Sap : I-MU-MUMB-ENB-4311<br\/>Loopback : 172.22.8.40<br\/>Up-Time : 41 days, 3:04:37.98","type":"ESR","status":"1","hoto":"1"},{"lat":"19.208","lng":"73.011","name":"THNERGKUESR001","address":"Sap : I-MU-MUMB-ENB-4312<br\/>Loopback : 172.22.1.248<br\/>Up-Time : 23 days, 13:11:56.06","type":"ESR","status":"1","hoto":"1"},{"lat":"19.1658","lng":"73.0305","name":"THNEMUBRESR002","address":"Sap : I-MU-MUMB-ENB-4314<br\/>Loopback : 172.22.2.6<br\/>Up-Time : 41 days, 12:04:07.07","type":"ESR","status":"1","hoto":"1"},{"lat":"19.2641","lng":"72.9611","name":"THNEOWLEESR002","address":"Sap : I-MU-MUMB-ENB-4334<br\/>Loopback : 172.22.9.243<br\/>Up-Time : 41 days, 3:39:43.28","type":"ESR","status":"1","hoto":"1"},{"lat":"19.2805","lng":"72.9248","name":"THNEVARVESR001","address":"Sap : I-MU-MUMB-ENB-4337<br\/>Loopback : 172.22.10.63<br\/>Up-Time : 23 days, 16:21:16.19","type":"ESR","status":"1","hoto":"1"},{"lat":"19.2733","lng":"72.9131","name":"THNESGNPESR001","address":"Sap : I-MU-MUMB-ENB-4338<br\/>Loopback : 172.22.10.199<br\/>Up-Time : ","type":"ESR","status":"1","hoto":"1"},{"lat":"19.2282","lng":"72.9681","name":"THNEMHDAPAR001","address":"Sap : I-MU-MUMB-ENB-4340<br\/>Loopback : 172.16.33.211<br\/>Up-Time : 26 days, 4:25:19.48","type":"PAR","status":"1","hoto":"1"},{"lat":"19.0917","lng":"73.0098","name":"NVMBVSBHESR002","address":"Sap : I-MU-MUMB-ENB-4473<br\/>Loopback : 172.22.7.213<br\/>Up-Time : 27 days, 19:28:55.80","type":"ESR","status":"1","hoto":"1"},{"lat":"18.9596","lng":"73.151","name":"PNVLBHRLESR001","address":"Sap : I-MU-MUMB-ENB-5506<br\/>Loopback : 172.22.10.49<br\/>Up-Time : 56 days, 3:49:36.60","type":"ESR","status":"1","hoto":"1"},{"lat":"18.9659","lng":"73.131","name":"PNVLKLKEESR002","address":"Sap : I-MU-MUMB-ENB-5508<br\/>Loopback : 172.22.8.187<br\/>Up-Time : 41 days, 4:51:18.63","type":"ESR","status":"1","hoto":"1"},{"lat":"19.0379","lng":"73.0172","name":"NVMBNRLJESR001","address":"Sap : I-MU-MUMB-ENB-5512<br\/>Loopback : 172.22.9.152<br\/>Up-Time : 41 days, 5:00:42.20","type":"ESR","status":"1","hoto":"1"},{"lat":"19.1518","lng":"72.9994","name":"NVMBARLFESR002","address":"Sap : I-MU-MUMB-ENB-5515<br\/>Loopback : 172.22.7.167<br\/>Up-Time : 41 days, 2:51:30.96","type":"ESR","status":"1","hoto":"1"},{"lat":"19.1518","lng":"72.9994","name":"NVMBARLFPAR001","address":"Sap : I-MU-MUMB-ENB-5515<br\/>Loopback : 172.16.33.254<br\/>Up-Time : 38 days, 2:48:07.09","type":"PAR","status":"1","hoto":"1"},{"lat":"19.2134","lng":"73.1119","name":"KLDMMIDKESR001","address":"Sap : I-MU-MUMB-ENB-6002<br\/>Loopback : 172.22.10.244<br\/>Up-Time : 56 days, 3:29:23.43","type":"ESR","status":"1","hoto":"1"},{"lat":"19.2024","lng":"73.1038","name":"KLDMBLRMESR003","address":"Sap : I-MU-MUMB-ENB-6006<br\/>Loopback : 172.22.10.245<br\/>Up-Time : 56 days, 3:28:28.78","type":"ESR","status":"1","hoto":"1"},{"lat":"19.208","lng":"73.093","name":"KLDMANADESR001","address":"Sap : I-MU-MUMB-ENB-6007<br\/>Loopback : 172.22.4.146<br\/>Up-Time : 42 days, 2:28:58.29","type":"ESR","status":"1","hoto":"1"},{"lat":"19.226","lng":"73.0812","name":"KLDMJMNRESR001","address":"Sap : I-MU-MUMB-ENB-6008<br\/>Loopback : 172.22.4.26<br\/>Up-Time : 42 days, 2:17:16.29","type":"ESR","status":"1","hoto":"1"},{"lat":"19.2091","lng":"73.083","name":"KLDMNLKTESR001","address":"Sap : I-MU-MUMB-ENB-6010<br\/>Loopback : 172.22.4.148<br\/>Up-Time : 42 days, 2:29:26.82","type":"ESR","status":"1","hoto":"1"},{"lat":"19.2189","lng":"73.0848","name":"KLDMDNDYESR002","address":"Sap : I-MU-MUMB-ENB-6011<br\/>Loopback : 172.22.4.152<br\/>Up-Time : 42 days, 1:17:40.16","type":"ESR","status":"1","hoto":"1"},{"lat":"19.1901","lng":"73.0945","name":"KLDMBLANESR001","address":"Sap : I-MU-MUMB-ENB-6014<br\/>Loopback : 172.22.10.174<br\/>Up-Time : 56 days, 4:06:10.57","type":"ESR","status":"1","hoto":"1"},{"lat":"19.2176","lng":"73.1046","name":"KLDMMIDKESR002","address":"Sap : I-MU-MUMB-ENB-6015<br\/>Loopback : 172.22.6.83<br\/>Up-Time : 30 days, 13:52:49.35","type":"ESR","status":"1","hoto":"1"},{"lat":"19.099","lng":"73.0702","name":"KLDMMBKGESR002","address":"Sap : I-MU-MUMB-ENB-6020<br\/>Loopback : 172.22.4.43<br\/>Up-Time : 34 days, 13:58:20.96","type":"ESR","status":"1","hoto":"1"},{"lat":"19.0709","lng":"73.0906","name":"KLDMMBKRESR001","address":"Sap : I-MU-MUMB-ENB-6021<br\/>Loopback : 172.22.2.77<br\/>Up-Time : 14 days, 16:00:52.34","type":"ESR","status":"1","hoto":"1"},{"lat":"19.2432","lng":"73.1294","name":"KLYNMNPAESR001","address":"Sap : I-MU-MUMB-ENB-6024<br\/>Loopback : 172.22.7.83<br\/>Up-Time : 14:38:36.34","type":"ESR","status":"1","hoto":"1"},{"lat":"19.244","lng":"73.1487","name":"KLYNIDRNESR001","address":"Sap : I-MU-MUMB-ENB-6030<br\/>Loopback : 172.22.7.20<br\/>Up-Time : 41 days, 3:30:55.99","type":"ESR","status":"1","hoto":"1"},{"lat":"19.0411","lng":"73.1019","name":"KMTEMGMCESR001","address":"Sap : I-MU-MUMB-ENB-6032<br\/>Loopback : 172.22.5.186<br\/>Up-Time : 42 days, 2:29:49.97","type":"ESR","status":"1","hoto":"1"},{"lat":"19.0304","lng":"73.0667","name":"KMTEKRGAESR001","address":"Sap : I-MU-MUMB-ENB-6034<br\/>Loopback : 172.22.2.89<br\/>Up-Time : 40 days, 5:20:26.04","type":"ESR","status":"1","hoto":"1"},{"lat":"19.2869","lng":"72.8668","name":"MIBHEVSNESR002","address":"Sap : I-MU-MUMB-ENB-6037<br\/>Loopback : 172.22.10.195<br\/>Up-Time : 56 days, 4:20:43.05","type":"ESR","status":"1","hoto":"1"},{"lat":"19.2745","lng":"72.8619","name":"MIBHMRBIESR002","address":"Sap : I-MU-MUMB-ENB-6039<br\/>Loopback : 172.22.10.169<br\/>Up-Time : 56 days, 0:53:33.48","type":"ESR","status":"1","hoto":"1"},{"lat":"19.3074","lng":"72.8479","name":"MIBHJAANESR001","address":"Sap : I-MU-MUMB-ENB-6041<br\/>Loopback : 172.22.10.188<br\/>Up-Time : 56 days, 4:06:52.87","type":"ESR","status":"1","hoto":"1"},{"lat":"19.2762","lng":"72.888","name":"MIBHKSMRESR002","address":"Sap : I-MU-MUMB-ENB-6044<br\/>Loopback : 172.22.2.248<br\/>Up-Time : 41 days, 12:12:46.51","type":"ESR","status":"1","hoto":"1"},{"lat":"19.279","lng":"72.8727","name":"MIBHSVPKESR001","address":"Sap : I-MU-MUMB-ENB-6046<br\/>Loopback : 172.22.10.24<br\/>Up-Time : 61 days, 1:52:44.48","type":"ESR","status":"1","hoto":"1"},{"lat":"19.2724","lng":"72.8618","name":"MIBHMIREESR003","address":"Sap : I-MU-MUMB-ENB-6049<br\/>Loopback : 172.22.10.226<br\/>Up-Time : 56 days, 0:54:04.85","type":"ESR","status":"1","hoto":"1"},{"lat":"19.2867","lng":"72.8603","name":"MIBHNAYAESR002","address":"Sap : I-MU-MUMB-ENB-6050<br\/>Loopback : 172.22.7.66<br\/>Up-Time : 41 days, 2:59:36.49","type":"ESR","status":"1","hoto":"1"},{"lat":"19.2959","lng":"72.8483","name":"MIBHPDMAESR003","address":"Sap : I-MU-MUMB-ENB-6055<br\/>Loopback : 172.22.10.172<br\/>Up-Time : 56 days, 4:12:42.46","type":"ESR","status":"1","hoto":"1"},{"lat":"19.281","lng":"72.8583","name":"MIBHSHNAESR001","address":"Sap : I-MU-MUMB-ENB-6059<br\/>Loopback : 172.22.10.200<br\/>Up-Time : 56 days, 4:06:07.24","type":"ESR","status":"1","hoto":"1"},{"lat":"19.2772","lng":"72.8614","name":"MIBHMRBJESR001","address":"Sap : I-MU-MUMB-ENB-6060<br\/>Loopback : 172.22.10.20<br\/>Up-Time : 56 days, 4:13:12.72","type":"ESR","status":"1","hoto":"1"},{"lat":"19.3067","lng":"72.8518","name":"MIBHBHWNESR001","address":"Sap : I-MU-MUMB-ENB-6063<br\/>Loopback : 172.22.10.189<br\/>Up-Time : 40 days, 12:22:29.53","type":"ESR","status":"1","hoto":"1"},{"lat":"19.3143","lng":"72.8546","name":"MIBHJEPKESR001","address":"Sap : I-MU-MUMB-ENB-6069<br\/>Loopback : 172.22.10.194<br\/>Up-Time : 56 days, 4:13:32.61","type":"ESR","status":"1","hoto":"1"},{"lat":"19.3022","lng":"72.7891","name":"MIBHUTNTESR006","address":"Sap : I-MU-MUMB-ENB-6070<br\/>Loopback : 172.22.7.40<br\/> ","type":"ESR","status":"0","hoto":"1"},{"lat":"19.2783","lng":"72.8788","name":"MIBHMYRAESR002","address":"Sap : I-MU-MUMB-ENB-6078<br\/>Loopback : 172.22.2.239<br\/>Up-Time : 52 days, 13:05:02.04","type":"ESR","status":"1","hoto":"1"},{"lat":"19.3045","lng":"72.8633","name":"MIBHINDNESR001","address":"Sap : I-MU-MUMB-ENB-6079<br\/>Loopback : 172.22.10.112<br\/>Up-Time : 61 days, 1:46:44.29","type":"ESR","status":"1","hoto":"1"},{"lat":"19.299","lng":"72.8437","name":"MIBHPDMAESR004","address":"Sap : I-MU-MUMB-ENB-6086<br\/>Loopback : 172.22.10.196<br\/>Up-Time : 56 days, 4:21:32.13","type":"ESR","status":"1","hoto":"1"},{"lat":"19.3052","lng":"72.8495","name":"MIBHGAONESR001","address":"Sap : I-MU-MUMB-ENB-6089<br\/>Loopback : 172.22.5.19<br\/>Up-Time : 42 days, 1:16:22.58","type":"ESR","status":"1","hoto":"1"},{"lat":"18.9125","lng":"72.8203","name":"MUMBCLBAESR001","address":"Sap : I-MU-MUMB-ENB-6090<br\/>Loopback : 172.22.10.44<br\/>Up-Time : 56 days, 3:41:23.30","type":"ESR","status":"1","hoto":"1"},{"lat":"18.9445","lng":"72.7943","name":"MUMBTENBESR001","address":"Sap : I-MU-MUMB-ENB-6091<br\/>Loopback : 172.22.9.54<br\/>Up-Time : 44 days, 13:06:08.80","type":"ESR","status":"1","hoto":"1"},{"lat":"19.0414","lng":"72.8401","name":"MUMBMHIMESR001","address":"Sap : I-MU-MUMB-ENB-6098<br\/>Loopback : 172.22.6.124<br\/>Up-Time : 42 days, 1:33:21.87","type":"ESR","status":"1","hoto":"1"},{"lat":"18.9536","lng":"72.8389","name":"MUMBDANAESR002","address":"Sap : I-MU-MUMB-ENB-6099<br\/>Loopback : 172.22.1.200<br\/>Up-Time : 56 days, 4:54:40.27","type":"ESR","status":"1","hoto":"1"},{"lat":"18.9757","lng":"72.8333","name":"MUMBJEECESR001","address":"Sap : I-MU-MUMB-ENB-6103<br\/>Loopback : 172.22.6.112<br\/>Up-Time : 42 days, 1:23:47.72","type":"ESR","status":"1","hoto":"1"},{"lat":"18.9967","lng":"72.8192","name":"MUMBUPPEESR001","address":"Sap : I-MU-MUMB-ENB-6104<br\/>Loopback : 172.22.10.13<br\/>Up-Time : 56 days, 4:10:10.79","type":"ESR","status":"1","hoto":"1"},{"lat":"18.9531","lng":"72.8173","name":"MUMBGAIWESR001","address":"Sap : I-MU-MUMB-ENB-6106<br\/>Loopback : 172.22.11.18<br\/>Up-Time : 54 days, 8:01:41.53","type":"ESR","status":"1","hoto":"1"},{"lat":"18.9329","lng":"72.8336","name":"MUMBHORNESR001","address":"Sap : I-MU-MUMB-ENB-6108<br\/>Loopback : 172.22.10.186<br\/>Up-Time : 56 days, 4:03:48.20","type":"ESR","status":"1","hoto":"1"},{"lat":"18.9453","lng":"72.8274","name":"MUMBNVJNESR002","address":"Sap : I-MU-MUMB-ENB-6110<br\/>Loopback : 172.22.5.145<br\/>Up-Time : 51 days, 4:26:17.58","type":"ESR","status":"1","hoto":"1"},{"lat":"18.9932","lng":"72.8274","name":"MUMBLOWEESR003","address":"Sap : I-MU-MUMB-ENB-6112<br\/>Loopback : 172.22.5.85<br\/>Up-Time : 12 days, 18:13:18.20","type":"ESR","status":"1","hoto":"1"},{"lat":"19.0277","lng":"72.8521","name":"MUMBPRSYESR003","address":"Sap : I-MU-MUMB-ENB-6114<br\/>Loopback : 172.22.9.178<br\/>Up-Time : 109 days, 14:44:39.83","type":"ESR","status":"1","hoto":"1"},{"lat":"18.9508","lng":"72.8389","name":"MUMBMASJESR001","address":"Sap : I-MU-MUMB-ENB-6120<br\/>Loopback : 172.22.1.204<br\/>Up-Time : 48 days, 1:06:12.25","type":"ESR","status":"1","hoto":"1"},{"lat":"18.956","lng":"72.8399","name":"MUMBDANAESR001","address":"Sap : I-MU-MUMB-ENB-6134<br\/>Loopback : 172.22.1.199<br\/>Up-Time : 56 days, 4:54:54.94","type":"ESR","status":"1","hoto":"1"},{"lat":"18.9717","lng":"72.8416","name":"MUMBBYCUESR001","address":"Sap : I-MU-MUMB-ENB-6135<br\/>Loopback : 172.22.7.146<br\/>Up-Time : 41 days, 3:55:28.63","type":"ESR","status":"1","hoto":"1"},{"lat":"18.9572","lng":"72.8301","name":"MUMBNULLESR001","address":"Sap : I-MU-MUMB-ENB-6149<br\/>Loopback : 172.22.5.207<br\/> ","type":"ESR","status":"0","hoto":"1"},{"lat":"18.9602","lng":"72.8341","name":"MUMBMNDIESR001","address":"Sap : I-MU-MUMB-ENB-6156<br\/>Loopback : 172.22.6.62<br\/>Up-Time : 42 days, 2:20:56.11","type":"ESR","status":"1","hoto":"1"},{"lat":"18.9549","lng":"72.8168","name":"MUMBGAIWESR002","address":"Sap : I-MU-MUMB-ENB-6162<br\/>Loopback : 172.22.7.88<br\/>Up-Time : 41 days, 3:12:38.79","type":"ESR","status":"1","hoto":"1"},{"lat":"18.9785","lng":"72.811","name":"MUMBCUMBESR002","address":"Sap : I-MU-MUMB-ENB-6168<br\/>Loopback : 172.22.11.144<br\/>Up-Time : 12 days, 19:10:42.22","type":"ESR","status":"1","hoto":"1"},{"lat":"19.0158","lng":"72.8349","name":"MUMBDDRTESR001","address":"Sap : I-MU-MUMB-ENB-6174<br\/>Loopback : 172.22.1.177<br\/>Up-Time : 56 days, 4:55:39.11","type":"ESR","status":"1","hoto":"1"},{"lat":"18.9686","lng":"72.8322","name":"MUMBPOLFESR001","address":"Sap : I-MU-MUMB-ENB-6176<br\/>Loopback : 172.22.7.180<br\/>Up-Time : 41 days, 12:29:58.24","type":"ESR","status":"1","hoto":"1"},{"lat":"18.972","lng":"72.8373","name":"MUMBBYCUESR002","address":"Sap : I-MU-MUMB-ENB-6178<br\/>Loopback : 172.22.7.160<br\/>Up-Time : 37 days, 5:56:04.43","type":"ESR","status":"1","hoto":"1"},{"lat":"19.006","lng":"72.8303","name":"MUMBBOMBESR001","address":"Sap : I-MU-MUMB-ENB-6181<br\/>Loopback : 172.22.9.78<br\/>Up-Time : 51 days, 2:53:28.91","type":"ESR","status":"1","hoto":"1"},{"lat":"18.9598","lng":"72.8207","name":"MUMBKHETESR003","address":"Sap : I-MU-MUMB-ENB-6186<br\/>Loopback : 172.22.5.75<br\/>Up-Time : 51 days, 4:25:43.66","type":"ESR","status":"1","hoto":"1"},{"lat":"18.938","lng":"72.8373","name":"MUMBFORTESR004","address":"Sap : I-MU-MUMB-ENB-6191<br\/>Loopback : 172.22.5.230<br\/>Up-Time : 61 days, 7:29:04.92","type":"ESR","status":"1","hoto":"1"},{"lat":"19.0292","lng":"72.8435","name":"MUMBJOHSESR001","address":"Sap : I-MU-MUMB-ENB-6201<br\/>Loopback : 172.22.9.179<br\/>Up-Time : 41 days, 4:40:02.91","type":"ESR","status":"1","hoto":"1"},{"lat":"19.0238","lng":"72.8391","name":"MUMBSVJLESR002","address":"Sap : I-MU-MUMB-ENB-6202<br\/>Loopback : 172.22.11.100<br\/>Up-Time : 56 days, 3:34:38.69","type":"ESR","status":"1","hoto":"1"},{"lat":"18.9893","lng":"72.8313","name":"MUMBADRAESR001","address":"Sap : I-MU-MUMB-ENB-6212<br\/>Loopback : 172.22.10.12<br\/> ","type":"ESR","status":"0","hoto":"1"},