var maplatlng = {"latlng":[{"lat":"27.0283","lng":"75.7697","name":"ABERABERESR009","address":"Sap : I-RJ-ABER-ENB-6002<br\/>Loopback : 172.22.107.201<br\/>Up-Time : 16 days, 19:38:28.97","type":"ESR","status":"1","hoto":"1"},{"lat":"26.9824","lng":"75.9312","name":"ABERKUNDESR001","address":"Sap : I-RJ-ABER-ENB-6012<br\/>Loopback : 172.22.97.85<br\/>Up-Time : 7 days, 11:11:56.64","type":"ESR","status":"1","hoto":"1"},{"lat":"27.082","lng":"75.605","name":"ABERABERESR010","address":"Sap : I-RJ-ABER-ENB-6016<br\/>Loopback : 172.22.100.116<br\/>Up-Time : 52 days, 16:49:53.34","type":"ESR","status":"1","hoto":"1"},{"lat":"27.0732","lng":"75.7463","name":"ABERABERESR013","address":"Sap : I-RJ-ABER-ENB-I002<br\/>Loopback : 172.22.107.200<br\/>Up-Time : 47 days, 5:32:56.65","type":"ESR","status":"1","hoto":"1"},{"lat":"27.0075","lng":"75.7695","name":"JPURSKWNESR002","address":"Sap : I-RJ-ABER-ENB-V002<br\/>Loopback : 172.22.109.2<br\/>Up-Time : ","type":"ESR","status":"1","hoto":"1"},{"lat":"24.4422","lng":"72.7422","name":"ABRDABRDESR001","address":"Sap : I-RJ-ABRD-ENB-6003<br\/>Loopback : 172.22.109.195<br\/>Up-Time : 37 days, 14:55:03.87","type":"ESR","status":"1","hoto":"1"},{"lat":"24.4851","lng":"72.7826","name":"ABRDABRDESR002","address":"Sap : I-RJ-ABRD-ENB-6004<br\/>Loopback : 172.22.109.196<br\/>Up-Time : 53 days, 4:14:39.48","type":"ESR","status":"1","hoto":"1"},{"lat":"24.4323","lng":"72.7105","name":"ABRDABRDESR006","address":"Sap : I-RJ-ABRD-ENB-9004<br\/>Loopback : 172.22.109.200<br\/>Up-Time : 14 days, 13:32:53.86","type":"ESR","status":"1","hoto":"1"},{"lat":"24.4499","lng":"72.7536","name":"ABRDABRDESR004","address":"Sap : I-RJ-ABRD-ENB-V001<br\/>Loopback : 172.22.109.201<br\/>Up-Time : 41 days, 13:27:02.37","type":"ESR","status":"1","hoto":"1"},{"lat":"26.4096","lng":"74.6581","name":"AJMRPBTRPAR005","address":"Sap : I-RJ-AJMR-AG2-0001<br\/>Loopback : 172.16.96.162<br\/>Up-Time : 37 days, 14:55:01.37","type":"PAR","status":"1","hoto":"1"},{"lat":"26.4937","lng":"74.6221","name":"AJMRSRSYESR002","address":"Sap : I-RJ-AJMR-ENB-0005<br\/>Loopback : 172.22.108.156<br\/>Up-Time : 44 days, 7:00:48.03","type":"ESR","status":"1","hoto":"1"},{"lat":"26.4457","lng":"74.644","name":"AJMRSTGUESR001","address":"Sap : I-RJ-AJMR-ENB-0012<br\/>Loopback : 172.22.108.166<br\/>Up-Time : 46 days, 22:50:28.54","type":"ESR","status":"1","hoto":"1"},{"lat":"26.4827","lng":"74.6391","name":"AJMRCHRTESR001","address":"Sap : I-RJ-AJMR-ENB-0027<br\/>Loopback : 172.22.108.168<br\/>Up-Time : 19 days, 14:11:37.29","type":"ESR","status":"1","hoto":"1"},{"lat":"26.4892","lng":"74.6567","name":"AJMRLHKNESR001","address":"Sap : I-RJ-AJMR-ENB-0030<br\/>Loopback : 172.22.108.171<br\/> ","type":"ESR","status":"0","hoto":"1"},{"lat":"26.4601","lng":"74.6549","name":"AJMRKUDNESR001","address":"Sap : I-RJ-AJMR-ENB-0033<br\/>Loopback : 172.22.108.164<br\/>Up-Time : 1 day, 19:17:34.87","type":"ESR","status":"1","hoto":"1"},{"lat":"26.4511","lng":"74.6689","name":"AJMRBNKCESR001","address":"Sap : I-RJ-AJMR-ENB-0034<br\/>Loopback : 172.22.108.179<br\/>Up-Time : 24 days, 13:09:01.44","type":"ESR","status":"1","hoto":"1"},{"lat":"26.4438","lng":"74.6312","name":"AJMRPHRGESR001","address":"Sap : I-RJ-AJMR-ENB-0035<br\/>Loopback : 172.22.108.152<br\/>Up-Time : 12 days, 14:23:17.77","type":"ESR","status":"1","hoto":"1"},{"lat":"26.44","lng":"74.6333","name":"AJMRBGWNESR001","address":"Sap : I-RJ-AJMR-ENB-0050<br\/>Loopback : 172.22.108.154<br\/>Up-Time : 9 days, 13:37:48.81","type":"ESR","status":"1","hoto":"1"},{"lat":"26.456","lng":"74.6315","name":"AJMRODGTESR001","address":"Sap : I-RJ-AJMR-ENB-0055<br\/>Loopback : 172.22.102.245<br\/>Up-Time : 11 days, 14:28:13.43","type":"ESR","status":"1","hoto":"1"},{"lat":"26.4614","lng":"74.6197","name":"AJMRNVGHESR001","address":"Sap : I-RJ-AJMR-ENB-0056<br\/>Loopback : 172.22.102.182<br\/>Up-Time : 48 days, 3:24:48.30","type":"ESR","status":"1","hoto":"1"},{"lat":"26.4641","lng":"74.6057","name":"AJMRDYNDESR001","address":"Sap : I-RJ-AJMR-ENB-0065<br\/>Loopback : 172.22.108.162<br\/>Up-Time : 44 days, 4:37:57.96","type":"ESR","status":"1","hoto":"1"},{"lat":"26.4849","lng":"74.6087","name":"AJMRGNPTESR001","address":"Sap : I-RJ-AJMR-ENB-0067<br\/>Loopback : 172.22.108.161<br\/>Up-Time : 44 days, 6:53:20.15","type":"ESR","status":"1","hoto":"1"},{"lat":"26.4687","lng":"74.6406","name":"AJMRJLNHESR001","address":"Sap : I-RJ-AJMR-ENB-0077<br\/>Loopback : 172.22.108.163<br\/>Up-Time : 44 days, 6:59:51.90","type":"ESR","status":"1","hoto":"1"},{"lat":"26.4848","lng":"74.6706","name":"AJMRMDPRESR001","address":"Sap : I-RJ-AJMR-ENB-0088<br\/>Loopback : 172.22.108.230<br\/>Up-Time : 7 days, 21:29:54.04","type":"ESR","status":"1","hoto":"1"},{"lat":"26.4911","lng":"74.6773","name":"AJMRKNKRESR001","address":"Sap : I-RJ-AJMR-ENB-0089<br\/>Loopback : 172.22.108.234<br\/>Up-Time : 44 days, 6:25:06.15","type":"ESR","status":"1","hoto":"1"},{"lat":"26.4393","lng":"74.6393","name":"AJMRRWYCESR001","address":"Sap : I-RJ-AJMR-ENB-0095<br\/>Loopback : 172.22.100.47<br\/>Up-Time : 44 days, 11:30:11.05","type":"ESR","status":"1","hoto":"1"},{"lat":"26.4826","lng":"74.664","name":"AJMRAJMRESR012","address":"Sap : I-RJ-AJMR-ENB-0096<br\/>Loopback : 172.22.108.231<br\/>Up-Time : 1 day, 13:04:50.33","type":"ESR","status":"1","hoto":"1"},{"lat":"26.3978","lng":"74.666","name":"AJMRMKPRESR001","address":"Sap : I-RJ-AJMR-ENB-0098<br\/>Loopback : 172.22.108.232<br\/>Up-Time : 8 days, 14:44:17.51","type":"ESR","status":"1","hoto":"1"},{"lat":"26.4352","lng":"74.6289","name":"AJMRSNDIESR001","address":"Sap : I-RJ-AJMR-ENB-6002<br\/>Loopback : 172.22.108.153<br\/>Up-Time : 44 days, 6:58:42.00","type":"ESR","status":"1","hoto":"1"},{"lat":"26.4534","lng":"74.6326","name":"AJMRPRAVESR001","address":"Sap : I-RJ-AJMR-ENB-6003<br\/>Loopback : 172.22.109.33<br\/>Up-Time : 4 days, 22:39:06.60","type":"ESR","status":"1","hoto":"1"},{"lat":"26.498","lng":"74.6293","name":"AJMRBLDVESR001","address":"Sap : I-RJ-AJMR-ENB-6006<br\/>Loopback : 172.22.108.175<br\/>Up-Time : 44 days, 5:29:18.40","type":"ESR","status":"1","hoto":"1"},{"lat":"26.4868","lng":"74.627","name":"AJMRVISLESR001","address":"Sap : I-RJ-AJMR-ENB-6007<br\/>Loopback : 172.22.108.157<br\/>Up-Time : 19 days, 22:11:13.21","type":"ESR","status":"1","hoto":"1"},{"lat":"26.4707","lng":"74.6054","name":"AJMRKOTRESR001","address":"Sap : I-RJ-AJMR-ENB-6008<br\/>Loopback : 172.22.108.159<br\/>Up-Time : 44 days, 6:59:06.33","type":"ESR","status":"1","hoto":"1"},{"lat":"26.4184","lng":"74.636","name":"AJMRGRMNESR001","address":"Sap : I-RJ-AJMR-ENB-6009<br\/>Loopback : 172.22.108.233<br\/>Up-Time : 44 days, 6:29:10.80","type":"ESR","status":"1","hoto":"1"},{"lat":"26.4407","lng":"74.6652","name":"AJMRSIVHESR001","address":"Sap : I-RJ-AJMR-ENB-6010<br\/>Loopback : 172.22.108.170<br\/>Up-Time : 9 days, 22:00:33.64","type":"ESR","status":"1","hoto":"1"},{"lat":"26.419","lng":"74.6526","name":"AJMRADRHPAR001","address":"Sap : I-RJ-AJMR-ENB-6012<br\/>Loopback : 172.16.96.159<br\/>Up-Time : 67 days, 7:27:53.76","type":"PAR","status":"1","hoto":"1"},{"lat":"26.4291","lng":"74.6359","name":"AJMRPNSLESR001","address":"Sap : I-RJ-AJMR-ENB-6013<br\/>Loopback : 172.22.108.173<br\/>Up-Time : 2 days, 20:14:14.25","type":"ESR","status":"1","hoto":"1"},{"lat":"26.48","lng":"74.6472","name":"AJMRSRWNESR001","address":"Sap : I-RJ-AJMR-ENB-6015<br\/>Loopback : 172.22.101.59<br\/>Up-Time : 47 days, 5:07:13.40","type":"ESR","status":"1","hoto":"1"},{"lat":"26.4534","lng":"74.674","name":"AJMRIDSLPAR001","address":"Sap : I-RJ-AJMR-ENB-6016<br\/>Loopback : 172.16.96.158<br\/>Up-Time : 67 days, 7:25:12.78","type":"PAR","status":"1","hoto":"1"},{"lat":"26.4507","lng":"74.6482","name":"AJMRVNYNESR001","address":"Sap : I-RJ-AJMR-ENB-6017<br\/>Loopback : 172.22.108.176<br\/>Up-Time : 40 days, 6:12:31.10","type":"ESR","status":"1","hoto":"1"},{"lat":"26.445","lng":"74.6615","name":"AJMRBHRGESR001","address":"Sap : I-RJ-AJMR-ENB-6018<br\/>Loopback : 172.22.108.178<br\/>Up-Time : 44 days, 5:19:10.74","type":"ESR","status":"1","hoto":"1"},{"lat":"26.4789","lng":"74.605","name":"AJMRHRBUESR001","address":"Sap : I-RJ-AJMR-ENB-6020<br\/>Loopback : 172.22.108.160<br\/>Up-Time : 44 days, 7:00:39.39","type":"ESR","status":"1","hoto":"1"},{"lat":"26.4949","lng":"74.6296","name":"AJMRGBLKESR001","address":"Sap : I-RJ-AJMR-ENB-6024<br\/>Loopback : 172.22.108.174<br\/>Up-Time : 44 days, 5:28:53.03","type":"ESR","status":"1","hoto":"1"},{"lat":"26.4672","lng":"74.6324","name":"AJMRAGRGESR001","address":"Sap : I-RJ-AJMR-ENB-6025<br\/>Loopback : 172.22.108.158<br\/>Up-Time : 44 days, 7:00:22.79","type":"ESR","status":"1","hoto":"1"},{"lat":"26.5075","lng":"74.6933","name":"AJMRAJMRESR010","address":"Sap : I-RJ-AJMR-ENB-6027<br\/>Loopback : 172.22.108.235<br\/>Up-Time : 44 days, 6:26:34.76","type":"ESR","status":"1","hoto":"1"},{"lat":"26.531","lng":"74.729","name":"AJMRAJMRESR011","address":"Sap : I-RJ-AJMR-ENB-6028<br\/>Loopback : 172.22.101.109<br\/>Up-Time : 35 days, 13:05:03.18","type":"ESR","status":"1","hoto":"1"},{"lat":"26.5193","lng":"74.731","name":"AJMRAJMRESR003","address":"Sap : I-RJ-AJMR-ENB-6029<br\/>Loopback : 172.22.108.17<br\/>Up-Time : 32 days, 21:16:20.29","type":"ESR","status":"1","hoto":"1"},{"lat":"26.4605","lng":"74.6852","name":"AJMRMDPRESR002","address":"Sap : I-RJ-AJMR-ENB-6031<br\/>Loopback : 172.22.102.60<br\/>Up-Time : 47 days, 3:27:29.86","type":"ESR","status":"1","hoto":"1"},{"lat":"26.5559","lng":"74.7991","name":"AJMRAJMRESR006","address":"Sap : I-RJ-AJMR-ENB-9003<br\/>Loopback : 172.22.106.197<br\/>Up-Time : 8 days, 17:10:56.56","type":"ESR","status":"1","hoto":"1"},{"lat":"26.5338","lng":"74.7662","name":"AJMRAJMRESR004","address":"Sap : I-RJ-AJMR-ENB-9004<br\/>Loopback : 172.22.107.61<br\/>Up-Time : 16 days, 15:46:58.40","type":"ESR","status":"1","hoto":"1"},{"lat":"26.3379","lng":"74.5612","name":"AJMRAJMRESR008","address":"Sap : I-RJ-AJMR-ENB-9007<br\/>Loopback : 172.22.101.185<br\/>Up-Time : 19 days, 12:15:39.12","type":"ESR","status":"1","hoto":"1"},{"lat":"26.4735","lng":"74.6363","name":"AJMRCVLLESR001","address":"Sap : I-RJ-AJMR-ENB-B001<br\/>Loopback : 172.22.108.229<br\/>Up-Time : 20 days, 16:53:36.53","type":"ESR","status":"1","hoto":"1"},{"lat":"26.4498","lng":"74.6313","name":"AJMRSNTIESR001","address":"Sap : I-RJ-AJMR-ENB-B002<br\/>Loopback : 172.22.108.151<br\/>Up-Time : 49 days, 6:17:10.86","type":"ESR","status":"1","hoto":"1"},{"lat":"26.4526","lng":"74.6554","name":"AJMRCRPFESR001","address":"Sap : I-RJ-AJMR-ENB-I001<br\/>Loopback : 172.22.108.177<br\/>Up-Time : 44 days, 5:17:28.57","type":"ESR","status":"1","hoto":"1"},{"lat":"26.4686","lng":"74.6086","name":"AJMRDYNDESR002","address":"Sap : I-RJ-AJMR-ENB-I003<br\/>Loopback : 172.22.102.5<br\/>Up-Time : 47 days, 4:31:37.28","type":"ESR","status":"1","hoto":"1"},{"lat":"26.4608","lng":"74.6164","name":"AJMRJYTNESR002","address":"Sap : I-RJ-AJMR-ENB-I004<br\/>Loopback : 172.22.102.183<br\/>Up-Time : 32 days, 13:21:29.70","type":"ESR","status":"1","hoto":"1"},{"lat":"26.4911","lng":"74.6179","name":"AJMRHNMNESR001","address":"Sap : I-RJ-AJMR-ENB-V001<br\/>Loopback : 172.22.108.155<br\/>Up-Time : 8 days, 10:26:14.56","type":"ESR","status":"1","hoto":"1"},{"lat":"26.4242","lng":"74.6431","name":"AJMRSNGMESR001","address":"Sap : I-RJ-AJMR-ENB-V007<br\/>Loopback : 172.22.102.4<br\/>Up-Time : 26 days, 15:12:27.70","type":"ESR","status":"1","hoto":"1"},{"lat":"26.4662","lng":"74.6159","name":"AJMRDYNDESR003","address":"Sap : I-RJ-AJMR-ENB-V008<br\/>Loopback : 172.22.109.83<br\/>Up-Time : 44 days, 5:09:54.68","type":"ESR","status":"1","hoto":"1"},{"lat":"26.472","lng":"74.6429","name":"AJMRCVLLESR002","address":"Sap : I-RJ-AJMR-ENB-V013<br\/>Loopback : 172.22.101.178<br\/>Up-Time : 3 days, 15:44:44.09","type":"ESR","status":"1","hoto":"1"},{"lat":"26.46","lng":"74.6814","name":"AJMRMDPRESR003","address":"Sap : I-RJ-AJMR-ENB-V016<br\/>Loopback : 172.22.102.42<br\/>Up-Time : 21 days, 18:49:40.43","type":"ESR","status":"1","hoto":"1"},{"lat":"26.4265","lng":"74.6294","name":"AJMRGVDNESR001","address":"Sap : I-RJ-AJMR-ENB-V019<br\/>Loopback : 172.22.101.150<br\/>Up-Time : 37 days, 13:44:03.93","type":"ESR","status":"1","hoto":"1"},{"lat":"26.4304","lng":"74.6512","name":"AJMRNEKRESR002","address":"Sap : I-RJ-AJMR-ENB-V020<br\/>Loopback : 172.22.102.28<br\/>Up-Time : 10 days, 19:34:25.82","type":"ESR","status":"1","hoto":"1"},{"lat":"24.4145","lng":"76.5691","name":"ALRAALRAESR003","address":"Sap : I-RJ-ALRA-ENB-6000<br\/>Loopback : 172.22.97.42<br\/>Up-Time : 44 days, 3:54:43.55","type":"ESR","status":"1","hoto":"1"},{"lat":"24.4189","lng":"76.4837","name":"ALRAALRAESR002","address":"Sap : I-RJ-ALRA-ENB-9007<br\/>Loopback : 172.22.101.149<br\/>Up-Time : 4 days, 22:25:05.50","type":"ESR","status":"1","hoto":"1"},{"lat":"24.4102","lng":"76.4307","name":"ALRAALRAESR006","address":"Sap : I-RJ-ALRA-ENB-H001<br\/>Loopback : 172.22.101.138<br\/>Up-Time : 18 days, 11:18:17.74","type":"ESR","status":"1","hoto":"1"},{"lat":"24.4175","lng":"76.5618","name":"ALRAALRAESR005","address":"Sap : I-RJ-ALRA-ENB-I001<br\/>Loopback : 172.22.105.134<br\/>Up-Time : 33 days, 11:11:46.43","type":"ESR","status":"1","hoto":"1"},{"lat":"27.5665","lng":"76.6275","name":"ALWRRJNGPAR001","address":"Sap : I-RJ-ALWR-AG2-0001<br\/>Loopback : 172.16.48.88<br\/>Up-Time : 55 days, 3:22:39.84","type":"PAR","status":"1","hoto":"1"},{"lat":"27.5203","lng":"76.6062","name":"ALWRMLVIESR001","address":"Sap : I-RJ-ALWR-ENB-0023<br\/>Loopback : 172.22.107.17<br\/>Up-Time : 7 days, 15:46:07.64","type":"ESR","status":"1","hoto":"1"},{"lat":"27.532","lng":"76.6096","name":"ALWRMLVIESR002","address":"Sap : I-RJ-ALWR-ENB-6000<br\/>Loopback : 172.22.109.138<br\/>Up-Time : 26 days, 17:16:19.60","type":"ESR","status":"1","hoto":"1"},{"lat":"27.5713","lng":"76.6253","name":"ALWRJNKPESR001","address":"Sap : I-RJ-ALWR-ENB-6002<br\/>Loopback : 172.22.109.142<br\/>Up-Time : 58 days, 16:11:11.59","type":"ESR","status":"1","hoto":"1"},{"lat":"27.5634","lng":"76.6139","name":"ALWRINDRESR001","address":"Sap : I-RJ-ALWR-ENB-6004<br\/>Loopback : 172.22.109.150<br\/>Up-Time : 44 days, 6:19:51.98","type":"ESR","status":"1","hoto":"1"},{"lat":"27.5632","lng":"76.6235","name":"ALWRMNDIESR001","address":"Sap : I-RJ-ALWR-ENB-6008<br\/>Loopback : 172.22.109.141<br\/>Up-Time : 15 days, 9:31:18.37","type":"ESR","status":"1","hoto":"1"},{"lat":"27.5593","lng":"76.643","name":"ALWRSKTIESR001","address":"Sap : I-RJ-ALWR-ENB-6009<br\/>Loopback : 172.22.109.143<br\/>Up-Time : 53 days, 4:01:06.07","type":"ESR","status":"1","hoto":"1"},{"lat":"27.3667","lng":"76.6539","name":"ALWRALWRESR009","address":"Sap : I-RJ-ALWR-ENB-6018<br\/>Loopback : 172.22.107.15<br\/>Up-Time : 3 days, 11:42:02.40","type":"ESR","status":"1","hoto":"1"},{"lat":"27.454","lng":"76.6174","name":"ALWRALWRESR004","address":"Sap : I-RJ-ALWR-ENB-9012<br\/>Loopback : 172.22.106.176<br\/>Up-Time : 22:40:20.88","type":"ESR","status":"1","hoto":"1"},{"lat":"27.5371","lng":"76.6374","name":"ALWRSMLLESR001","address":"Sap : I-RJ-ALWR-ENB-V009<br\/>Loopback : 172.22.109.148<br\/>Up-Time : 4 days, 20:14:23.71","type":"ESR","status":"1","hoto":"1"},{"lat":"27.5549","lng":"76.656","name":"ALWRALWRESR008","address":"Sap : I-RJ-ALWR-ENB-V010<br\/>Loopback : 172.22.109.151<br\/>Up-Time : 4 days, 16:25:24.26","type":"ESR","status":"1","hoto":"1"},{"lat":"25.2365","lng":"73.9873","name":"SRDGSRDGESR001","address":"Sap : I-RJ-AMET-ENB-6002<br\/>Loopback : 172.22.106.49<br\/>Up-Time : 16 days, 12:43:47.90","type":"ESR","status":"1","hoto":"1"},{"lat":"29.0276","lng":"73.0658","name":"ANGRANGRESR001","address":"Sap : I-RJ-ANGR-ENB-6001<br\/>Loopback : 172.22.73.118<br\/>Up-Time : 49 days, 3:47:49.99","type":"ESR","status":"1","hoto":"1"},{"lat":"29.0935","lng":"73.1369","name":"ANUGANUGESR002","address":"Sap : I-RJ-ANUG-ENB-6002<br\/>Loopback : 172.22.73.119<br\/>Up-Time : 53 days, 2:58:52.60","type":"ESR","status":"1","hoto":"1"},{"lat":"29.1952","lng":"73.2058","name":"ANUGANUGESR001","address":"Sap : I-RJ-ANUG-ENB-6003<br\/>Loopback : 172.22.73.121<br\/>Up-Time : 17 days, 7:40:39.51","type":"ESR","status":"1","hoto":"1"},{"lat":"25.6443","lng":"74.2394","name":"ASNDASNDESR004","address":"Sap : I-RJ-ASND-ENB-6000<br\/>Loopback : 172.22.97.138<br\/>Up-Time : 3 days, 13:43:12.64","type":"ESR","status":"1","hoto":"1"},{"lat":"25.7325","lng":"74.3282","name":"ASNDASNDESR001","address":"Sap : I-RJ-ASND-ENB-6001<br\/>Loopback : 172.22.105.151<br\/>Up-Time : 47 days, 5:17:45.35","type":"ESR","status":"1","hoto":"1"},{"lat":"25.6825","lng":"74.5029","name":"ASNDASNDESR002","address":"Sap : I-RJ-ASND-ENB-6005<br\/>Loopback : 172.22.102.88<br\/>Up-Time : 47 days, 4:55:33.39","type":"ESR","status":"1","hoto":"1"},{"lat":"24.982","lng":"76.5887","name":"ATRUATRUESR002","address":"Sap : I-RJ-ATRU-ENB-6003<br\/>Loopback : 172.22.98.98<br\/>Up-Time : 15 days, 21:04:36.88","type":"ESR","status":"1","hoto":"1"},{"lat":"24.7566","lng":"76.7332","name":"KWIIKWIIESR001","address":"Sap : I-RJ-ATRU-ENB-6004<br\/>Loopback : 172.22.98.129<br\/>Up-Time : 4 days, 3:37:55.94","type":"ESR","status":"1","hoto":"1"},{"lat":"24.8774","lng":"76.6693","name":"ATRUATRUESR001","address":"Sap : I-RJ-ATRU-ENB-I001<br\/>Loopback : 172.22.98.128<br\/>Up-Time : 42 days, 2:45:09.99","type":"ESR","status":"1","hoto":"1"},{"lat":"25.4134","lng":"71.3497","name":"BACTBACTESR001","address":"Sap : I-RJ-BACT-ENB-6000<br\/>Loopback : 172.22.106.2<br\/>Up-Time : 34 days, 12:02:00.65","type":"ESR","status":"1","hoto":"1"},{"lat":"23.4038","lng":"74.2693","name":"BADOBADOESR001","address":"Sap : I-RJ-BADO-ENB-I001<br\/>Loopback : 172.22.106.107<br\/>Up-Time : 21 days, 22:11:21.61","type":"ESR","status":"1","hoto":"1"},{"lat":"25.2019","lng":"72.5885","name":"BAGABAGAESR001","address":"Sap : I-RJ-BAGA-ENB-6000<br\/>Loopback : 172.22.106.27<br\/>Up-Time : 49 days, 6:18:52.29","type":"ESR","status":"1","hoto":"1"},{"lat":"25.1905","lng":"73.2865","name":"BALIBALIPAR001","address":"Sap : I-RJ-BALI-ENB-6001<br\/>Loopback : 172.16.49.153<br\/> ","type":"PAR","status":"0","hoto":"1"},{"lat":"25.1916","lng":"73.3877","name":"BALIBALIESR001","address":"Sap : I-RJ-BALI-ENB-6005<br\/>Loopback : 172.22.102.172<br\/>Up-Time : 4 days, 14:40:19.76","type":"ESR","status":"1","hoto":"1"},{"lat":"23.7879","lng":"73.524","name":"BCWRBCWRESR001","address":"Sap : I-RJ-BCWR-ENB-6000<br\/>Loopback : 172.22.96.242<br\/>Up-Time : 26 days, 14:02:04.65","type":"ESR","status":"1","hoto":"1"},{"lat":"27.0492","lng":"76.5735","name":"BDKUBDKUESR001","address":"Sap : I-RJ-BDKU-ENB-6000<br\/>Loopback : 172.22.96.65<br\/>Up-Time : 1 day, 20:14:50.03","type":"ESR","status":"1","hoto":"1"},{"lat":"28.9492","lng":"75.2116","name":"BDRABDRAESR005","address":"Sap : I-RJ-BDRA-ENB-6000<br\/>Loopback : 172.22.76.45<br\/>Up-Time : 53 days, 3:02:21.59","type":"ESR","status":"1","hoto":"1"},{"lat":"29.2354","lng":"75.0293","name":"BDRABDRAESR003","address":"Sap : I-RJ-BDRA-ENB-6003<br\/>Loopback : 172.22.76.43<br\/>Up-Time : 2 days, 4:18:51.18","type":"ESR","status":"1","hoto":"1"},{"lat":"29.1051","lng":"75.1686","name":"BDRABDRAESR008","address":"Sap : I-RJ-BDRA-ENB-6005<br\/>Loopback : 172.22.64.65<br\/>Up-Time : 24 days, 15:26:21.21","type":"ESR","status":"1","hoto":"1"},{"lat":"29.0744","lng":"75.3686","name":"BDRABDRAESR001","address":"Sap : I-RJ-BDRA-ENB-6006<br\/>Loopback : 172.22.76.116<br\/>Up-Time : 33 days, 20:22:13.72","type":"ESR","status":"1","hoto":"1"},{"lat":"26.0923","lng":"74.303","name":"BEWRGJNDESR001","address":"Sap : I-RJ-BEWR-ENB-0005<br\/>Loopback : 172.22.108.185<br\/>Up-Time : 44 days, 5:10:25.83","type":"ESR","status":"1","hoto":"1"},{"lat":"26.1185","lng":"74.319","name":"BEWRSRBLESR001","address":"Sap : I-RJ-BEWR-ENB-0018<br\/>Loopback : 172.22.109.34<br\/>Up-Time : 49 days, 6:05:06.80","type":"ESR","status":"1","hoto":"1"},{"lat":"26.135","lng":"74.352","name":"BEWRBEWRESR002","address":"Sap : I-RJ-BEWR-ENB-6000<br\/>Loopback : 172.22.99.89<br\/>Up-Time : 18 days, 17:30:59.27","type":"ESR","status":"1","hoto":"1"},{"lat":"25.9432","lng":"74.2023","name":"BEWRBEWRESR001","address":"Sap : I-RJ-BEWR-ENB-6001<br\/>Loopback : 172.22.99.75<br\/>Up-Time : 0:40:05.11","type":"ESR","status":"1","hoto":"1"},{"lat":"26.0263","lng":"74.281","name":"BEWRBEWRESR006","address":"Sap : I-RJ-BEWR-ENB-6002<br\/>Loopback : 172.22.99.73<br\/>Up-Time : 3 days, 18:20:10.06","type":"ESR","status":"1","hoto":"1"},{"lat":"26.0572","lng":"74.2959","name":"BEWRBEWRESR003","address":"Sap : I-RJ-BEWR-ENB-6003<br\/>Loopback : 172.22.99.72<br\/>Up-Time : 40 days, 4:57:49.11","type":"ESR","status":"1","hoto":"1"},{"lat":"25.9834","lng":"74.2402","name":"BEWRBEWRESR005","address":"Sap : I-RJ-BEWR-ENB-6004<br\/>Loopback : 172.22.99.74<br\/>Up-Time : 48 days, 13:10:24.64","type":"ESR","status":"1","hoto":"1"},{"lat":"26.1125","lng":"74.3346","name":"BEWRGYTRESR001","address":"Sap : I-RJ-BEWR-ENB-6005<br\/>Loopback : 172.22.107.69<br\/>Up-Time : 19:39:47.03","type":"ESR","status":"1","hoto":"1"},{"lat":"26.1033","lng":"74.3115","name":"BEWRKSNGESR001","address":"Sap : I-RJ-BEWR-ENB-6006<br\/>Loopback : 172.22.108.186<br\/>Up-Time : 21 days, 16:21:10.22","type":"ESR","status":"1","hoto":"1"},{"lat":"26.0783","lng":"74.3106","name":"BEWRANJBESR001","address":"Sap : I-RJ-BEWR-ENB-6007<br\/>Loopback : 172.22.107.64<br\/>Up-Time : 5 days, 10:25:41.15","type":"ESR","status":"1","hoto":"1"},{"lat":"26.1064","lng":"74.3199","name":"BEWRCHMPESR001","address":"Sap : I-RJ-BEWR-ENB-6009<br\/>Loopback : 172.22.108.184<br\/>Up-Time : 44 days, 5:17:46.23","type":"ESR","status":"1","hoto":"1"},{"lat":"26.1028","lng":"74.3189","name":"BEWRLHRNESR001","address":"Sap : I-RJ-BEWR-ENB-6010<br\/>Loopback : 172.22.108.183<br\/>Up-Time : 44 days, 5:14:55.86","type":"ESR","status":"1","hoto":"1"},{"lat":"26.108","lng":"74.3156","name":"BEWRBWRSESR001","address":"Sap : I-RJ-BEWR-ENB-6011<br\/>Loopback : 172.22.108.182<br\/>Up-Time : 44 days, 5:08:13.72","type":"ESR","status":"1","hoto":"1"},{"lat":"26.0982","lng":"74.3269","name":"BEWRBRDBESR001","address":"Sap : I-RJ-BEWR-ENB-A001<br\/>Loopback : 172.22.107.66<br\/>Up-Time : 44 days, 5:48:40.32","type":"ESR","status":"1","hoto":"1"},{"lat":"26.0909","lng":"74.3196","name":"BEWRPRTRESR001","address":"Sap : I-RJ-BEWR-ENB-B001<br\/>Loopback : 172.22.107.65<br\/>Up-Time : 44 days, 5:57:53.21","type":"ESR","status":"1","hoto":"1"},{"lat":"26.0906","lng":"74.3085","name":"BEWRBSLCESR001","address":"Sap : I-RJ-BEWR-ENB-B003<br\/>Loopback : 172.22.109.16<br\/>Up-Time : 44 days, 6:37:45.00","type":"ESR","status":"1","hoto":"1"},{"lat":"26.1008","lng":"74.3414","name":"BEWRHSBDESR001","address":"Sap : I-RJ-BEWR-ENB-I002<br\/>Loopback : 172.22.107.68<br\/>Up-Time : 44 days, 5:48:11.50","type":"ESR","status":"1","hoto":"1"},{"lat":"26.1213","lng":"74.3355","name":"BEWRDLTPESR001","address":"Sap : I-RJ-BEWR-ENB-V001<br\/>Loopback : 172.22.107.63<br\/>Up-Time : 26 days, 16:08:20.10","type":"ESR","status":"1","hoto":"1"},{"lat":"26.0822","lng":"74.3115","name":"BEWRCHDNESR001","address":"Sap : I-RJ-BEWR-ENB-V002<br\/>Loopback : 172.22.107.67<br\/>Up-Time : 49 days, 5:17:40.10","type":"ESR","status":"1","hoto":"1"},{"lat":"26.0975","lng":"74.3145","name":"BEWRSHPRESR001","address":"Sap : I-RJ-BEWR-ENB-V003<br\/>Loopback : 172.22.108.181<br\/>Up-Time : 18:21:41.39","type":"ESR","status":"1","hoto":"1"},{"lat":"24.6655","lng":"74.3215","name":"BHDSBHDSESR002","address":"Sap : I-RJ-BHDS-ENB-V001<br\/>Loopback : 172.22.102.191<br\/>Up-Time : 1 day, 19:17:59.67","type":"ESR","status":"1","hoto":"1"},{"lat":"25.368","lng":"74.6268","name":"BHLRBHCMPAR001","address":"Sap : I-RJ-BHLR-AG2-0001<br\/>Loopback : 172.16.48.1<br\/>Up-Time : 66 days, 2:52:51.77","type":"PAR","status":"1","hoto":"1"},{"lat":"25.368","lng":"74.6268","name":"BHLRBHCMPAR002","address":"Sap : I-RJ-BHLR-AG2-0001<br\/>Loopback : 172.16.49.15<br\/>Up-Time : 58 days, 5:06:05.81","type":"PAR","status":"1","hoto":"1"},{"lat":"25.3334","lng":"74.6065","name":"BHLRSNCRESR001","address":"Sap : I-RJ-BHLR-ENB-0002<br\/>Loopback : 172.22.98.4<br\/>Up-Time : 61 days, 5:42:22.65","type":"ESR","status":"1","hoto":"1"},{"lat":"25.364","lng":"74.6223","name":"BHLRCPRIESR001","address":"Sap : I-RJ-BHLR-ENB-0003<br\/>Loopback : 172.22.105.139<br\/>Up-Time : 47 days, 4:57:21.95","type":"ESR","status":"1","hoto":"1"},{"lat":"25.3332","lng":"74.634","name":"BHLRKWKDESR002","address":"Sap : I-RJ-BHLR-ENB-0006<br\/>Loopback : 172.22.97.235<br\/>Up-Time : 61 days, 0:48:04.05","type":"ESR","status":"1","hoto":"1"},{"lat":"25.347","lng":"74.6534","name":"BHLRGLZRESR001","address":"Sap : I-RJ-BHLR-ENB-0010<br\/>Loopback : 172.22.97.202<br\/>Up-Time : 61 days, 5:44:06.90","type":"ESR","status":"1","hoto":"1"},{"lat":"25.3558","lng":"74.6509","name":"BHLRTKICESR001","address":"Sap : I-RJ-BHLR-ENB-0013<br\/>Loopback : 172.22.97.214<br\/>Up-Time : 12 days, 9:45:01.37","type":"ESR","status":"1","hoto":"1"},{"lat":"25.3282","lng":"74.5835","name":"BHLRRICRESR001","address":"Sap : I-RJ-BHLR-ENB-0017<br\/>Loopback : 172.22.106.52<br\/>Up-Time : 47 days, 5:51:32.66","type":"ESR","status":"1","hoto":"1"},{"lat":"25.321","lng":"74.592","name":"BHLRRIIDESR001","address":"Sap : I-RJ-BHLR-ENB-0018<br\/>Loopback : 172.22.97.253<br\/>Up-Time : 12:36:09.35","type":"ESR","status":"1","hoto":"1"},{"lat":"25.3179","lng":"74.5728","name":"BHLRBHLRESR001","address":"Sap : I-RJ-BHLR-ENB-0019<br\/>Loopback : 172.22.106.53<br\/>Up-Time : 47 days, 5:52:35.09","type":"ESR","status":"1","hoto":"1"},{"lat":"25.3218","lng":"74.5986","name":"BHLRBLWCESR001","address":"Sap : I-RJ-BHLR-ENB-0020<br\/>Loopback : 172.22.97.250<br\/>Up-Time : 19:36:03.12","type":"ESR","status":"1","hoto":"1"},{"lat":"25.3195","lng":"74.6125","name":"BHLRBHLRESR003","address":"Sap : I-RJ-BHLR-ENB-0021<br\/>Loopback : 172.22.97.247<br\/>Up-Time : 61 days, 5:50:45.19","type":"ESR","status":"1","hoto":"1"},{"lat":"25.3216","lng":"74.628","name":"BHLRCDRSESR002","address":"Sap : I-RJ-BHLR-ENB-0022<br\/>Loopback : 172.22.97.199<br\/>Up-Time : 1 day, 12:05:24.35","type":"ESR","status":"1","hoto":"1"},{"lat":"25.3828","lng":"74.6195","name":"BHLRBHLRESR013","address":"Sap : I-RJ-BHLR-ENB-0023<br\/>Loopback : 172.22.98.175<br\/>Up-Time : 32 days, 7:54:30.89","type":"ESR","status":"1","hoto":"1"},{"lat":"25.3804","lng":"74.6425","name":"BHLRBHLRESR008","address":"Sap : I-RJ-BHLR-ENB-0024<br\/>Loopback : 172.22.106.121<br\/>Up-Time : 20 days, 21:10:41.92","type":"ESR","status":"1","hoto":"1"},{"lat":"25.3652","lng":"74.6396","name":"BHLRBLWEESR001","address":"Sap : I-RJ-BHLR-ENB-0025<br\/>Loopback : 172.22.97.223<br\/>Up-Time : 17 days, 4:42:16.59","type":"ESR","status":"1","hoto":"1"},{"lat":"25.3637","lng":"74.6429","name":"BHLRBLWDESR001","address":"Sap : I-RJ-BHLR-ENB-0026<br\/>Loopback : 172.22.97.220<br\/>Up-Time : 61 days, 5:49:14.47","type":"ESR","status":"1","hoto":"1"},{"lat":"25.3612","lng":"74.6524","name":"BHLRCHTRESR001","address":"Sap : I-RJ-BHLR-ENB-0027<br\/>Loopback : 172.22.97.217<br\/>Up-Time : 61 days, 2:56:19.75","type":"ESR","status":"1","hoto":"1"},{"lat":"25.3482","lng":"74.6789","name":"BHLRBHLRESR010","address":"Sap : I-RJ-BHLR-ENB-0029<br\/>Loopback : 172.22.106.123<br\/>Up-Time : 53 days, 5:34:35.54","type":"ESR","status":"1","hoto":"1"},{"lat":"25.3531","lng":"74.6988","name":"BHLRBHLRESR006","address":"Sap : I-RJ-BHLR-ENB-0030<br\/>Loopback : 172.22.106.12<br\/>Up-Time : 61 days, 1:57:24.55","type":"ESR","status":"1","hoto":"1"},{"lat":"25.331","lng":"74.6666","name":"BHLRBHLRESR011","address":"Sap : I-RJ-BHLR-ENB-0032<br\/>Loopback : 172.22.106.124<br\/>Up-Time : 11 days, 14:42:14.32","type":"ESR","status":"1","hoto":"1"},{"lat":"25.3271","lng":"74.5924","name":"BHLRBLRDESR001","address":"Sap : I-RJ-BHLR-ENB-6000<br\/>Loopback : 172.22.98.1<br\/>Up-Time : 61 days, 0:39:48.92","type":"ESR","status":"1","hoto":"1"},{"lat":"25.339","lng":"74.6054","name":"BHLRPRTNESR001","address":"Sap : I-RJ-BHLR-ENB-6002<br\/>Loopback : 172.22.98.148<br\/>Up-Time : 40 days, 4:54:47.54","type":"ESR","status":"1","hoto":"1"},{"lat":"25.3576","lng":"74.6436","name":"BHLRSJYCESR001","address":"Sap : I-RJ-BHLR-ENB-6003<br\/>Loopback : 172.22.97.208<br\/>Up-Time : 61 days, 5:50:51.11","type":"ESR","status":"1","hoto":"1"},{"lat":"25.3254","lng":"74.6395","name":"BHLRKWKDESR001","address":"Sap : I-RJ-BHLR-ENB-6004<br\/>Loopback : 172.22.97.196<br\/>Up-Time : 61 days, 5:43:10.24","type":"ESR","status":"1","hoto":"1"},{"lat":"25.3424","lng":"74.6155","name":"BHLRJBWRESR001","address":"Sap : I-RJ-BHLR-ENB-6008<br\/>Loopback : 172.22.98.149<br\/>Up-Time : 42 days, 2:28:42.31","type":"ESR","status":"1","hoto":"1"},{"lat":"25.3426","lng":"74.6399","name":"BHLRNGRIESR001","address":"Sap : I-RJ-BHLR-ENB-6010<br\/>Loopback : 172.22.98.25<br\/>Up-Time : 61 days, 1:51:52.13","type":"ESR","status":"1","hoto":"1"},{"lat":"25.3276","lng":"74.6246","name":"BHLRCDRSESR001","address":"Sap : I-RJ-BHLR-ENB-6011<br\/>Loopback : 172.22.97.238<br\/>Up-Time : 61 days, 5:46:20.21","type":"ESR","status":"1","hoto":"1"},{"lat":"25.3592","lng":"74.622","name":"BHLRSHVNESR001","address":"Sap : I-RJ-BHLR-ENB-6013<br\/>Loopback : 172.22.105.138<br\/>Up-Time : 47 days, 5:03:36.22","type":"ESR","status":"1","hoto":"1"},{"lat":"25.3458","lng":"74.633","name":"BHLRGUJRESR001","address":"Sap : I-RJ-BHLR-ENB-6015<br\/>Loopback : 172.22.98.13<br\/>Up-Time : 61 days, 5:42:35.42","type":"ESR","status":"1","hoto":"1"},{"lat":"25.3352","lng":"74.6215","name":"BHLRAZDNESR001","address":"Sap : I-RJ-BHLR-ENB-6016<br\/>Loopback : 172.22.97.241<br\/>Up-Time : 44 days, 4:12:33.06","type":"ESR","status":"1","hoto":"1"},{"lat":"25.3523","lng":"74.6533","name":"BHLRSRVHESR001","address":"Sap : I-RJ-BHLR-ENB-6017<br\/>Loopback : 172.22.97.211<br\/>Up-Time : 61 days, 5:52:15.35","type":"ESR","status":"1","hoto":"1"},{"lat":"25.293","lng":"74.5419","name":"BHLRBHLRESR016","address":"Sap : I-RJ-BHLR-ENB-6018<br\/>Loopback : 172.22.104.18<br\/>Up-Time : 53 days, 4:25:15.38","type":"ESR","status":"1","hoto":"1"},{"lat":"25.2352","lng":"74.6912","name":"BHLRBHLRESR012","address":"Sap : I-RJ-BHLR-ENB-6020<br\/>Loopback : 172.22.107.51<br\/>Up-Time : 3 days, 8:40:20.53","type":"ESR","status":"1","hoto":"1"},{"lat":"25.2267","lng":"74.6239","name":"BHLRBHLRESR005","address":"Sap : I-RJ-BHLR-ENB-6021<br\/>Loopback : 172.22.104.149<br\/>Up-Time : 47 days, 4:33:20.72","type":"ESR","status":"1","hoto":"1"},{"lat":"25.3494","lng":"74.6952","name":"BHLRBHLRESR007","address":"Sap : I-RJ-BHLR-ENB-6023<br\/>Loopback : 172.22.106.120<br\/>Up-Time : 61 days, 6:07:18.40","type":"ESR","status":"1","hoto":"1"},{"lat":"25.3723","lng":"74.6655","name":"BHLRBHLRESR009","address":"Sap : I-RJ-BHLR-ENB-6024<br\/>Loopback : 172.22.106.122<br\/>Up-Time : 61 days, 4:07:29.53","type":"ESR","status":"1","hoto":"1"},{"lat":"25.3815","lng":"74.5791","name":"BHLRBHLRESR004","address":"Sap : I-RJ-BHLR-ENB-9006<br\/>Loopback : 172.22.106.119<br\/>Up-Time : 2 days, 18:59:23.52","type":"ESR","status":"1","hoto":"1"},{"lat":"25.3734","lng":"74.6253","name":"BHLRRMVHESR001","address":"Sap : I-RJ-BHLR-ENB-B001<br\/>Loopback : 172.22.97.232<br\/>Up-Time : 34 days, 13:03:00.38","type":"ESR","status":"1","hoto":"1"},{"lat":"25.3944","lng":"74.6148","name":"BHLRBHLRESR017","address":"Sap : I-RJ-BHLR-ENB-V001<br\/>Loopback : 172.22.98.176<br\/>Up-Time : 42 days, 1:31:01.53","type":"ESR","status":"1","hoto":"1"},{"lat":"25.3479","lng":"74.6475","name":"BHLRJUWSESR002","address":"Sap : I-RJ-BHLR-ENB-V002<br\/>Loopback : 172.22.97.205<br\/>Up-Time : 61 days, 5:44:19.98","type":"ESR","status":"1","hoto":"1"},{"lat":"25.3347","lng":"74.6524","name":"BHLRBWNIESR001","address":"Sap : I-RJ-BHLR-ENB-V003<br\/>Loopback : 172.22.98.10<br\/>Up-Time : 8 days, 12:57:50.40","type":"ESR","status":"1","hoto":"1"},{"lat":"25.3449","lng":"74.6288","name":"BHLRABJIESR001","address":"Sap : I-RJ-BHLR-ENB-V004<br\/>Loopback : 172.22.97.244<br\/>Up-Time : 53 days, 2:42:27.22","type":"ESR","status":"1","hoto":"1"},{"lat":"25.3391","lng":"74.6403","name":"BHLRSDUNESR001","address":"Sap : I-RJ-BHLR-ENB-V005<br\/>Loopback : 172.22.99.40<br\/>Up-Time : 42 days, 1:29:56.61","type":"ESR","status":"1","hoto":"1"},{"lat":"25.3308","lng":"74.6433","name":"BHLRNKTHESR001","address":"Sap : I-RJ-BHLR-ENB-V006<br\/>Loopback : 172.22.98.217<br\/>Up-Time : 42 days, 3:08:52.47","type":"ESR","status":"1","hoto":"1"},{"lat":"25.3594","lng":"74.6321","name":"BHLRBLRCESR001","address":"Sap : I-RJ-BHLR-ENB-W001<br\/>Loopback : 172.22.98.147<br\/>Up-Time : 42 days, 2:29:28.47","type":"ESR","status":"1","hoto":"1"},{"lat":"25.736","lng":"74.0797","name":"BHMNBHMNESR001","address":"Sap : I-RJ-BHMN-ENB-6002<br\/>Loopback : 172.22.106.106<br\/>Up-Time : 6 days, 13:26:57.67","type":"ESR","status":"1","hoto":"1"},{"lat":"25.4294","lng":"73.8215","name":"BHMNBHMNESR002","address":"Sap : I-RJ-BHMN-ENB-6005<br\/>Loopback : 172.22.106.104<br\/>Up-Time : 27 days, 17:20:57.52","type":"ESR","status":"1","hoto":"1"},{"lat":"25.5108","lng":"73.8607","name":"BHMNBHMNESR010","address":"Sap : I-RJ-BHMN-ENB-6007<br\/>Loopback : 172.22.99.83<br\/>Up-Time : 2 days, 12:25:56.81","type":"ESR","status":"1","hoto":"1"},{"lat":"25.466","lng":"73.8399","name":"BHMNBHMNESR003","address":"Sap : I-RJ-BHMN-ENB-9008<br\/>Loopback : 172.22.101.117<br\/>Up-Time : 27 days, 17:19:51.70","type":"ESR","status":"1","hoto":"1"},{"lat":"25.7984","lng":"74.0955","name":"BHMNBHMNESR006","address":"Sap : I-RJ-BHMN-ENB-V002<br\/>Loopback : 172.22.99.77<br\/>Up-Time : 8 days, 13:44:49.75","type":"ESR","status":"1","hoto":"1"},{"lat":"27.8463","lng":"76.2579","name":"BHRRBHRRESR002","address":"Sap : I-RJ-BHRR-ENB-6001<br\/>Loopback : 172.22.96.221<br\/>Up-Time : 15:38:25.53","type":"ESR","status":"1","hoto":"1"},{"lat":"27.8995","lng":"76.3","name":"BHRRBHRRESR006","address":"Sap : I-RJ-BHRR-ENB-6003<br\/>Loopback : 172.22.96.217<br\/>Up-Time : 7 days, 22:52:56.34","type":"ESR","status":"1","hoto":"1"},{"lat":"27.8878","lng":"76.2855","name":"BHRRBHRRESR004","address":"Sap : I-RJ-BHRR-ENB-6004<br\/>Loopback : 172.22.96.220<br\/>Up-Time : 8 days, 12:51:11.05","type":"ESR","status":"1","hoto":"1"},{"lat":"27.8925","lng":"76.284","name":"BHRRBHRRESR005","address":"Sap : I-RJ-BHRR-ENB-6005<br\/>Loopback : 172.22.96.219<br\/>Up-Time : 9 days, 14:48:32.93","type":"ESR","status":"1","hoto":"1"},{"lat":"27.9688","lng":"76.3055","name":"BHRRBHRRESR010","address":"Sap : I-RJ-BHRR-ENB-6006<br\/>Loopback : 172.22.102.162<br\/>Up-Time : 6 days, 17:06:08.01","type":"ESR","status":"1","hoto":"1"},{"lat":"27.9994","lng":"76.4541","name":"BHRRBHRRESR003","address":"Sap : I-RJ-BHRR-ENB-6007<br\/>Loopback : 172.22.96.214<br\/>Up-Time : 17 days, 12:50:39.54","type":"ESR","status":"1","hoto":"1"},{"lat":"27.9589","lng":"76.3667","name":"BHRRBHRRESR007","address":"Sap : I-RJ-BHRR-ENB-9001<br\/>Loopback : 172.22.96.216<br\/>Up-Time : 2 days, 16:56:19.11","type":"ESR","status":"1","hoto":"1"},{"lat":"26.8065","lng":"73.34","name":"BIHNBIHNESR002","address":"Sap : I-RJ-BIHN-ENB-6004<br\/>Loopback : 172.22.106.62<br\/>Up-Time : 31 days, 21:03:47.37","type":"ESR","status":"1","hoto":"1"},{"lat":"26.7107","lng":"73.2971","name":"BIHNBIHNESR011","address":"Sap : I-RJ-BIHN-ENB-6008<br\/>Loopback : 172.22.106.173<br\/>Up-Time : 1 day, 12:08:58.64","type":"ESR","status":"1","hoto":"1"},{"lat":"26.5725","lng":"73.1513","name":"BIHNBIHNESR008","address":"Sap : I-RJ-BIHN-ENB-6012<br\/>Loopback : 172.22.106.174<br\/>Up-Time : 42 days, 4:04:35.91","type":"ESR","status":"1","hoto":"1"},{"lat":"26.7635","lng":"73.3418","name":"BIHNBIHNESR005","address":"Sap : I-RJ-BIHN-ENB-9011<br\/>Loopback : 172.22.96.244<br\/>Up-Time : 14 days, 13:30:04.48","type":"ESR","status":"1","hoto":"1"},{"lat":"26.8518","lng":"73.3573","name":"BIHNBIHNESR003","address":"Sap : I-RJ-BIHN-ENB-9013<br\/>Loopback : 172.22.99.168<br\/>Up-Time : 7:34:40.38","type":"ESR","status":"1","hoto":"1"},{"lat":"28.6733","lng":"73.1247","name":"BIKNBIKNESR002","address":"Sap : I-RJ-BIKN-ENB-6001<br\/>Loopback : 172.22.73.116<br\/>Up-Time : 28 days, 4:59:39.68","type":"ESR","status":"1","hoto":"1"},{"lat":"28.5905","lng":"73.073","name":"BIKNBIKNESR001","address":"Sap : I-RJ-BIKN-ENB-6008<br\/>Loopback : 172.22.73.115<br\/>Up-Time : 41 days, 1:29:24.54","type":"ESR","status":"1","hoto":"1"},{"lat":"28.2537","lng":"73.4004","name":"BIREBIREESR001","address":"Sap : I-RJ-BIRE-ENB-9001<br\/>Loopback : 172.22.76.46<br\/>Up-Time : 36 days, 10:01:20.46","type":"ESR","status":"1","hoto":"1"},{"lat":"28.0291","lng":"73.322","name":"BKNRJGFTPAR001","address":"Sap : I-RJ-BKNR-AG2-0001<br\/>Loopback : 172.16.48.86<br\/>Up-Time : ","type":"PAR","status":"1","hoto":"1"},{"lat":"28.0291","lng":"73.322","name":"BKNRJGFTPAR002","address":"Sap : I-RJ-BKNR-AG2-0001<br\/>Loopback : 172.16.46.110<br\/>Up-Time : 5 days, 13:49:38.53","type":"PAR","status":"1","hoto":"1"},{"lat":"28.1349","lng":"73.3077","name":"BKNRBKNRESR009","address":"Sap : I-RJ-BKNR-ENB-6035<br\/>Loopback : 172.22.77.170<br\/>Up-Time : 44 days, 5:56:54.19","type":"ESR","status":"1","hoto":"1"},{"lat":"27.9135","lng":"73.282","name":"BKNRBKNRESR003","address":"Sap : I-RJ-BKNR-ENB-9015<br\/>Loopback : 172.22.104.217<br\/>Up-Time : 33 days, 11:32:18.52","type":"ESR","status":"1","hoto":"1"},{"lat":"28.1353","lng":"73.3726","name":"BKNRBKNRESR006","address":"Sap : I-RJ-BKNR-ENB-9017<br\/>Loopback : 172.22.66.246<br\/>Up-Time : 43 days, 12:37:24.53","type":"ESR","status":"1","hoto":"1"},{"lat":"28.4692","lng":"72.9474","name":"BKNWBKNWESR002","address":"Sap : I-RJ-BKNW-ENB-6005<br\/>Loopback : 172.22.71.39<br\/>Up-Time : 17 days, 11:01:18.10","type":"ESR","status":"1","hoto":"1"},{"lat":"26.2254","lng":"73.6149","name":"BLRABLRAESR003","address":"Sap : I-RJ-BLRA-ENB-6000<br\/>Loopback : 172.22.105.14<br\/> ","type":"ESR","status":"0","hoto":"1"},{"lat":"26.2747","lng":"73.3756","name":"BLRABLRAESR004","address":"Sap : I-RJ-BLRA-ENB-6001<br\/>Loopback : 172.22.104.243<br\/>Up-Time : 5 days, 16:29:28.27","type":"ESR","status":"1","hoto":"1"},{"lat":"26.1816","lng":"73.7085","name":"BLRABLRAESR001","address":"Sap : I-RJ-BLRA-ENB-6002<br\/>Loopback : 172.22.104.244<br\/> ","type":"ESR","status":"0","hoto":"1"},{"lat":"26.2708","lng":"73.474","name":"BLRABLRAESR006","address":"Sap : I-RJ-BLRA-ENB-6003<br\/>Loopback : 172.22.104.246<br\/>Up-Time : 7 days, 21:41:25.15","type":"ESR","status":"1","hoto":"1"},{"lat":"26.2164","lng":"73.6801","name":"BLRABLRAESR007","address":"Sap : I-RJ-BLRA-ENB-9008<br\/>Loopback : 172.22.109.215<br\/> ","type":"ESR","status":"0","hoto":"1"},{"lat":"26.2509","lng":"73.5445","name":"BLRABLRAESR005","address":"Sap : I-RJ-BLRA-ENB-9009<br\/>Loopback : 172.22.104.245<br\/>Up-Time : 16 days, 16:14:36.60","type":"ESR","status":"1","hoto":"1"},{"lat":"25.8416","lng":"72.2232","name":"BLTRTMWSESR001","address":"Sap : I-RJ-BLTR-ENB-0006<br\/>Loopback : 172.22.105.246<br\/>Up-Time : 7 days, 14:39:48.11","type":"ESR","status":"1","hoto":"1"},{"lat":"25.8416","lng":"72.2408","name":"BLTRMHDVESR001","address":"Sap : I-RJ-BLTR-ENB-0007<br\/>Loopback : 172.22.105.25<br\/>Up-Time : 7 days, 14:45:46.73","type":"ESR","status":"1","hoto":"1"},{"lat":"25.8462","lng":"72.2493","name":"PHPDPHPDESR004","address":"Sap : I-RJ-BLTR-ENB-0008<br\/>Loopback : 172.22.105.250<br\/>Up-Time : 7 days, 14:46:28.81","type":"ESR","status":"1","hoto":"1"},{"lat":"25.8322","lng":"72.2439","name":"BLTRCHPNESR001","address":"Sap : I-RJ-BLTR-ENB-6000<br\/>Loopback : 172.22.105.252<br\/>Up-Time : 47 days, 5:09:02.08","type":"ESR","status":"1","hoto":"1"},{"lat":"25.8433","lng":"72.231","name":"BLTRIDABESR001","address":"Sap : I-RJ-BLTR-ENB-6001<br\/>Loopback : 172.22.105.247<br\/>Up-Time : 2 days, 11:18:10.23","type":"ESR","status":"1","hoto":"1"},{"lat":"25.8359","lng":"72.2375","name":"BLTRPRSIESR001","address":"Sap : I-RJ-BLTR-ENB-6002<br\/>Loopback : 172.22.105.249<br\/>Up-Time : 32 days, 11:58:19.67","type":"ESR","status":"1","hoto":"1"},{"lat":"25.8353","lng":"72.2426","name":"BLTRMDNHESR001","address":"Sap : I-RJ-BLTR-ENB-6003<br\/>Loopback : 172.22.105.248<br\/>Up-Time : 47 days, 6:20:01.66","type":"ESR","status":"1","hoto":"1"},{"lat":"25.8366","lng":"72.2318","name":"BLTRIDAAESR001","address":"Sap : I-RJ-BLTR-ENB-6004<br\/>Loopback : 172.22.105.251<br\/>Up-Time : 18:42:23.98","type":"ESR","status":"1","hoto":"1"},{"lat":"25.8299","lng":"72.2473","name":"BLTRBLJIESR001","address":"Sap : I-RJ-BLTR-ENB-B001<br\/>Loopback : 172.22.106.139<br\/>Up-Time : 6 days, 10:26:40.17","type":"ESR","status":"1","hoto":"1"},{"lat":"26.5571","lng":"76.5595","name":"BMNWBMNWESR001","address":"Sap : I-RJ-BMNW-ENB-6000<br\/>Loopback : 172.22.104.176<br\/>Up-Time : 47 days, 5:41:45.90","type":"ESR","status":"1","hoto":"1"},{"lat":"26.4944","lng":"76.5229","name":"BMNWBMNWESR002","address":"Sap : I-RJ-BMNW-ENB-9001<br\/>Loopback : 172.22.106.144<br\/>Up-Time : 17 days, 12:23:07.32","type":"ESR","status":"1","hoto":"1"},{"lat":"26.5087","lng":"76.6112","name":"BMNWBMNWESR003","address":"Sap : I-RJ-BMNW-ENB-9002<br\/>Loopback : 172.22.102.108<br\/>Up-Time : 6 days, 22:48:35.35","type":"ESR","status":"1","hoto":"1"},{"lat":"25.5052","lng":"74.674","name":"BNERBNERESR002","address":"Sap : I-RJ-BNER-ENB-6000<br\/>Loopback : 172.22.97.61<br\/>Up-Time : 42 days, 2:26:15.95","type":"ESR","status":"1","hoto":"1"},{"lat":"25.6314","lng":"74.5962","name":"BNERBNERESR001","address":"Sap : I-RJ-BNER-ENB-6003<br\/>Loopback : 172.22.96.187<br\/>Up-Time : 44 days, 4:07:15.53","type":"ESR","status":"1","hoto":"1"},{"lat":"25.5057","lng":"74.601","name":"BNERBNERESR004","address":"Sap : I-RJ-BNER-ENB-9005<br\/>Loopback : 172.22.106.208<br\/>Up-Time : 9 days, 21:56:19.68","type":"ESR","status":"1","hoto":"1"},{"lat":"29.6557","lng":"73.7839","name":"BNJYBNJYESR001","address":"Sap : I-RJ-BNJY-ENB-6000<br\/>Loopback : 172.22.76.47<br\/>Up-Time : 44 days, 5:28:39.87","type":"ESR","status":"1","hoto":"1"},{"lat":"26.3278","lng":"73.1526","name":"BNNRBNERESR001","address":"Sap : I-RJ-BNNR-ENB-6000<br\/>Loopback : 172.22.104.242<br\/>Up-Time : 49 days, 12:36:20.04","type":"ESR","status":"1","hoto":"1"},{"lat":"23.5514","lng":"74.4467","name":"BNSRNJMIESR001","address":"Sap : I-RJ-BNSR-ENB-0003<br\/>Loopback : 172.22.105.28<br\/>Up-Time : 61 days, 5:57:36.29","type":"ESR","status":"1","hoto":"1"},{"lat":"23.5559","lng":"74.4421","name":"BNSRCVLNESR001","address":"Sap : I-RJ-BNSR-ENB-0004<br\/>Loopback : 172.22.105.255<br\/>Up-Time : 40 days, 6:24:08.64","type":"ESR","status":"1","hoto":"1"},{"lat":"23.5273","lng":"74.4262","name":"BNSRBNWQESR001","address":"Sap : I-RJ-BNSR-ENB-0011<br\/>Loopback : 172.22.105.26<br\/>Up-Time : 47 days, 6:15:38.12","type":"ESR","status":"1","hoto":"1"},{"lat":"23.5446","lng":"74.4491","name":"BNSRMKWRESR001","address":"Sap : I-RJ-BNSR-ENB-6001<br\/>Loopback : 172.22.105.254<br\/>Up-Time : 39 days, 23:46:03.96","type":"ESR","status":"1","hoto":"1"},{"lat":"23.5212","lng":"74.4105","name":"BNSRBNRNESR001","address":"Sap : I-RJ-BNSR-ENB-B001<br\/>Loopback : 172.22.106.103<br\/>Up-Time : 48 days, 3:31:03.51","type":"ESR","status":"1","hoto":"1"},{"lat":"23.5591","lng":"74.435","name":"BNSRSVCYESR001","address":"Sap : I-RJ-BNSR-ENB-B002<br\/>Loopback : 172.22.105.37<br\/> ","type":"ESR","status":"0","hoto":"1"},{"lat":"23.5515","lng":"74.4389","name":"BNSRGNESESR001","address":"Sap : I-RJ-BNSR-ENB-B003<br\/>Loopback : 172.22.105.29<br\/>Up-Time : 39 days, 2:34:34.42","type":"ESR","status":"1","hoto":"1"},{"lat":"23.5363","lng":"74.4417","name":"BNSRIDRCESR001","address":"Sap : I-RJ-BNSR-ENB-S001<br\/>Loopback : 172.22.106.137<br\/>Up-Time : 19 days, 0:08:15.32","type":"ESR","status":"1","hoto":"1"},{"lat":"23.5428","lng":"74.4338","name":"BNSRBHUIESR001","address":"Sap : I-RJ-BNSR-ENB-V001<br\/>Loopback : 172.22.105.27<br\/>Up-Time : 47 days, 6:15:39.77","type":"ESR","status":"1","hoto":"1"},{"lat":"23.4838","lng":"74.3624","name":"BNSRBNSRESR001","address":"Sap : I-RJ-BNSR-ENB-V002<br\/>Loopback : 172.22.107.240<br\/>Up-Time : 38 days, 14:59:45.45","type":"ESR","status":"1","hoto":"1"},{"lat":"23.6095","lng":"74.4266","name":"BNSRBNSRESR003","address":"Sap : I-RJ-BNSR-ENB-V003<br\/>Loopback : 172.22.96.195<br\/>Up-Time : 11 days, 15:04:04.80","type":"ESR","status":"1","hoto":"1"},{"lat":"27.6882","lng":"76.4458","name":"BNSUBNSUESR002","address":"Sap : I-RJ-BNSU-ENB-6001<br\/>Loopback : 172.22.98.17<br\/>Up-Time : 16 days, 12:59:28.56","type":"ESR","status":"1","hoto":"1"},{"lat":"27.687","lng":"76.3532","name":"BNSUBNSUESR003","address":"Sap : I-RJ-BNSU-ENB-S001<br\/>Loopback : 172.22.96.162<br\/>Up-Time : 35 days, 0:07:51.99","type":"ESR","status":"1","hoto":"1"},{"lat":"26.2342","lng":"76.2158","name":"BOLIBOLIESR003","address":"Sap : I-RJ-BOLI-ENB-6001<br\/>Loopback : 172.22.102.127<br\/>Up-Time : 9 days, 3:42:57.66","type":"ESR","status":"1","hoto":"1"},{"lat":"26.3952","lng":"76.3426","name":"BOLIBOLIESR001","address":"Sap : I-RJ-BOLI-ENB-6002<br\/>Loopback : 172.22.105.150<br\/>Up-Time : 15 days, 1:49:16.14","type":"ESR","status":"1","hoto":"1"},{"lat":"24.9724","lng":"72.0499","name":"BORABORAESR001","address":"Sap : I-RJ-BORA-ENB-6001<br\/>Loopback : 172.22.106.6<br\/>Up-Time : 28 days, 13:15:07.51","type":"ESR","status":"1","hoto":"1"},{"lat":"25.1511","lng":"72.0212","name":"BORABORAESR002","address":"Sap : I-RJ-BORA-ENB-6002<br\/>Loopback : 172.22.106.7<br\/>Up-Time : 28 days, 3:33:04.97","type":"ESR","status":"1","hoto":"1"},{"lat":"24.9986","lng":"72.0546","name":"BORABORAESR004","address":"Sap : I-RJ-BORA-ENB-6003<br\/>Loopback : 172.22.106.79<br\/>Up-Time : 3 days, 20:16:53.33","type":"ESR","status":"1","hoto":"1"},{"lat":"25.2166","lng":"72.0219","name":"BORABORAESR003","address":"Sap : I-RJ-BORA-ENB-6004<br\/>Loopback : 172.22.99.106<br\/>Up-Time : 6:24:48.35","type":"ESR","status":"1","hoto":"1"},{"lat":"25.0306","lng":"71.6844","name":"BRMEBRMEESR002","address":"Sap : I-RJ-BRME-ENB-6002<br\/>Loopback : 172.22.106.4<br\/> ","type":"ESR","status":"0","hoto":"1"},{"lat":"25.2011","lng":"71.4439","name":"BRMEBRMEESR001","address":"Sap : I-RJ-BRME-ENB-6004<br\/>Loopback : 172.22.106.3<br\/>Up-Time : 4 days, 11:04:47.70","type":"ESR","status":"1","hoto":"1"},{"lat":"25.5583","lng":"72.0701","name":"BRMEBRMEESR011","address":"Sap : I-RJ-BRME-ENB-6008<br\/>Loopback : 172.22.98.126<br\/>Up-Time : 14 days, 17:40:57.32","type":"ESR","status":"1","hoto":"1"},{"lat":"25.5453","lng":"71.9329","name":"BRMEBRMEESR010","address":"Sap : I-RJ-BRME-ENB-6011<br\/>Loopback : 172.22.98.127<br\/>Up-Time : 10 days, 16:52:43.76","type":"ESR","status":"1","hoto":"1"},{"lat":"25.3915","lng":"71.3739","name":"BRMEBRMEESR008","address":"Sap : I-RJ-BRME-ENB-9013<br\/>Loopback : 172.22.100.120<br\/>Up-Time : 9 days, 7:44:33.39","type":"ESR","status":"1","hoto":"1"},{"lat":"25.7318","lng":"71.3985","name":"BRMRSHTNESR001","address":"Sap : I-RJ-BRMR-ENB-0003<br\/>Loopback : 172.22.99.187<br\/>Up-Time : 28 days, 19:23:47.15","type":"ESR","status":"1","hoto":"1"},{"lat":"25.7651","lng":"71.4045","name":"BRMRINDRESR001","address":"Sap : I-RJ-BRMR-ENB-0005<br\/>Loopback : 172.22.105.33<br\/>Up-Time : 29 days, 21:45:09.49","type":"ESR","status":"1","hoto":"1"},{"lat":"25.7465","lng":"71.4155","name":"BRMRRPNGESR001","address":"Sap : I-RJ-BRMR-ENB-0010<br\/>Loopback : 172.22.99.179<br\/>Up-Time : 30 days, 16:25:16.88","type":"ESR","status":"1","hoto":"1"},{"lat":"25.7344","lng":"71.389","name":"BRMRRHDPESR001","address":"Sap : I-RJ-BRMR-ENB-0012<br\/>Loopback : 172.22.99.177<br\/>Up-Time : 42 days, 2:51:59.05","type":"ESR","status":"1","hoto":"1"},{"lat":"25.492","lng":"71.403","name":"BRMRBRMRESR010","address":"Sap : I-RJ-BRMR-ENB-6000<br\/>Loopback : 172.22.99.99<br\/>Up-Time : 28 days, 15:30:12.98","type":"ESR","status":"1","hoto":"1"},{"lat":"25.7529","lng":"71.4137","name":"BRMRBRBHESR001","address":"Sap : I-RJ-BRMR-ENB-6003<br\/>Loopback : 172.22.105.36<br\/>Up-Time : 47 days, 6:13:50.41","type":"ESR","status":"1","hoto":"1"},{"lat":"25.7512","lng":"71.3902","name":"BRMRBERIESR001","address":"Sap : I-RJ-BRMR-ENB-6005<br\/>Loopback : 172.22.105.34<br\/>Up-Time : 49 days, 6:03:49.73","type":"ESR","status":"1","hoto":"1"},{"lat":"25.7409","lng":"71.3909","name":"BRMRHNGLESR001","address":"Sap : I-RJ-BRMR-ENB-6006<br\/>Loopback : 172.22.99.178<br\/>Up-Time : 53 days, 2:53:54.93","type":"ESR","status":"1","hoto":"1"},{"lat":"25.7415","lng":"71.4023","name":"BRMRGDHIESR001","address":"Sap : I-RJ-BRMR-ENB-6007<br\/>Loopback : 172.22.105.35<br\/>Up-Time : 32 days, 22:26:45.29","type":"ESR","status":"1","hoto":"1"},{"lat":"26.0083","lng":"71.3671","name":"BRMRBRMRESR001","address":"Sap : I-RJ-BRMR-ENB-6017<br\/>Loopback : 172.22.99.112<br\/>Up-Time : 49 days, 3:37:57.93","type":"ESR","status":"1","hoto":"1"},{"lat":"25.6132","lng":"71.3977","name":"BRMRBRMRESR006","address":"Sap : I-RJ-BRMR-ENB-9017<br\/>Loopback : 172.22.99.96<br\/>Up-Time : 13 days, 4:58:46.36","type":"ESR","status":"1","hoto":"1"},{"lat":"25.4472","lng":"71.3809","name":"BRMRBRMRESR004","address":"Sap : I-RJ-BRMR-ENB-9018<br\/>Loopback : 172.22.101.47<br\/>Up-Time : 0:07:10.31","type":"ESR","status":"1","hoto":"1"},{"lat":"25.7486","lng":"71.3989","name":"BRMRRLWCESR001","address":"Sap : I-RJ-BRMR-ENB-I002<br\/>Loopback : 172.22.103.12<br\/>Up-Time : 13 days, 17:20:32.35","type":"ESR","status":"1","hoto":"1"},{"lat":"25.7523","lng":"71.4235","name":"BRMRRMNGESR001","address":"Sap : I-RJ-BRMR-ENB-I004<br\/>Loopback : 172.22.102.76<br\/>Up-Time : 11 days, 2:47:25.82","type":"ESR","status":"1","hoto":"1"},{"lat":"25.7483","lng":"71.3931","name":"BRMRHRJNESR001","address":"Sap : I-RJ-BRMR-ENB-V001<br\/>Loopback : 172.22.99.188<br\/>Up-Time : 26 days, 14:29:27.73","type":"ESR","status":"1","hoto":"1"},{"lat":"27.2095","lng":"77.4856","name":"BRPRIDRCESR001","address":"Sap : I-RJ-BRPR-ENB-0001<br\/>Loopback : 172.22.49.134<br\/>Up-Time : 53 days, 3:31:28.15","type":"ESR","status":"1","hoto":"1"},{"lat":"27.2315","lng":"77.482","name":"BRPRRLWCESR001","address":"Sap : I-RJ-BRPR-ENB-0002<br\/>Loopback : 172.22.48.88<br\/>Up-Time : 15 days, 10:23:56.38","type":"ESR","status":"1","hoto":"1"},{"lat":"27.2185","lng":"77.4862","name":"BRPRBRBZESR001","address":"Sap : I-RJ-BRPR-ENB-0003<br\/>Loopback : 172.22.48.86<br\/>Up-Time : 19 days, 12:47:04.78","type":"ESR","status":"1","hoto":"1"},{"lat":"27.2149","lng":"77.4849","name":"BRPRMHLIESR001","address":"Sap : I-RJ-BRPR-ENB-0004<br\/>Loopback : 172.22.48.84<br\/>Up-Time : 20 days, 22:51:15.61","type":"ESR","status":"1","hoto":"1"},{"lat":"27.2159","lng":"77.4893","name":"BRPRABDMESR002","address":"Sap : I-RJ-BRPR-ENB-0005<br\/>Loopback : 172.22.48.85<br\/>Up-Time : 44 days, 3:49:48.19","type":"ESR","status":"1","hoto":"1"},{"lat":"27.2115","lng":"77.4676","name":"BRPRAVMKESR001","address":"Sap : I-RJ-BRPR-ENB-0006<br\/>Loopback : 172.22.48.74<br\/>Up-Time : 22 days, 21:03:15.96","type":"ESR","status":"1","hoto":"1"},{"lat":"27.2137","lng":"77.4949","name":"BRPRSHTIESR001","address":"Sap : I-RJ-BRPR-ENB-0007<br\/>Loopback : 172.22.48.79<br\/>Up-Time : 12 days, 20:22:41.20","type":"ESR","status":"1","hoto":"1"},{"lat":"27.2138","lng":"77.4731","name":"BRPRSBHNESR002","address":"Sap : I-RJ-BRPR-ENB-0009<br\/>Loopback : 172.22.48.77<br\/>Up-Time : 44 days, 5:10:43.47","type":"ESR","status":"1","hoto":"1"},{"lat":"27.2133","lng":"77.4801","name":"BRPRSBHNESR003","address":"Sap : I-RJ-BRPR-ENB-0010<br\/>Loopback : 172.22.48.92<br\/>Up-Time : 11 days, 9:02:05.74","type":"ESR","status":"1","hoto":"1"},{"lat":"27.2039","lng":"77.4776","name":"BRPRBHRUESR001","address":"Sap : I-RJ-BRPR-ENB-0011<br\/>Loopback : 172.22.48.112<br\/>Up-Time : 44 days, 5:59:05.32","type":"ESR","status":"1","hoto":"1"},{"lat":"27.2075","lng":"77.5014","name":"BRPRJWHRESR001","address":"Sap : I-RJ-BRPR-ENB-0012<br\/>Loopback : 172.22.48.81<br\/>Up-Time : 30 days, 9:06:36.21","type":"ESR","status":"1","hoto":"1"},{"lat":"27.2169","lng":"77.5013","name":"BRPRMRICESR002","address":"Sap : I-RJ-BRPR-ENB-0014<br\/>Loopback : 172.22.48.105<br\/>Up-Time : 26 days, 16:12:14.37","type":"ESR","status":"1","hoto":"1"},{"lat":"27.2229","lng":"77.5021","name":"BRPRGPLGESR001","address":"Sap : I-RJ-BRPR-ENB-0015<br\/>Loopback : 172.22.48.103<br\/>Up-Time : 53 days, 3:21:22.19","type":"ESR","status":"1","hoto":"1"},{"lat":"27.2226","lng":"77.4894","name":"BRPRNMKKESR001","address":"Sap : I-RJ-BRPR-ENB-0016<br\/>Loopback : 172.22.48.90<br\/>Up-Time : 44 days, 4:54:11.72","type":"ESR","status":"1","hoto":"1"},{"lat":"27.2187","lng":"77.4683","name":"BRPRSBHNESR001","address":"Sap : I-RJ-BRPR-ENB-0021<br\/>Loopback : 172.22.48.75<br\/>Up-Time : 35 days, 22:58:01.04","type":"ESR","status":"1","hoto":"1"},{"lat":"27.204","lng":"77.4669","name":"BRPRSEWRESR001","address":"Sap : I-RJ-BRPR-ENB-0022<br\/>Loopback : 172.22.48.73<br\/>Up-Time : 44 days, 5:11:58.03","type":"ESR","status":"1","hoto":"1"},{"lat":"27.2116","lng":"77.5244","name":"BRPRANRDESR001","address":"Sap : I-RJ-BRPR-ENB-0023<br\/>Loopback : 172.22.48.94<br\/>Up-Time : 44 days, 4:53:52.77","type":"ESR","status":"1","hoto":"1"},{"lat":"27.2251","lng":"77.4762","name":"BRPRMUKJESR001","address":"Sap : I-RJ-BRPR-ENB-0024<br\/>Loopback : 172.22.48.102<br\/> ","type":"ESR","status":"0","hoto":"1"},{"lat":"27.2251","lng":"77.4762","name":"BRPRMUKJESR003","address":"Sap : I-RJ-BRPR-ENB-0024<br\/>Loopback : 172.22.57.181<br\/>Up-Time : 4 days, 16:45:32.30","type":"ESR","status":"1","hoto":"1"},{"lat":"27.2271","lng":"77.4872","name":"BRPRUTCLESR001","address":"Sap : I-RJ-BRPR-ENB-0025<br\/>Loopback : 172.22.48.89<br\/>Up-Time : 44 days, 5:03:31.13","type":"ESR","status":"1","hoto":"1"},{"lat":"27.2089","lng":"77.494","name":"BRPRHRDSESR001","address":"Sap : I-RJ-BRPR-ENB-0026<br\/>Loopback : 172.22.48.80<br\/>Up-Time : 44 days, 5:07:03.15","type":"ESR","status":"1","hoto":"1"},{"lat":"27.2138","lng":"77.5017","name":"BRPRRJDRESR001","address":"Sap : I-RJ-BRPR-ENB-0028<br\/>Loopback : 172.22.48.78<br\/>Up-Time : 44 days, 5:10:22.61","type":"ESR","status":"1","hoto":"1"},{"lat":"27.2272","lng":"77.4958","name":"BRPRSHYGESR001","address":"Sap : I-RJ-BRPR-ENB-0029<br\/>Loopback : 172.22.48.91<br\/>Up-Time : 44 days, 3:50:25.14","type":"ESR","status":"1","hoto":"1"},{"lat":"27.2236","lng":"77.5077","name":"BRPRDNYLESR001","address":"Sap : I-RJ-BRPR-ENB-0031<br\/>Loopback : 172.22.48.101<br\/>Up-Time : 22:57:11.42","type":"ESR","status":"1","hoto":"1"},{"lat":"27.2326","lng":"77.5223","name":"BRPRKRSGESR001","address":"Sap : I-RJ-BRPR-ENB-0032<br\/>Loopback : 172.22.48.99<br\/>Up-Time : 8 days, 13:21:43.94","type":"ESR","status":"1","hoto":"1"},{"lat":"27.2069","lng":"77.5164","name":"BRPRAJTNESR001","address":"Sap : I-RJ-BRPR-ENB-0033<br\/>Loopback : 172.22.48.109<br\/>Up-Time : 44 days, 5:56:50.46","type":"ESR","status":"1","hoto":"1"},{"lat":"27.238","lng":"77.4911","name":"BRPREKTVESR001","address":"Sap : I-RJ-BRPR-ENB-0034<br\/>Loopback : 172.22.48.97<br\/>Up-Time : 15 days, 9:48:41.09","type":"ESR","status":"1","hoto":"1"},{"lat":"27.2452","lng":"77.4994","name":"BRPRTONGESR001","address":"Sap : I-RJ-BRPR-ENB-0036<br\/>Loopback : 172.22.48.98<br\/>Up-Time : 10 days, 23:38:41.34","type":"ESR","status":"1","hoto":"1"},{"lat":"27.2146","lng":"77.5162","name":"BRPRKRSNESR001","address":"Sap : I-RJ-BRPR-ENB-6003<br\/>Loopback : 172.22.48.95<br\/>Up-Time : 44 days, 4:53:43.72","type":"ESR","status":"1","hoto":"1"},{"lat":"27.2303","lng":"77.4908","name":"BRPRGRUNESR001","address":"Sap : I-RJ-BRPR-ENB-6004<br\/>Loopback : 172.22.48.87<br\/>Up-Time : 44 days, 5:04:56.04","type":"ESR","status":"1","hoto":"1"},{"lat":"27.2132","lng":"77.4879","name":"BRPRABDMESR001","address":"Sap : I-RJ-BRPR-ENB-6005<br\/>Loopback : 172.22.48.83<br\/>Up-Time : 44 days, 5:04:06.48","type":"ESR","status":"1","hoto":"1"},{"lat":"27.2192","lng":"77.5032","name":"BRPRMRICESR001","address":"Sap : I-RJ-BRPR-ENB-6006<br\/>Loopback : 172.22.48.104<br\/>Up-Time : 44 days, 5:55:47.00","type":"ESR","status":"1","hoto":"1"},{"lat":"27.2293","lng":"77.5041","name":"BRPRSHYMESR001","address":"Sap : I-RJ-BRPR-ENB-6007<br\/>Loopback : 172.22.48.100<br\/>Up-Time : 2 days, 14:41:38.55","type":"ESR","status":"1","hoto":"1"},{"lat":"31.5061","lng":"76.8874","name":"BRPRSHTNESR001","address":"Sap : I-RJ-BRPR-ENB-6008<br\/>Loopback : 172.22.48.110<br\/>Up-Time : 31 days, 19:46:06.70","type":"ESR","status":"1","hoto":"1"},{"lat":"27.158","lng":"77.4915","name":"BRPRBRPRESR006","address":"Sap : I-RJ-BRPR-ENB-6010<br\/>Loopback : 172.22.49.213<br\/>Up-Time : 44 days, 5:04:35.76","type":"ESR","status":"1","hoto":"1"},{"lat":"27.1847","lng":"77.4393","name":"BRPRBRPRESR002","address":"Sap : I-RJ-BRPR-ENB-6012<br\/>Loopback : 172.22.53.114<br\/>Up-Time : 17 days, 22:03:53.61","type":"ESR","status":"1","hoto":"1"},{"lat":"27.2801","lng":"77.5299","name":"BRPRBRPRESR005","address":"Sap : I-RJ-BRPR-ENB-9006<br\/>Loopback : 172.22.48.145<br\/>Up-Time : 30 days, 22:22:17.96","type":"ESR","status":"1","hoto":"1"},{"lat":"27.1704","lng":"77.3843","name":"BRPRBRPRESR001","address":"Sap : I-RJ-BRPR-ENB-9011<br\/>Loopback : 172.22.53.113<br\/>Up-Time : 6 days, 20:23:39.62","type":"ESR","status":"1","hoto":"1"},{"lat":"27.159","lng":"77.5757","name":"BRPRBRPRESR009","address":"Sap : I-RJ-BRPR-ENB-V001<br\/>Loopback : 172.22.50.62<br\/>Up-Time : 1 day, 15:57:15.99","type":"ESR","status":"1","hoto":"1"},{"lat":"26.8558","lng":"76.0426","name":"BSSIBSSIESR003","address":"Sap : I-RJ-BSSI-ENB-6001<br\/>Loopback : 172.22.104.46<br\/>Up-Time : 13 days, 19:15:10.31","type":"ESR","status":"1","hoto":"1"},{"lat":"26.861","lng":"75.9894","name":"BSSIBSSIESR004","address":"Sap : I-RJ-BSSI-ENB-6002<br\/>Loopback : 172.22.96.194<br\/>Up-Time : 35 days, 15:31:06.37","type":"ESR","status":"1","hoto":"1"},{"lat":"26.8382","lng":"76.0539","name":"BSSIBSSIESR005","address":"Sap : I-RJ-BSSI-ENB-6004<br\/>Loopback : 172.22.96.196<br\/>Up-Time : 61 days, 0:48:33.60","type":"ESR","status":"1","hoto":"1"},{"lat":"26.8748","lng":"75.9474","name":"BSSIBSSIESR011","address":"Sap : I-RJ-BSSI-ENB-6006<br\/>Loopback : 172.22.96.192<br\/>Up-Time : 44 days, 4:41:02.27","type":"ESR","status":"1","hoto":"1"},{"lat":"26.8551","lng":"76.1281","name":"BSSIBSSIESR006","address":"Sap : I-RJ-BSSI-ENB-6007<br\/>Loopback : 172.22.104.39<br\/>Up-Time : 10 days, 17:02:16.79","type":"ESR","status":"1","hoto":"1"},{"lat":"26.8492","lng":"76.0944","name":"BSSIBSSIESR008","address":"Sap : I-RJ-BSSI-ENB-9005<br\/>Loopback : 172.22.96.197<br\/>Up-Time : 9:33:40.63","type":"ESR","status":"1","hoto":"1"},{"lat":"26.838","lng":"76.0347","name":"BSSIBSSIESR009","address":"Sap : I-RJ-BSSI-ENB-9006<br\/>Loopback : 172.22.104.43<br\/>Up-Time : 2 days, 0:14:13.18","type":"ESR","status":"1","hoto":"1"},{"lat":"26.8387","lng":"75.9886","name":"BSSIBSSIESR010","address":"Sap : I-RJ-BSSI-ENB-9007<br\/>Loopback : 172.22.104.42<br\/>Up-Time : 31 days, 19:32:10.73","type":"ESR","status":"1","hoto":"1"},{"lat":"28.0983","lng":"75.8374","name":"SGHNSGHNESR001","address":"Sap : I-RJ-BUHN-ENB-V001<br\/>Loopback : 172.22.107.190<br\/>Up-Time : 49 days, 5:15:03.44","type":"ESR","status":"1","hoto":"1"},{"lat":"25.4127","lng":"75.6495","name":"BUNDBUNDESR008","address":"Sap : I-RJ-BUND-ENB-0003<br\/>Loopback : 172.22.98.199<br\/>Up-Time : 42 days, 1:37:20.23","type":"ESR","status":"1","hoto":"1"},{"lat":"25.4399","lng":"75.6527","name":"BUNDBNCAESR001","address":"Sap : I-RJ-BUND-ENB-0004<br\/>Loopback : 172.22.103.140<br\/>Up-Time : 28 days, 22:52:39.77","type":"ESR","status":"1","hoto":"1"},{"lat":"25.4338","lng":"75.6363","name":"BUNDKRTIESR001","address":"Sap : I-RJ-BUND-ENB-0005<br\/>Loopback : 172.22.103.216<br\/>Up-Time : 47 days, 5:48:39.49","type":"ESR","status":"1","hoto":"1"},{"lat":"25.4341","lng":"75.6467","name":"BUNDNCLYESR001","address":"Sap : I-RJ-BUND-ENB-0006<br\/>Loopback : 172.22.103.141<br\/>Up-Time : 47 days, 4:50:09.72","type":"ESR","status":"1","hoto":"1"},{"lat":"25.4114","lng":"75.6372","name":"BUNDBUNRESR001","address":"Sap : I-RJ-BUND-ENB-0008<br\/>Loopback : 172.22.103.221<br\/>Up-Time : 47 days, 5:55:32.69","type":"ESR","status":"1","hoto":"1"},{"lat":"25.4201","lng":"75.643","name":"BUNDBUNDESR004","address":"Sap : I-RJ-BUND-ENB-0009<br\/>Loopback : 172.22.98.198<br\/>Up-Time : 21 days, 16:28:37.41","type":"ESR","status":"1","hoto":"1"},{"lat":"25.4401","lng":"75.6603","name":"BUNDBNCDESR001","address":"Sap : I-RJ-BUND-ENB-6000<br\/>Loopback : 172.22.103.124<br\/>Up-Time : 47 days, 5:52:08.69","type":"ESR","status":"1","hoto":"1"},{"lat":"25.4276","lng":"75.6489","name":"BUNDSDRTESR001","address":"Sap : I-RJ-BUND-ENB-6001<br\/>Loopback : 172.22.103.214<br\/>Up-Time : 47 days, 5:39:13.98","type":"ESR","status":"1","hoto":"1"},{"lat":"25.4231","lng":"75.6187","name":"BUNDSVCLESR002","address":"Sap : I-RJ-BUND-ENB-6002<br\/>Loopback : 172.22.103.213<br\/>Up-Time : 47 days, 5:39:53.57","type":"ESR","status":"1","hoto":"1"},{"lat":"25.4393","lng":"75.6361","name":"BUNDGRNKESR001","address":"Sap : I-RJ-BUND-ENB-6003<br\/>Loopback : 172.22.103.215<br\/>Up-Time : 31 days, 20:21:26.52","type":"ESR","status":"1","hoto":"1"},{"lat":"25.329","lng":"75.8514","name":"BUNDBUNDESR001","address":"Sap : I-RJ-BUND-ENB-6005<br\/>Loopback : 172.22.101.69<br\/>Up-Time : 49 days, 2:39:59.64","type":"ESR","status":"1","hoto":"1"},{"lat":"25.2533","lng":"75.6598","name":"BUNDBUNDESR003","address":"Sap : I-RJ-BUND-ENB-6008<br\/>Loopback : 172.22.107.252<br\/>Up-Time : 37 days, 19:54:15.72","type":"ESR","status":"1","hoto":"1"},{"lat":"25.2486","lng":"75.7784","name":"BUNDBUNDESR002","address":"Sap : I-RJ-BUND-ENB-6010<br\/>Loopback : 172.22.99.134<br\/>Up-Time : 20 days, 3:40:45.23","type":"ESR","status":"1","hoto":"1"},{"lat":"25.4231","lng":"75.6187","name":"BUNDSVCLESR001","address":"Sap : I-RJ-BUND-ENB-6011<br\/>Loopback : 172.22.99.133<br\/>Up-Time : 27 days, 16:49:37.55","type":"ESR","status":"1","hoto":"1"},{"lat":"25.3685","lng":"75.6745","name":"BUNDBUNDESR006","address":"Sap : I-RJ-BUND-ENB-9012<br\/>Loopback : 172.22.107.251<br\/>Up-Time : 12 days, 2:46:03.51","type":"ESR","status":"1","hoto":"1"},{"lat":"25.4439","lng":"75.6413","name":"BUNDSRJPESR001","address":"Sap : I-RJ-BUND-ENB-A001<br\/>Loopback : 172.22.103.217<br\/>Up-Time : 47 days, 5:22:53.67","type":"ESR","status":"1","hoto":"1"},{"lat":"25.4482","lng":"75.6282","name":"BUNDBLCDESR001","address":"Sap : I-RJ-BUND-ENB-V001<br\/>Loopback : 172.22.103.218<br\/>Up-Time : 20:48:13.92","type":"ESR","status":"1","hoto":"1"},{"lat":"27.0341","lng":"77.0529","name":"BUSWBUSWESR001","address":"Sap : I-RJ-BUSW-ENB-6000<br\/>Loopback : 172.22.53.117<br\/>Up-Time : 49 days, 3:41:06.88","type":"ESR","status":"1","hoto":"1"},{"lat":"25.8977","lng":"74.1749","name":"BWARBWARPAR001","address":"Sap : I-RJ-BWAR-ENB-6000<br\/>Loopback : 172.16.96.174<br\/>Up-Time : 30 days, 16:46:00.21","type":"PAR","status":"1","hoto":"1"},{"lat":"25.8977","lng":"74.1749","name":"BWARBWARESR001","address":"Sap : I-RJ-BWAR-ENB-6000<br\/>Loopback : 172.22.99.76<br\/> ","type":"ESR","status":"0","hoto":"1"},{"lat":"26.9036","lng":"77.2908","name":"BYNABYNAESR001","address":"Sap : I-RJ-BYNA-ENB-6002<br\/>Loopback : 172.22.48.107<br\/>Up-Time : 61 days, 6:18:01.42","type":"ESR","status":"1","hoto":"1"},{"lat":"26.9251","lng":"77.285","name":"BYNABYNAESR002","address":"Sap : I-RJ-BYNA-ENB-6003<br\/>Loopback : 172.22.48.108<br\/>Up-Time : 13 days, 15:52:24.06","type":"ESR","status":"1","hoto":"1"},{"lat":"26.6818","lng":"75.9093","name":"CHKUCHKUESR006","address":"Sap : I-RJ-CHKU-ENB-6000<br\/>Loopback : 172.22.107.255<br\/>Up-Time : 5 days, 17:49:02.78","type":"ESR","status":"1","hoto":"1"},{"lat":"26.7059","lng":"75.8979","name":"CHKUCHKUESR003","address":"Sap : I-RJ-CHKU-ENB-6002<br\/>Loopback : 172.22.97.82<br\/>Up-Time : 8 days, 17:31:24.84","type":"ESR","status":"1","hoto":"1"},{"lat":"26.5094","lng":"75.9492","name":"CHKUCHKUESR001","address":"Sap : I-RJ-CHKU-ENB-6005<br\/>Loopback : 172.22.97.88<br\/>Up-Time : 19 days, 1:13:27.42","type":"ESR","status":"1","hoto":"1"},{"lat":"26.6021","lng":"75.9481","name":"CHKUCHKUESR004","address":"Sap : I-RJ-CHKU-ENB-B001<br\/>Loopback : 172.22.97.130<br\/>Up-Time : 11 days, 10:50:21.11","type":"ESR","status":"1","hoto":"1"},{"lat":"27.1602","lng":"75.7238","name":"CHMUMGDHESR002","address":"Sap : I-RJ-CHMU-ENB-0003<br\/>Loopback : 172.22.102.176<br\/>Up-Time : 41 days, 17:36:13.47","type":"ESR","status":"1","hoto":"1"},{"lat":"27.1818","lng":"75.7176","name":"CHMUHRTTESR001","address":"Sap : I-RJ-CHMU-ENB-0006<br\/>Loopback : 172.22.104.35<br\/>Up-Time : 47 days, 4:55:37.21","type":"ESR","status":"1","hoto":"1"},{"lat":"27.1498","lng":"75.7268","name":"CHMUMGDHESR001","address":"Sap : I-RJ-CHMU-ENB-0007<br\/>Loopback : 172.22.104.36<br\/>Up-Time : 47 days, 5:03:36.81","type":"ESR","status":"1","hoto":"1"},{"lat":"27.1359","lng":"75.8039","name":"CHMUCHMUESR001","address":"Sap : I-RJ-CHMU-ENB-6001<br\/>Loopback : 172.22.102.68<br\/>Up-Time : 53 days, 4:13:08.39","type":"ESR","status":"1","hoto":"1"},{"lat":"27.3361","lng":"75.6981","name":"CHMUCHMUESR006","address":"Sap : I-RJ-CHMU-ENB-6003<br\/>Loopback : 172.22.100.117<br\/>Up-Time : 7 days, 16:36:19.64","type":"ESR","status":"1","hoto":"1"},{"lat":"27.1749","lng":"75.7189","name":"CHMUSHVJESR001","address":"Sap : I-RJ-CHMU-ENB-6004<br\/>Loopback : 172.22.104.34<br\/>Up-Time : 2 days, 14:13:44.17","type":"ESR","status":"1","hoto":"1"},{"lat":"27.1668","lng":"75.7256","name":"CHMUCHMRESR001","address":"Sap : I-RJ-CHMU-ENB-6005<br\/>Loopback : 172.22.104.32<br\/>Up-Time : 2 days, 18:51:29.54","type":"ESR","status":"1","hoto":"1"},{"lat":"27.1697","lng":"75.7101","name":"CHMUNEMIESR001","address":"Sap : I-RJ-CHMU-ENB-6006<br\/>Loopback : 172.22.104.33<br\/>Up-Time : 61 days, 7:00:58.81","type":"ESR","status":"1","hoto":"1"},{"lat":"27.1663","lng":"75.718","name":"CHMUNYBZESR001","address":"Sap : I-RJ-CHMU-ENB-6007<br\/>Loopback : 172.22.104.31<br\/>Up-Time : 61 days, 2:05:20.03","type":"ESR","status":"1","hoto":"1"},{"lat":"27.2312","lng":"75.5302","name":"CHMUCHMUESR008","address":"Sap : I-RJ-CHMU-ENB-6009<br\/>Loopback : 172.22.108.217<br\/>Up-Time : 44 days, 6:08:45.02","type":"ESR","status":"1","hoto":"1"},{"lat":"27.1949","lng":"75.6224","name":"CHMUCHMUESR004","address":"Sap : I-RJ-CHMU-ENB-6010<br\/>Loopback : 172.22.108.219<br\/>Up-Time : 1:59:51.02","type":"ESR","status":"1","hoto":"1"},{"lat":"27.1871","lng":"75.6227","name":"CHMUCHMUESR007","address":"Sap : I-RJ-CHMU-ENB-6011<br\/>Loopback : 172.22.107.199<br\/>Up-Time : 61 days, 7:08:44.45","type":"ESR","status":"1","hoto":"1"},{"lat":"27.2135","lng":"75.8254","name":"CHMUCHMUESR002","address":"Sap : I-RJ-CHMU-ENB-9001<br\/>Loopback : 172.22.103.219<br\/>Up-Time : 11 days, 16:59:09.57","type":"ESR","status":"1","hoto":"1"},{"lat":"28.294","lng":"74.9555","name":"CHRUKIMAPAR002","address":"Sap : I-RJ-CHRU-AG2-0001<br\/>Loopback : 172.16.48.99<br\/>Up-Time : ","type":"PAR","status":"1","hoto":"1"},{"lat":"28.294","lng":"74.9555","name":"CHRUKIMAPAR003","address":"Sap : I-RJ-CHRU-AG2-0001<br\/>Loopback : 172.16.48.100<br\/>Up-Time : ","type":"PAR","status":"1","hoto":"1"},{"lat":"28.294","lng":"74.9555","name":"CHRUKIMAPAR001","address":"Sap : I-RJ-CHRU-AG2-0001<br\/>Loopback : 172.16.48.85<br\/>Up-Time : 58 days, 5:06:33.65","type":"PAR","status":"1","hoto":"1"},{"lat":"28.2961","lng":"74.9775","name":"CHRUGNDIESR001","address":"Sap : I-RJ-CHRU-ENB-0002<br\/>Loopback : 172.22.107.38<br\/>Up-Time : 47 days, 5:28:05.28","type":"ESR","status":"1","hoto":"1"},{"lat":"28.2836","lng":"74.9617","name":"CHRUAGRSESR001","address":"Sap : I-RJ-CHRU-ENB-0003<br\/>Loopback : 172.22.102.229<br\/>Up-Time : 47 days, 3:31:20.46","type":"ESR","status":"1","hoto":"1"},{"lat":"28.2903","lng":"74.9659","name":"CHRUMGLCESR001","address":"Sap : I-RJ-CHRU-ENB-0004<br\/>Loopback : 172.22.107.42<br\/>Up-Time : 35 days, 19:14:56.15","type":"ESR","status":"1","hoto":"1"},{"lat":"28.3075","lng":"74.9483","name":"CHRUIDSTESR001","address":"Sap : I-RJ-CHRU-ENB-0012<br\/>Loopback : 172.22.107.39<br\/>Up-Time : 49 days, 5:34:02.48","type":"ESR","status":"1","hoto":"1"},{"lat":"28.2935","lng":"74.9622","name":"CHRUVNVHESR001","address":"Sap : I-RJ-CHRU-ENB-6000<br\/>Loopback : 172.22.107.41<br\/>Up-Time : 47 days, 5:34:22.84","type":"ESR","status":"1","hoto":"1"},{"lat":"28.3056","lng":"74.9724","name":"CHRUMCHWESR001","address":"Sap : I-RJ-CHRU-ENB-6001<br\/>Loopback : 172.22.107.43<br\/>Up-Time : 47 days, 5:24:03.24","type":"ESR","status":"1","hoto":"1"},{"lat":"28.3031","lng":"74.9534","name":"CHRUIDSTESR002","address":"Sap : I-RJ-CHRU-ENB-6003<br\/>Loopback : 172.22.107.40<br\/>Up-Time : 47 days, 5:33:54.54","type":"ESR","status":"1","hoto":"1"},{"lat":"28.4125","lng":"74.9329","name":"CHRUCHRUESR004","address":"Sap : I-RJ-CHRU-ENB-6006<br\/>Loopback : 172.22.103.10<br\/> ","type":"ESR","status":"0","hoto":"1"},{"lat":"28.212","lng":"74.9544","name":"RTNGRTNGESR001","address":"Sap : I-RJ-CHRU-ENB-6007<br\/>Loopback : 172.22.107.45<br\/> ","type":"ESR","status":"0","hoto":"1"},{"lat":"28.3063","lng":"74.9642","name":"CHRUSBHSESR001","address":"Sap : I-RJ-CHRU-ENB-B002<br\/>Loopback : 172.22.101.38<br\/>Up-Time : 3 days, 15:19:39.34","type":"ESR","status":"1","hoto":"1"},{"lat":"28.2908","lng":"74.9607","name":"CHRUKDRYESR001","address":"Sap : I-RJ-CHRU-ENB-B003<br\/>Loopback : 172.22.107.48<br\/>Up-Time : 47 days, 3:26:55.85","type":"ESR","status":"1","hoto":"1"},{"lat":"28.3118","lng":"74.9724","name":"CHRUBGRIESR001","address":"Sap : I-RJ-CHRU-ENB-I001<br\/>Loopback : 172.22.107.44<br\/>Up-Time : 47 days, 5:30:20.87","type":"ESR","status":"1","hoto":"1"},{"lat":"28.3014","lng":"74.9679","name":"CHRUNKSKESR001","address":"Sap : I-RJ-CHRU-ENB-I004<br\/>Loopback : 172.22.107.47<br\/>Up-Time : 47 days, 3:39:08.16","type":"ESR","status":"1","hoto":"1"},{"lat":"28.3151","lng":"74.9653","name":"CHRUPNJRESR001","address":"Sap : I-RJ-CHRU-ENB-V002<br\/>Loopback : 172.22.101.247<br\/>Up-Time : 56 days, 6:09:22.26","type":"ESR","status":"1","hoto":"1"},{"lat":"28.2748","lng":"74.9587","name":"CHRUAGRSESR002","address":"Sap : I-RJ-CHRU-ENB-V004<br\/>Loopback : 172.22.102.114<br\/>Up-Time : 47 days, 5:10:57.20","type":"ESR","status":"1","hoto":"1"},{"lat":"28.3105","lng":"74.9581","name":"CHRUDULTESR001","address":"Sap : I-RJ-CHRU-ENB-V005<br\/>Loopback : 172.22.102.11<br\/>Up-Time : 47 days, 4:25:45.37","type":"ESR","status":"1","hoto":"1"},{"lat":"28.2288","lng":"75.6449","name":"CHRWCHRWESR003","address":"Sap : I-RJ-CHRW-ENB-6000<br\/>Loopback : 172.22.106.15<br\/>Up-Time : 11 days, 11:54:09.04","type":"ESR","status":"1","hoto":"1"},{"lat":"28.239","lng":"75.6505","name":"CHRWCHRWESR004","address":"Sap : I-RJ-CHRW-ENB-6001<br\/>Loopback : 172.22.97.37<br\/>Up-Time : 53 days, 3:06:42.04","type":"ESR","status":"1","hoto":"1"},{"lat":"24.4417","lng":"74.7004","name":"CHTSCHTSESR001","address":"Sap : I-RJ-CHTS-ENB-9004<br\/>Loopback : 172.22.102.111<br\/>Up-Time : 29 days, 11:43:19.26","type":"ESR","status":"1","hoto":"1"},{"lat":"24.873","lng":"74.6228","name":"CRGRNGRPPAR001","address":"Sap : I-RJ-CRGR-ENB-0001<br\/>Loopback : 172.16.49.132<br\/>Up-Time : 14 days, 5:14:45.87","type":"PAR","status":"1","hoto":"1"},{"lat":"24.873","lng":"74.6228","name":"CRGRRLWYESR001","address":"Sap : I-RJ-CRGR-ENB-0001<br\/>Loopback : 172.22.98.27<br\/>Up-Time : 61 days, 1:56:15.24","type":"ESR","status":"1","hoto":"1"},{"lat":"24.8859","lng":"74.6183","name":"CRGRKUMBESR001","address":"Sap : I-RJ-CRGR-ENB-0002<br\/>Loopback : 172.22.98.34<br\/>Up-Time : 61 days, 1:51:35.19","type":"ESR","status":"1","hoto":"1"},{"lat":"24.8784","lng":"74.6183","name":"CRGRPRTNESR001","address":"Sap : I-RJ-CRGR-ENB-0004<br\/>Loopback : 172.22.98.33<br\/>Up-Time : 61 days, 1:55:41.03","type":"ESR","status":"1","hoto":"1"},{"lat":"24.8887","lng":"74.6402","name":"CRGRUPRLESR001","address":"Sap : I-RJ-CRGR-ENB-0005<br\/>Loopback : 172.22.106.185<br\/>Up-Time : 47 days, 4:49:35.74","type":"ESR","status":"1","hoto":"1"},{"lat":"24.8818","lng":"74.6291","name":"CRGRRACLESR001","address":"Sap : I-RJ-CRGR-ENB-0006<br\/>Loopback : 172.22.98.32<br\/>Up-Time : 61 days, 0:40:08.87","type":"ESR","status":"1","hoto":"1"},{"lat":"24.875","lng":"74.6379","name":"CRGRSHEDESR001","address":"Sap : I-RJ-CRGR-ENB-0007<br\/>Loopback : 172.22.106.187<br\/>Up-Time : 47 days, 4:55:29.50","type":"ESR","status":"1","hoto":"1"},{"lat":"24.9036","lng":"74.6245","name":"CRGRKERKESR001","address":"Sap : I-RJ-CRGR-ENB-0011<br\/>Loopback : 172.22.108.35<br\/>Up-Time : 21 days, 5:58:20.38","type":"ESR","status":"1","hoto":"1"},{"lat":"24.9081","lng":"74.663","name":"CRGRCRGRESR005","address":"Sap : I-RJ-CRGR-ENB-0013<br\/>Loopback : 172.22.98.132<br\/>Up-Time : 1 day, 20:35:55.18","type":"ESR","status":"1","hoto":"1"},{"lat":"24.9006","lng":"74.6042","name":"CRGRDHNKESR001","address":"Sap : I-RJ-CRGR-ENB-0014<br\/>Loopback : 172.22.98.40<br\/>Up-Time : 4 days, 20:09:22.52","type":"ESR","status":"1","hoto":"1"},{"lat":"24.9044","lng":"74.5941","name":"CRGRCRGRESR003","address":"Sap : I-RJ-CRGR-ENB-0015<br\/>Loopback : 172.22.98.29<br\/>Up-Time : 6:27:47.44","type":"ESR","status":"1","hoto":"1"},{"lat":"24.9095","lng":"74.6147","name":"CRGRZKNGESR001","address":"Sap : I-RJ-CRGR-ENB-0016<br\/>Loopback : 172.22.98.24<br\/>Up-Time : 24 days, 8:30:58.24","type":"ESR","status":"1","hoto":"1"},{"lat":"24.9145","lng":"74.6119","name":"CRGRBDIYESR001","address":"Sap : I-RJ-CRGR-ENB-0017<br\/>Loopback : 172.22.98.41<br\/> ","type":"ESR","status":"0","hoto":"1"},{"lat":"24.9374","lng":"74.6267","name":"CRGRPTHIESR001","address":"Sap : I-RJ-CRGR-ENB-0018<br\/>Loopback : 172.22.103.129<br\/>Up-Time : 1 day, 11:34:47.87","type":"ESR","status":"1","hoto":"1"},{"lat":"24.9383","lng":"74.6015","name":"CRGRCRGRESR004","address":"Sap : I-RJ-CRGR-ENB-0020<br\/>Loopback : 172.22.98.30<br\/>Up-Time : 18:03:56.55","type":"ESR","status":"1","hoto":"1"},{"lat":"24.89","lng":"74.594","name":"CRGRCRGRESR002","address":"Sap : I-RJ-CRGR-ENB-0022<br\/>Loopback : 172.22.98.23<br\/>Up-Time : 29 days, 19:53:31.61","type":"ESR","status":"1","hoto":"1"},{"lat":"24.9092","lng":"74.6043","name":"CRGRCRGRESR001","address":"Sap : I-RJ-CRGR-ENB-6001<br\/>Loopback : 172.22.98.42<br\/>Up-Time : 61 days, 1:53:02.01","type":"ESR","status":"1","hoto":"1"},{"lat":"24.8567","lng":"74.6128","name":"CRGRSEGWESR001","address":"Sap : I-RJ-CRGR-ENB-6002<br\/>Loopback : 172.22.106.184<br\/>Up-Time : 61 days, 2:03:34.16","type":"ESR","status":"1","hoto":"1"},{"lat":"24.9149","lng":"74.6237","name":"CRGRRICIESR001","address":"Sap : I-RJ-CRGR-ENB-6003<br\/>Loopback : 172.22.106.182<br\/>Up-Time : 29 days, 8:29:34.91","type":"ESR","status":"1","hoto":"1"},{"lat":"24.8894","lng":"74.6364","name":"CRGRCHDPESR001","address":"Sap : I-RJ-CRGR-ENB-6004<br\/>Loopback : 172.22.98.35<br\/>Up-Time : 2 days, 13:36:34.92","type":"ESR","status":"1","hoto":"1"},{"lat":"24.8822","lng":"74.615","name":"CRGRDGLKESR001","address":"Sap : I-RJ-CRGR-ENB-6005<br\/>Loopback : 172.22.106.183<br\/>Up-Time : 57 days, 19:06:56.61","type":"ESR","status":"1","hoto":"1"},{"lat":"24.8905","lng":"74.6274","name":"CRGRAHTNESR001","address":"Sap : I-RJ-CRGR-ENB-6006<br\/>Loopback : 172.22.98.26<br\/>Up-Time : 42 days, 2:53:58.15","type":"ESR","status":"1","hoto":"1"},{"lat":"24.8807","lng":"74.6366","name":"CRGRKCBIESR001","address":"Sap : I-RJ-CRGR-ENB-6007<br\/>Loopback : 172.22.106.186<br\/>Up-Time : 47 days, 3:37:15.31","type":"ESR","status":"1","hoto":"1"},{"lat":"24.8698","lng":"74.6162","name":"CRGRBPUNESR001","address":"Sap : I-RJ-CRGR-ENB-6008<br\/>Loopback : 172.22.98.28<br\/>Up-Time : 61 days, 1:52:23.76","type":"ESR","status":"1","hoto":"1"},{"lat":"24.9332","lng":"74.629","name":"CRGRSVCLESR001","address":"Sap : I-RJ-CRGR-ENB-6010<br\/>Loopback : 172.22.97.48<br\/>Up-Time : 44 days, 3:58:03.42","type":"ESR","status":"1","hoto":"1"},{"lat":"24.9113","lng":"74.6508","name":"CRGRCRGRESR010","address":"Sap : I-RJ-CRGR-ENB-V001<br\/>Loopback : 172.22.98.130<br\/>Up-Time : 35 days, 14:11:45.89","type":"ESR","status":"1","hoto":"1"},{"lat":"24.8849","lng":"74.6261","name":"CRGRNGRPPAR003","address":"Sap : I-RJ-CRGR-ILA-0001<br\/>Loopback : 172.16.49.118<br\/>Up-Time : ","type":"PAR","status":"1","hoto":"1"},{"lat":"29.8761","lng":"74.5088","name":"DBNHDBNHESR001","address":"Sap : I-RJ-DBNH-ENB-6000<br\/>Loopback : 172.22.64.118<br\/>Up-Time : 7 days, 13:15:02.87","type":"ESR","status":"1","hoto":"1"},{"lat":"27.3977","lng":"74.5742","name":"DDWNDDWNPAR001","address":"Sap : I-RJ-DDWN-ENB-6012<br\/>Loopback : 172.16.49.85<br\/>Up-Time : 10 days, 14:59:52.25","type":"PAR","status":"1","hoto":"1"},{"lat":"27.4051","lng":"74.5788","name":"DDWNDDWNESR001","address":"Sap : I-RJ-DDWN-ENB-6013<br\/>Loopback : 172.22.106.153<br\/>Up-Time : 47 days, 4:34:06.44","type":"ESR","status":"1","hoto":"1"},{"lat":"27.2017","lng":"74.3384","name":"DDWNDDWNESR004","address":"Sap : I-RJ-DDWN-ENB-6018<br\/>Loopback : 172.22.97.58<br\/>Up-Time : 37 days, 5:46:10.31","type":"ESR","status":"1","hoto":"1"},{"lat":"26.6951","lng":"71.1999","name":"DEKTDEKTESR001","address":"Sap : I-RJ-DEKT-ENB-B001<br\/>Loopback : 172.22.106.87<br\/>Up-Time : 12 days, 21:09:45.72","type":"ESR","status":"1","hoto":"1"},{"lat":"26.5148","lng":"74.3135","name":"DENADENAESR010","address":"Sap : I-RJ-DENA-ENB-6074<br\/>Loopback : 172.22.102.196<br\/>Up-Time : 47 days, 5:57:31.00","type":"ESR","status":"1","hoto":"1"},{"lat":"26.7293","lng":"74.475","name":"DENADENAESR002","address":"Sap : I-RJ-DENA-ENB-6080<br\/>Loopback : 172.22.102.244<br\/>Up-Time : 29 days, 19:48:57.17","type":"ESR","status":"1","hoto":"1"},{"lat":"26.7955","lng":"74.2634","name":"DENADENAESR009","address":"Sap : I-RJ-DENA-ENB-6081<br\/>Loopback : 172.22.106.74<br\/>Up-Time : 40 days, 23:13:14.06","type":"ESR","status":"1","hoto":"1"},{"lat":"26.9086","lng":"73.9865","name":"DENADENAESR004","address":"Sap : I-RJ-DENA-ENB-6082<br\/>Loopback : 172.22.106.1<br\/>Up-Time : 20 days, 13:08:03.97","type":"ESR","status":"1","hoto":"1"},{"lat":"26.5611","lng":"74.4715","name":"DENADENAESR011","address":"Sap : I-RJ-DENA-ENB-6083<br\/>Loopback : 172.22.106.238<br\/>Up-Time : 30 days, 18:36:04.69","type":"ESR","status":"1","hoto":"1"},{"lat":"26.5439","lng":"74.5088","name":"DENADENAESR007","address":"Sap : I-RJ-DENA-ENB-9008<br\/>Loopback : 172.22.108.141<br\/>Up-Time : 21 days, 12:44:58.03","type":"ESR","status":"1","hoto":"1"},{"lat":"26.8621","lng":"74.039","name":"DENADENAESR003","address":"Sap : I-RJ-DENA-ENB-9014<br\/>Loopback : 172.22.104.178<br\/>Up-Time : 48 days, 19:09:51.65","type":"ESR","status":"1","hoto":"1"},{"lat":"26.6514","lng":"74.4153","name":"DENADENAESR013","address":"Sap : I-RJ-DENA-ENB-I001<br\/>Loopback : 172.22.106.237<br\/>Up-Time : 49 days, 3:47:59.10","type":"ESR","status":"1","hoto":"1"},{"lat":"26.685","lng":"77.8983","name":"DLPROCTIESR001","address":"Sap : I-RJ-DLPR-ENB-0004<br\/>Loopback : 172.22.49.56<br\/>Up-Time : 61 days, 3:21:10.21","type":"ESR","status":"1","hoto":"1"},{"lat":"26.6771","lng":"77.8968","name":"DLPRHIRDESR001","address":"Sap : I-RJ-DLPR-ENB-0005<br\/>Loopback : 172.22.51.230<br\/>Up-Time : 61 days, 3:41:33.17","type":"ESR","status":"1","hoto":"1"},{"lat":"26.6966","lng":"77.9044","name":"DLPRRLWYESR001","address":"Sap : I-RJ-DLPR-ENB-0006<br\/>Loopback : 172.22.48.210<br\/>Up-Time : 61 days, 3:45:35.86","type":"ESR","status":"1","hoto":"1"},{"lat":"26.7278","lng":"77.8835","name":"DLPRONDLESR001","address":"Sap : I-RJ-DLPR-ENB-0011<br\/>Loopback : 172.22.53.137<br\/>Up-Time : 12 days, 23:20:04.79","type":"ESR","status":"1","hoto":"1"},{"lat":"26.6901","lng":"77.9022","name":"DLPRBLJIESR001","address":"Sap : I-RJ-DLPR-ENB-7031<br\/>Loopback : 172.22.48.215<br\/>Up-Time : 61 days, 3:43:47.41","type":"ESR","status":"1","hoto":"1"},{"lat":"26.6938","lng":"77.8961","name":"DLPRJBLEESR001","address":"Sap : I-RJ-DLPR-ENB-7032<br\/>Loopback : 172.22.51.226<br\/>Up-Time : 56 days, 13:17:51.30","type":"ESR","status":"1","hoto":"1"},{"lat":"26.7049","lng":"77.8889","name":"DLPRGUSLESR001","address":"Sap : I-RJ-DLPR-ENB-7033<br\/>Loopback : 172.22.51.229<br\/>Up-Time : 42 days, 5:36:37.63","type":"ESR","status":"1","hoto":"1"},{"lat":"26.7016","lng":"77.8999","name":"DLPRDFCLESR001","address":"Sap : I-RJ-DLPR-ENB-7034<br\/>Loopback : 172.22.51.227<br\/>Up-Time : 18 days, 13:59:53.96","type":"ESR","status":"1","hoto":"1"},{"lat":"26.6972","lng":"77.8881","name":"DLPRUMNGESR001","address":"Sap : I-RJ-DLPR-ENB-7035<br\/>Loopback : 172.22.55.81<br\/>Up-Time : 10 days, 15:43:41.96","type":"ESR","status":"1","hoto":"1"},{"lat":"26.7109","lng":"77.8894","name":"DLPRJRLYESR002","address":"Sap : I-RJ-DLPR-ENB-7036<br\/>Loopback : 172.22.51.228<br\/>Up-Time : 56 days, 21:27:16.18","type":"ESR","status":"1","hoto":"1"},{"lat":"26.8211","lng":"77.9137","name":"DLPRDLPRESR001","address":"Sap : I-RJ-DLPR-ENB-7037<br\/>Loopback : 172.22.53.226<br\/>Up-Time : 28 days, 21:33:25.05","type":"ESR","status":"1","hoto":"1"},{"lat":"26.8874","lng":"77.9258","name":"DLPRDLPRESR002","address":"Sap : I-RJ-DLPR-ENB-9007<br\/>Loopback : 172.22.56.143<br\/>Up-Time : 3 days, 20:49:21.99","type":"ESR","status":"1","hoto":"1"},{"lat":"26.6945","lng":"77.8999","name":"DLPRJGNCESR001","address":"Sap : I-RJ-DLPR-ENB-I001<br\/>Loopback : 172.22.48.208<br\/>Up-Time : 44 days, 5:20:03.31","type":"ESR","status":"1","hoto":"1"},{"lat":"26.6933","lng":"77.8914","name":"DLPRNHLGESR001","address":"Sap : I-RJ-DLPR-ENB-I003<br\/>Loopback : 172.22.53.158<br\/>Up-Time : 44 days, 6:08:52.55","type":"ESR","status":"1","hoto":"1"},{"lat":"26.6986","lng":"77.8829","name":"DLPRRSVPESR001","address":"Sap : I-RJ-DLPR-ENB-V001<br\/>Loopback : 172.22.51.231<br\/>Up-Time : 10 days, 17:30:59.38","type":"ESR","status":"1","hoto":"1"},{"lat":"26.7012","lng":"77.893","name":"DLPRTPTRESR001","address":"Sap : I-RJ-DLPR-ENB-V002<br\/>Loopback : 172.22.54.124<br\/>Up-Time : 32 days, 21:27:31.08","type":"ESR","status":"1","hoto":"1"},{"lat":"26.7136","lng":"77.8934","name":"DLPRJRLYESR001","address":"Sap : I-RJ-DLPR-ENB-V003<br\/>Loopback : 172.22.53.138<br\/>Up-Time : 47 days, 12:55:19.66","type":"ESR","status":"1","hoto":"1"},{"lat":"23.8959","lng":"73.553","name":"DNGPDNGPESR004","address":"Sap : I-RJ-DNGP-ENB-6001<br\/>Loopback : 172.22.96.240<br\/>Up-Time : 27 days, 14:06:04.25","type":"ESR","status":"1","hoto":"1"},{"lat":"23.9512","lng":"73.5794","name":"DNGPDNGPESR005","address":"Sap : I-RJ-DNGP-ENB-6004<br\/>Loopback : 172.22.97.35<br\/>Up-Time : 17 days, 20:44:49.08","type":"ESR","status":"1","hoto":"1"},{"lat":"23.8344","lng":"73.7134","name":"DNGPDNGPESR006","address":"Sap : I-RJ-DNGP-ENB-6006<br\/>Loopback : 172.22.105.103<br\/>Up-Time : 6 days, 14:09:53.88","type":"ESR","status":"1","hoto":"1"},{"lat":"23.9251","lng":"73.6378","name":"DNGPDNGPESR002","address":"Sap : I-RJ-DNGP-ENB-6008<br\/>Loopback : 172.22.101.46<br\/>Up-Time : 29 days, 18:41:49.62","type":"ESR","status":"1","hoto":"1"},{"lat":"23.8843","lng":"73.7275","name":"DNGPDNGPESR007","address":"Sap : I-RJ-DNGP-ENB-6009<br\/>Loopback : 172.22.105.104<br\/>Up-Time : 30 days, 18:01:43.55","type":"ESR","status":"1","hoto":"1"},{"lat":"23.8328","lng":"73.5176","name":"DNGPDNGPESR014","address":"Sap : I-RJ-DNGP-ENB-9008<br\/>Loopback : 172.22.102.116<br\/>Up-Time : 49 days, 4:52:35.43","type":"ESR","status":"1","hoto":"1"},{"lat":"23.7638","lng":"73.4452","name":"DNGPDNGPESR011","address":"Sap : I-RJ-DNGP-ENB-V001<br\/>Loopback : 172.22.107.223<br\/>Up-Time : 40 days, 14:08:01.94","type":"ESR","status":"1","hoto":"1"},{"lat":"25.3938","lng":"73.7827","name":"DOGRDOGRESR004","address":"Sap : I-RJ-DOGR-ENB-6000<br\/>Loopback : 172.22.99.85<br\/>Up-Time : 27 days, 16:01:34.81","type":"ESR","status":"1","hoto":"1"},{"lat":"25.869","lng":"75.5993","name":"DOLIDOLIESR005","address":"Sap : I-RJ-DOLI-ENB-6002<br\/>Loopback : 172.22.99.131<br\/>Up-Time : 4 days, 18:42:09.71","type":"ESR","status":"1","hoto":"1"},{"lat":"25.8856","lng":"75.5725","name":"DOLIDOLIESR004","address":"Sap : I-RJ-DOLI-ENB-9007<br\/>Loopback : 172.22.108.77<br\/>Up-Time : 21:12:47.84","type":"ESR","status":"1","hoto":"1"},{"lat":"25.8014","lng":"75.4326","name":"DOLIDOLIESR002","address":"Sap : I-RJ-DOLI-ENB-9008<br\/>Loopback : 172.22.108.73<br\/>Up-Time : 2 days, 1:30:08.52","type":"ESR","status":"1","hoto":"1"},{"lat":"25.9206","lng":"75.591","name":"DOLIDOLIESR006","address":"Sap : I-RJ-DOLI-ENB-I001<br\/>Loopback : 172.22.107.25<br\/>Up-Time : 47 days, 5:42:49.03","type":"ESR","status":"1","hoto":"1"},{"lat":"25.7552","lng":"75.3885","name":"DOLIDOLIESR003","address":"Sap : I-RJ-DOLI-ENB-V001<br\/>Loopback : 172.22.108.81<br\/>Up-Time : 44 days, 6:52:48.56","type":"ESR","status":"1","hoto":"1"},{"lat":"27.7933","lng":"73.3372","name":"DSNKDSNKESR001","address":"Sap : I-RJ-DSNK-ENB-6000<br\/>Loopback : 172.22.104.219<br\/>Up-Time : 21 days, 19:26:34.51","type":"ESR","status":"1","hoto":"1"},{"lat":"27.483","lng":"75.386","name":"DTRGDTRGESR002","address":"Sap : I-RJ-DTRG-ENB-6008<br\/>Loopback : 172.22.102.174<br\/> ","type":"ESR","status":"0","hoto":"1"},{"lat":"27.5145","lng":"75.2986","name":"DTRGDTRGESR001","address":"Sap : I-RJ-DTRG-ENB-6009<br\/>Loopback : 172.22.100.141<br\/>Up-Time : 12 days, 23:35:25.07","type":"ESR","status":"1","hoto":"1"},{"lat":"26.8624","lng":"75.4542","name":"DUDUDUDUESR002","address":"Sap : I-RJ-DUDU-ENB-6000<br\/>Loopback : 172.22.101.53<br\/>Up-Time : 8:46:17.06","type":"ESR","status":"1","hoto":"1"},{"lat":"26.8091","lng":"75.4856","name":"DUDUDUDUESR005","address":"Sap : I-RJ-DUDU-ENB-6001<br\/>Loopback : 172.22.96.165<br\/>Up-Time : 42 days, 20:56:30.60","type":"ESR","status":"1","hoto":"1"},{"lat":"26.6829","lng":"75.2315","name":"DUDUDUDUESR003","address":"Sap : I-RJ-DUDU-ENB-6005<br\/>Loopback : 172.22.96.171<br\/>Up-Time : 15:41:36.54","type":"ESR","status":"1","hoto":"1"},{"lat":"26.6996","lng":"75.2574","name":"DUDUDUDUESR010","address":"Sap : I-RJ-DUDU-ENB-9018<br\/>Loopback : 172.22.105.208<br\/>Up-Time : 4:30:47.66","type":"ESR","status":"1","hoto":"1"},{"lat":"26.6987","lng":"75.2554","name":"DUDUDUDUESR001","address":"Sap : I-RJ-DUDU-ILA-0001<br\/>Loopback : 172.22.103.226<br\/>Up-Time : 4:31:50.06","type":"ESR","status":"1","hoto":"1"},{"lat":"24.6072","lng":"74.3105","name":"DULADULAESR003","address":"Sap : I-RJ-DULA-ENB-6001<br\/>Loopback : 172.22.97.149<br\/>Up-Time : 20 days, 19:52:01.40","type":"ESR","status":"1","hoto":"1"},{"lat":"24.5063","lng":"74.3368","name":"DULADULAESR001","address":"Sap : I-RJ-DULA-ENB-B001<br\/>Loopback : 172.22.97.144<br\/>Up-Time : 24 days, 23:20:37.07","type":"ESR","status":"1","hoto":"1"},{"lat":"26.9011","lng":"76.3285","name":"DUSAARSMESR001","address":"Sap : I-RJ-DUSA-ENB-0004<br\/>Loopback : 172.22.103.111<br\/>Up-Time : 47 days, 5:37:39.58","type":"ESR","status":"1","hoto":"1"},{"lat":"26.9004","lng":"76.3352","name":"DUSAAHKNESR003","address":"Sap : I-RJ-DUSA-ENB-0005<br\/>Loopback : 172.22.103.112<br\/>Up-Time : 47 days, 5:39:14.50","type":"ESR","status":"1","hoto":"1"},{"lat":"26.9025","lng":"76.3206","name":"DUSAARSMESR002","address":"Sap : I-RJ-DUSA-ENB-0007<br\/>Loopback : 172.22.99.51<br\/>Up-Time : 40 days, 14:16:34.33","type":"ESR","status":"1","hoto":"1"},{"lat":"26.9064","lng":"76.3726","name":"DUSABCWSESR001","address":"Sap : I-RJ-DUSA-ENB-0008<br\/>Loopback : 172.22.98.145<br\/>Up-Time : 42 days, 2:36:46.74","type":"ESR","status":"1","hoto":"1"},{"lat":"26.9165","lng":"76.3391","name":"DUSADUSLESR001","address":"Sap : I-RJ-DUSA-ENB-0009<br\/>Loopback : 172.22.99.98<br\/>Up-Time : 20 days, 22:27:41.83","type":"ESR","status":"1","hoto":"1"},{"lat":"26.9081","lng":"76.3249","name":"DUSAARSMESR003","address":"Sap : I-RJ-DUSA-ENB-0010<br\/>Loopback : 172.22.99.5<br\/>Up-Time : 34 days, 11:20:35.85","type":"ESR","status":"1","hoto":"1"},{"lat":"26.8855","lng":"76.3242","name":"DUSAHSBDESR001","address":"Sap : I-RJ-DUSA-ENB-0011<br\/>Loopback : 172.22.98.214<br\/>Up-Time : 53 days, 12:12:01.66","type":"ESR","status":"1","hoto":"1"},{"lat":"26.8943","lng":"76.3227","name":"DUSASHKCESR001","address":"Sap : I-RJ-DUSA-ENB-0012<br\/>Loopback : 172.22.103.110<br\/>Up-Time : 41 days, 6:14:34.36","type":"ESR","status":"1","hoto":"1"},{"lat":"26.8801","lng":"76.3317","name":"DUSABHRNESR001","address":"Sap : I-RJ-DUSA-ENB-0013<br\/>Loopback : 172.22.98.151<br\/>Up-Time : 42 days, 3:12:42.37","type":"ESR","status":"1","hoto":"1"},{"lat":"26.8941","lng":"76.3354","name":"DUSABHTYESR002","address":"Sap : I-RJ-DUSA-ENB-6005<br\/>Loopback : 172.22.103.114<br\/>Up-Time : 47 days, 3:25:49.44","type":"ESR","status":"1","hoto":"1"},{"lat":"26.8972","lng":"76.3296","name":"DUSADUSFESR001","address":"Sap : I-RJ-DUSA-ENB-6006<br\/>Loopback : 172.22.103.115<br\/>Up-Time : 47 days, 5:38:34.09","type":"ESR","status":"1","hoto":"1"},{"lat":"26.8976","lng":"76.3403","name":"DUSABHTYESR001","address":"Sap : I-RJ-DUSA-ENB-6008<br\/>Loopback : 172.22.103.113<br\/>Up-Time : 47 days, 5:39:04.40","type":"ESR","status":"1","hoto":"1"},{"lat":"26.9804","lng":"76.4507","name":"DUSADUSAESR005","address":"Sap : I-RJ-DUSA-ENB-9007<br\/>Loopback : 172.22.108.137<br\/>Up-Time : 40 days, 4:21:51.29","type":"ESR","status":"1","hoto":"1"},{"lat":"26.9805","lng":"76.2816","name":"DUSADUSAESR006","address":"Sap : I-RJ-DUSA-ENB-9011<br\/>Loopback : 172.22.106.213<br\/>Up-Time : 2:56:30.85","type":"ESR","status":"1","hoto":"1"},{"lat":"26.905","lng":"76.3553","name":"DUSAAHKNESR001","address":"Sap : I-RJ-DUSA-ENB-B001<br\/>Loopback : 172.22.103.108<br\/>Up-Time : 47 days, 6:11:36.55","type":"ESR","status":"1","hoto":"1"},{"lat":"26.8888","lng":"76.3328","name":"DUSAVKSCESR001","address":"Sap : I-RJ-DUSA-ENB-I001<br\/>Loopback : 172.22.105.211<br\/>Up-Time : 47 days, 6:33:19.05","type":"ESR","status":"1","hoto":"1"},{"lat":"26.9042","lng":"76.3462","name":"DUSAAHKNESR002","address":"Sap : I-RJ-DUSA-ENB-V001<br\/>Loopback : 172.22.103.109<br\/>Up-Time : 47 days, 6:10:25.53","type":"ESR","status":"1","hoto":"1"},{"lat":"26.8895","lng":"76.3364","name":"DUSABWRIESR001","address":"Sap : I-RJ-DUSA-ENB-V002<br\/>Loopback : 172.22.105.210<br\/>Up-Time : 47 days, 6:31:57.22","type":"ESR","status":"1","hoto":"1"},{"lat":"26.4944","lng":"71.2062","name":"FATGFATGESR001","address":"Sap : I-RJ-FATG-ENB-6006<br\/>Loopback : 172.22.106.88<br\/>Up-Time : 44 days, 5:06:45.09","type":"ESR","status":"1","hoto":"1"},{"lat":"28.0016","lng":"74.963","name":"FPJJTYNMESR001","address":"Sap : I-RJ-FPJJ-ENB-0001<br\/>Loopback : 172.22.105.86<br\/>Up-Time : 26 days, 20:27:05.22","type":"ESR","status":"1","hoto":"1"},{"lat":"27.9949","lng":"74.9587","name":"FPJJFTPRESR001","address":"Sap : I-RJ-FPJJ-ENB-0003<br\/>Loopback : 172.22.101.62<br\/>Up-Time : 47 days, 6:41:44.98","type":"ESR","status":"1","hoto":"1"},{"lat":"27.9956","lng":"74.9452","name":"FPJJCHZRESR001","address":"Sap : I-RJ-FPJJ-ENB-0006<br\/>Loopback : 172.22.105.77<br\/>Up-Time : 47 days, 5:45:28.18","type":"ESR","status":"1","hoto":"1"},{"lat":"28.0021","lng":"74.9498","name":"FPJJDHUKESR001","address":"Sap : I-RJ-FPJJ-ENB-0008<br\/>Loopback : 172.22.102.246<br\/>Up-Time : 47 days, 5:16:06.14","type":"ESR","status":"1","hoto":"1"},{"lat":"28.0054","lng":"74.9687","name":"FPJJFTCZESR001","address":"Sap : I-RJ-FPJJ-ENB-0010<br\/>Loopback : 172.22.99.53<br\/>Up-Time : 17 days, 17:28:59.09","type":"ESR","status":"1","hoto":"1"},{"lat":"27.9962","lng":"74.9688","name":"FPJJFTPZPAR001","address":"Sap : I-RJ-FPJJ-ENB-0013<br\/>Loopback : 172.22.105.81<br\/>Up-Time : 49 days, 5:35:24.05","type":"PAR","status":"1","hoto":"1"},{"lat":"28.0794","lng":"74.9021","name":"FPJJFPJJESR007","address":"Sap : I-RJ-FPJJ-ENB-6002<br\/>Loopback : 172.22.109.76<br\/>Up-Time : 49 days, 4:50:29.07","type":"ESR","status":"1","hoto":"1"},{"lat":"28.1745","lng":"74.9788","name":"FPJJFPJJESR001","address":"Sap : I-RJ-FPJJ-ENB-6003<br\/>Loopback : 172.22.107.46<br\/> ","type":"ESR","status":"0","hoto":"1"},{"lat":"28.0012","lng":"74.9572","name":"FPJJFTPNESR001","address":"Sap : I-RJ-FPJJ-ENB-6004<br\/>Loopback : 172.22.105.85<br\/>Up-Time : 27 days, 17:21:14.25","type":"ESR","status":"1","hoto":"1"},{"lat":"27.9968","lng":"74.9636","name":"FPJJNRDVESR001","address":"Sap : I-RJ-FPJJ-ENB-6005<br\/>Loopback : 172.22.105.80<br\/>Up-Time : 47 days, 5:49:25.46","type":"ESR","status":"1","hoto":"1"},{"lat":"27.9948","lng":"74.9526","name":"FPJJFTPKESR001","address":"Sap : I-RJ-FPJJ-ENB-6006<br\/>Loopback : 172.22.105.83<br\/>Up-Time : 11 days, 21:18:11.95","type":"ESR","status":"1","hoto":"1"},{"lat":"27.9171","lng":"74.9812","name":"FPJJFPJJESR005","address":"Sap : I-RJ-FPJJ-ENB-9009<br\/>Loopback : 172.22.100.13<br\/>Up-Time : 56 days, 7:47:09.31","type":"ESR","status":"1","hoto":"1"},{"lat":"28.0456","lng":"74.9434","name":"FPJJFPJJESR003","address":"Sap : I-RJ-FPJJ-ENB-9011<br\/>Loopback : 172.22.102.105<br\/>Up-Time : 42 days, 9:43:54.95","type":"ESR","status":"1","hoto":"1"},{"lat":"28.1701","lng":"74.9684","name":"RMRHRMRHESR001","address":"Sap : I-RJ-FPJJ-ENB-9012<br\/>Loopback : 172.22.102.230<br\/>Up-Time : 21 days, 14:58:24.53","type":"ESR","status":"1","hoto":"1"},{"lat":"27.9872","lng":"74.9618","name":"FPJJJTCLESR001","address":"Sap : I-RJ-FPJJ-ENB-B001<br\/>Loopback : 172.22.105.82<br\/>Up-Time : 21 days, 15:27:27.52","type":"ESR","status":"1","hoto":"1"},{"lat":"27.9855","lng":"74.9466","name":"FPJJJHGIESR001","address":"Sap : I-RJ-FPJJ-ENB-H001<br\/>Loopback : 172.22.105.84<br\/>Up-Time : 47 days, 5:50:35.25","type":"ESR","status":"1","hoto":"1"},{"lat":"28.0141","lng":"74.9494","name":"FPJJFPJJESR002","address":"Sap : I-RJ-FPJJ-ENB-I001<br\/>Loopback : 172.22.105.78<br\/>Up-Time : 27 days, 14:42:57.42","type":"ESR","status":"1","hoto":"1"},{"lat":"28.007","lng":"74.9572","name":"FPJJTLINESR001","address":"Sap : I-RJ-FPJJ-ENB-I002<br\/>Loopback : 172.22.105.79<br\/>Up-Time : 47 days, 3:28:29.42","type":"ESR","status":"1","hoto":"1"},{"lat":"28.0122","lng":"74.9654","name":"FPJJHRJBESR001","address":"Sap : I-RJ-FPJJ-ENB-I003<br\/>Loopback : 172.22.99.54<br\/>Up-Time : 42 days, 3:06:23.81","type":"ESR","status":"1","hoto":"1"},{"lat":"27.9914","lng":"74.962","name":"FPJJJTCLESR002","address":"Sap : I-RJ-FPJJ-ENB-I004<br\/>Loopback : 172.22.101.219<br\/>Up-Time : 48 days, 3:34:49.85","type":"ESR","status":"1","hoto":"1"},{"lat":"24.8134","lng":"74.0963","name":"FTNGFTNGESR001","address":"Sap : I-RJ-FTNG-ENB-6000<br\/>Loopback : 172.22.106.140<br\/>Up-Time : 47 days, 3:37:03.16","type":"ESR","status":"1","hoto":"1"},{"lat":"25.822","lng":"74.7286","name":"GBPRGBPRESR006","address":"Sap : I-RJ-GBPR-ENB-6000<br\/>Loopback : 172.22.102.113<br\/>Up-Time : 3 days, 13:29:38.17","type":"ESR","status":"1","hoto":"1"},{"lat":"25.7823","lng":"74.6474","name":"GBPRGBPRESR003","address":"Sap : I-RJ-GBPR-ENB-6001<br\/>Loopback : 172.22.96.183<br\/>Up-Time : 43 days, 11:44:19.46","type":"ESR","status":"1","hoto":"1"},{"lat":"25.9057","lng":"74.659","name":"GBPRGBPRESR002","address":"Sap : I-RJ-GBPR-ENB-6002<br\/>Loopback : 172.22.96.181<br\/>Up-Time : 3 days, 16:40:14.49","type":"ESR","status":"1","hoto":"1"},{"lat":"25.805","lng":"74.6148","name":"GBPRGBPRESR001","address":"Sap : I-RJ-GBPR-ENB-6003<br\/>Loopback : 172.22.96.182<br\/>Up-Time : 29 days, 6:46:59.55","type":"ESR","status":"1","hoto":"1"},{"lat":"25.8621","lng":"74.6165","name":"GBPRGBPRESR005","address":"Sap : I-RJ-GBPR-ENB-9005<br\/>Loopback : 172.22.108.84<br\/>Up-Time : 42 days, 22:13:36.42","type":"ESR","status":"1","hoto":"1"},{"lat":"25.7269","lng":"74.6231","name":"GLBPGLBPESR001","address":"Sap : I-RJ-GBPR-ENB-9006<br\/>Loopback : 172.22.96.184<br\/>Up-Time : 44 days, 3:16:30.24","type":"ESR","status":"1","hoto":"1"},{"lat":"23.4944","lng":"74.1992","name":"GERPGERPESR004","address":"Sap : I-RJ-GERP-ENB-6003<br\/>Loopback : 172.22.102.181<br\/>Up-Time : 0:55:40.81","type":"ESR","status":"1","hoto":"1"},{"lat":"23.5897","lng":"74.1509","name":"GERPGERPESR001","address":"Sap : I-RJ-GERP-ENB-V001<br\/>Loopback : 172.22.105.105<br\/> ","type":"ESR","status":"0","hoto":"1"},{"lat":"24.7495","lng":"73.5387","name":"GGDAGGDAESR004","address":"Sap : I-RJ-GGDA-ENB-I004<br\/>Loopback : 172.22.97.91<br\/>Up-Time : 3 days, 12:59:46.24","type":"ESR","status":"1","hoto":"1"},{"lat":"29.9271","lng":"73.8708","name":"GGGRGGNRPAR001","address":"Sap : I-RJ-GGGR-AG2-0001<br\/>Loopback : 172.16.46.25<br\/>Up-Time : 69 days, 5:34:14.02","type":"PAR","status":"1","hoto":"1"},{"lat":"29.748","lng":"73.9032","name":"GGGRGGGRESR002","address":"Sap : I-RJ-GGGR-ENB-6014<br\/>Loopback : 172.22.66.253<br\/>Up-Time : 8 days, 10:03:17.43","type":"ESR","status":"1","hoto":"1"},{"lat":"29.83","lng":"73.7261","name":"GGGRGGGRESR004","address":"Sap : I-RJ-GGGR-ENB-6016<br\/>Loopback : 172.22.73.130<br\/>Up-Time : 53 days, 3:18:04.51","type":"ESR","status":"1","hoto":"1"},{"lat":"29.9676","lng":"73.9019","name":"GGGRGGGRESR001","address":"Sap : I-RJ-GGGR-ENB-6017<br\/>Loopback : 172.22.69.13<br\/>Up-Time : 10 days, 21:05:45.61","type":"ESR","status":"1","hoto":"1"},{"lat":"29.7369","lng":"73.8758","name":"GGGRGGGRESR006","address":"Sap : I-RJ-GGGR-ENB-9007<br\/>Loopback : 172.22.68.167<br\/>Up-Time : 44 days, 5:05:32.93","type":"ESR","status":"1","hoto":"1"},{"lat":"26.5032","lng":"76.7335","name":"GGPCADRSESR001","address":"Sap : I-RJ-GGPC-ENB-0009<br\/>Loopback : 172.22.107.6<br\/>Up-Time : 47 days, 4:22:11.73","type":"ESR","status":"1","hoto":"1"},{"lat":"26.4976","lng":"76.7454","name":"GGPCRICCESR001","address":"Sap : I-RJ-GGPC-ENB-0010<br\/>Loopback : 172.22.98.47<br\/>Up-Time : 10 days, 22:48:32.24","type":"ESR","status":"1","hoto":"1"},{"lat":"26.4743","lng":"76.7269","name":"GGPCADBVESR001","address":"Sap : I-RJ-GGPC-ENB-6000<br\/>Loopback : 172.22.103.83<br\/>Up-Time : 61 days, 2:05:41.41","type":"ESR","status":"1","hoto":"1"},{"lat":"26.4659","lng":"76.7203","name":"GGPCNSYCESR002","address":"Sap : I-RJ-GGPC-ENB-B002<br\/>Loopback : 172.22.101.165<br\/>Up-Time : 2 days, 23:49:44.96","type":"ESR","status":"1","hoto":"1"},{"lat":"26.4809","lng":"76.7402","name":"GGPCDULPESR001","address":"Sap : I-RJ-GGPC-ENB-I001<br\/>Loopback : 172.22.98.45<br\/>Up-Time : 61 days, 1:56:03.87","type":"ESR","status":"1","hoto":"1"},{"lat":"23.7575","lng":"74.4132","name":"GHOLGHOLESR001","address":"Sap : I-RJ-GHOL-ENB-6003<br\/>Loopback : 172.22.96.202<br\/>Up-Time : 6 days, 9:42:23.11","type":"ESR","status":"1","hoto":"1"},{"lat":"23.6549","lng":"74.4034","name":"GHOLGHOLESR002","address":"Sap : I-RJ-GHOL-ENB-6005<br\/>Loopback : 172.22.96.198<br\/>Up-Time : 11 days, 15:58:15.78","type":"ESR","status":"1","hoto":"1"},{"lat":"23.7457","lng":"74.3832","name":"GHOLGHOLESR005","address":"Sap : I-RJ-GHOL-ENB-I001<br\/>Loopback : 172.22.96.200<br\/>Up-Time : 61 days, 0:27:37.20","type":"ESR","status":"1","hoto":"1"},{"lat":"29.6583","lng":"73.4399","name":"GJSPGJSPESR001","address":"Sap : I-RJ-GJSP-ENB-6000<br\/>Loopback : 172.22.71.33<br\/>Up-Time : 61 days, 3:32:44.84","type":"ESR","status":"1","hoto":"1"},{"lat":"25.2161","lng":"74.2602","name":"GNGPGNGPESR001","address":"Sap : I-RJ-GNGP-ENB-6000<br\/>Loopback : 172.22.97.4<br\/>Up-Time : 44 days, 4:00:39.08","type":"ESR","status":"1","hoto":"1"},{"lat":"25.0588","lng":"74.6221","name":"GNGRGNGRPAR001","address":"Sap : I-RJ-GNGR-ENB-6000<br\/>Loopback : 172.16.49.61<br\/> ","type":"PAR","status":"0","hoto":"1"},{"lat":"23.6137","lng":"73.7196","name":"GNWAGNWAPAR001","address":"Sap : I-RJ-GNWA-ENB-6000<br\/>Loopback : 172.22.105.113<br\/> ","type":"PAR","status":"0","hoto":"1"},{"lat":"25.5456","lng":"75.5916","name":"HILIHILIESR007","address":"Sap : I-RJ-HILI-ENB-6000<br\/>Loopback : 172.22.102.89<br\/>Up-Time : 8 days, 11:18:34.28","type":"ESR","status":"1","hoto":"1"},{"lat":"25.5107","lng":"75.5382","name":"HILIHILIESR002","address":"Sap : I-RJ-HILI-ENB-6001<br\/>Loopback : 172.22.97.75<br\/>Up-Time : 3:51:55.43","type":"ESR","status":"1","hoto":"1"},