var maplatlng = {"latlng":[{"lat":"27.2052","lng":"77.9538","name":"AGRALHMDPAR001","address":"Sap : I-UW-AGRA-AG2-0001<br\/>Loopback : 172.16.50.1<br\/>Up-Time : 57 days, 23:32:41.13","type":"PAR","status":"1","hoto":"1"},{"lat":"27.2052","lng":"77.9538","name":"AGRALHMDPAR002","address":"Sap : I-UW-AGRA-AG2-0001<br\/>Loopback : 172.16.50.2<br\/>Up-Time : ","type":"PAR","status":"1","hoto":"1"},{"lat":"27.1364","lng":"78.051","name":"AGRABPMVAAR001","address":"Sap : I-UW-AGRA-AG2-0002<br\/>Loopback : 49.44.3.38<br\/>Up-Time : 46 days, 9:24:08.18","type":"AAR","status":"1","hoto":"0"},{"lat":"27.186","lng":"78.0071","name":"AGRANKMDESR001","address":"Sap : I-UW-AGRA-ENB-0001<br\/>Loopback : 172.22.51.6<br\/>Up-Time : 51 days, 4:16:12.21","type":"ESR","status":"1","hoto":"1"},{"lat":"27.1806","lng":"78.0057","name":"AGRARKBGESR001","address":"Sap : I-UW-AGRA-ENB-0007<br\/>Loopback : 172.22.51.7<br\/>Up-Time : 53 days, 2:52:06.30","type":"ESR","status":"1","hoto":"1"},{"lat":"27.191","lng":"77.9954","name":"AGRAMDIAESR002","address":"Sap : I-UW-AGRA-ENB-0009<br\/>Loopback : 172.22.50.113<br\/>Up-Time : 47 days, 4:03:58.26","type":"ESR","status":"1","hoto":"1"},{"lat":"27.194","lng":"78.0095","name":"AGRABGMZESR001","address":"Sap : I-UW-AGRA-ENB-0011<br\/>Loopback : 172.22.57.204<br\/>Up-Time : 47 days, 4:37:14.85","type":"ESR","status":"1","hoto":"1"},{"lat":"27.1762","lng":"78.0144","name":"AGRAMUNDESR001","address":"Sap : I-UW-AGRA-ENB-0023<br\/>Loopback : 172.22.49.156<br\/>Up-Time : 5 days, 20:37:48.27","type":"ESR","status":"1","hoto":"1"},{"lat":"27.165","lng":"78.0408","name":"AGRAPRNIESR001","address":"Sap : I-UW-AGRA-ENB-0029<br\/>Loopback : 172.22.56.126<br\/>Up-Time : 61 days, 4:53:34.12","type":"ESR","status":"1","hoto":"1"},{"lat":"27.16","lng":"78.0419","name":"AGRAVBHVESR001","address":"Sap : I-UW-AGRA-ENB-0030<br\/>Loopback : 172.22.50.114<br\/>Up-Time : 9 days, 11:34:07.61","type":"ESR","status":"1","hoto":"1"},{"lat":"27.1637","lng":"78.0511","name":"AGRATLPRESR001","address":"Sap : I-UW-AGRA-ENB-0033<br\/>Loopback : 172.22.56.127<br\/>Up-Time : 61 days, 4:53:16.89","type":"ESR","status":"1","hoto":"1"},{"lat":"27.167","lng":"78.0509","name":"AGRAPTKLESR001","address":"Sap : I-UW-AGRA-ENB-0037<br\/>Loopback : 172.22.56.128<br\/>Up-Time : 61 days, 4:54:36.77","type":"ESR","status":"1","hoto":"1"},{"lat":"27.1774","lng":"77.988","name":"AGRAAHKNESR001","address":"Sap : I-UW-AGRA-ENB-0046<br\/>Loopback : 172.22.57.121<br\/>Up-Time : 23 days, 21:04:39.56","type":"ESR","status":"1","hoto":"1"},{"lat":"27.1721","lng":"78.0046","name":"AGRADHLPESR001","address":"Sap : I-UW-AGRA-ENB-0055<br\/>Loopback : 172.22.51.54<br\/>Up-Time : 39 days, 2:40:37.48","type":"ESR","status":"1","hoto":"1"},{"lat":"27.1774","lng":"77.9843","name":"AGRAKTMBESR001","address":"Sap : I-UW-AGRA-ENB-0062<br\/>Loopback : 172.22.57.122<br\/>Up-Time : 49 days, 5:23:27.90","type":"ESR","status":"1","hoto":"1"},{"lat":"27.1736","lng":"77.9874","name":"AGRAIDRCESR001","address":"Sap : I-UW-AGRA-ENB-0064<br\/>Loopback : 172.22.57.165<br\/>Up-Time : 34 days, 6:45:34.64","type":"ESR","status":"1","hoto":"1"},{"lat":"27.1989","lng":"77.9687","name":"AGRAGRHBESR001","address":"Sap : I-UW-AGRA-ENB-0075<br\/>Loopback : 172.22.49.105<br\/>Up-Time : 53 days, 2:30:57.55","type":"ESR","status":"1","hoto":"1"},{"lat":"27.2133","lng":"78.0058","name":"AGRANGLPESR001","address":"Sap : I-UW-AGRA-ENB-0078<br\/>Loopback : 172.22.50.116<br\/>Up-Time : 47 days, 4:03:05.95","type":"ESR","status":"1","hoto":"1"},{"lat":"27.166","lng":"77.9869","name":"AGRAAJETESR001","address":"Sap : I-UW-AGRA-ENB-0087<br\/>Loopback : 172.22.49.158<br\/>Up-Time : 48 days, 16:38:39.85","type":"ESR","status":"1","hoto":"1"},{"lat":"27.2178","lng":"77.9806","name":"AGRAKHDRESR005","address":"Sap : I-UW-AGRA-ENB-0096<br\/>Loopback : 172.22.50.117<br\/>Up-Time : 18 days, 12:42:16.98","type":"ESR","status":"1","hoto":"1"},{"lat":"27.2106","lng":"77.9792","name":"AGRAKHDRESR002","address":"Sap : I-UW-AGRA-ENB-0097<br\/>Loopback : 172.22.50.34<br\/>Up-Time : 48 days, 4:40:47.37","type":"ESR","status":"1","hoto":"1"},{"lat":"27.1734","lng":"77.9662","name":"AGRAJGPDESR001","address":"Sap : I-UW-AGRA-ENB-0107<br\/>Loopback : 172.22.49.216<br\/>Up-Time : 3 days, 9:04:44.53","type":"ESR","status":"1","hoto":"1"},{"lat":"27.2213","lng":"77.9936","name":"AGRAKHDRESR004","address":"Sap : I-UW-AGRA-ENB-0112<br\/>Loopback : 172.22.58.240<br\/>Up-Time : 27 days, 19:37:18.63","type":"ESR","status":"1","hoto":"1"},{"lat":"27.1975","lng":"77.965","name":"AGRALHAHESR001","address":"Sap : I-UW-AGRA-ENB-0116<br\/>Loopback : 172.22.58.45<br\/>Up-Time : 39 days, 16:18:44.95","type":"ESR","status":"1","hoto":"1"},{"lat":"27.2012","lng":"77.9613","name":"AGRALHKBESR001","address":"Sap : I-UW-AGRA-ENB-0117<br\/>Loopback : 172.22.50.206<br\/>Up-Time : 37 days, 15:42:17.51","type":"ESR","status":"1","hoto":"1"},{"lat":"27.2078","lng":"77.9612","name":"AGRAGRTGESR001","address":"Sap : I-UW-AGRA-ENB-0118<br\/>Loopback : 172.22.51.2<br\/>Up-Time : 60 days, 5:44:54.91","type":"ESR","status":"1","hoto":"1"},{"lat":"27.1917","lng":"77.9565","name":"AGRADHTRESR001","address":"Sap : I-UW-AGRA-ENB-0123<br\/>Loopback : 172.22.50.118<br\/>Up-Time : 35 days, 17:20:15.62","type":"ESR","status":"1","hoto":"1"},{"lat":"27.1852","lng":"77.9575","name":"AGRAGLRKESR001","address":"Sap : I-UW-AGRA-ENB-0124<br\/>Loopback : 172.22.58.128<br\/>Up-Time : 3 days, 21:28:11.35","type":"ESR","status":"1","hoto":"1"},{"lat":"27.1741","lng":"77.9601","name":"AGRADVRTESR001","address":"Sap : I-UW-AGRA-ENB-0125<br\/>Loopback : 172.22.56.221<br\/> ","type":"ESR","status":"0","hoto":"1"},{"lat":"27.196","lng":"78.0123","name":"AGRAKMLNESR001","address":"Sap : I-UW-AGRA-ENB-0126<br\/>Loopback : 172.22.57.206<br\/>Up-Time : 49 days, 5:21:52.02","type":"ESR","status":"1","hoto":"1"},{"lat":"27.1579","lng":"77.9855","name":"AGRARSLPESR002","address":"Sap : I-UW-AGRA-ENB-0127<br\/>Loopback : 172.22.50.119<br\/> ","type":"ESR","status":"0","hoto":"1"},{"lat":"27.1924","lng":"77.9503","name":"AGRADHTRESR005","address":"Sap : I-UW-AGRA-ENB-0132<br\/>Loopback : 172.22.50.121<br\/>Up-Time : 5 days, 11:40:38.42","type":"ESR","status":"1","hoto":"1"},{"lat":"27.2086","lng":"77.9516","name":"AGRAKVRNESR001","address":"Sap : I-UW-AGRA-ENB-0134<br\/>Loopback : 172.22.50.35<br\/>Up-Time : 15 days, 14:33:52.47","type":"ESR","status":"1","hoto":"1"},{"lat":"27.186","lng":"77.9516","name":"AGRADHTRESR002","address":"Sap : I-UW-AGRA-ENB-0136<br\/>Loopback : 172.22.50.209<br\/>Up-Time : 47 days, 4:55:34.10","type":"ESR","status":"1","hoto":"1"},{"lat":"27.1503","lng":"77.9831","name":"AGRANRPAESR001","address":"Sap : I-UW-AGRA-ENB-0137<br\/>Loopback : 172.22.49.159<br\/>Up-Time : 61 days, 4:07:46.99","type":"ESR","status":"1","hoto":"1"},{"lat":"27.2271","lng":"78.0273","name":"AGRAKRMYESR001","address":"Sap : I-UW-AGRA-ENB-0138<br\/>Loopback : 172.22.50.122<br\/>Up-Time : 28 days, 14:47:43.45","type":"ESR","status":"1","hoto":"1"},{"lat":"27.2022","lng":"78.0513","name":"AGRAIDSTESR001","address":"Sap : I-UW-AGRA-ENB-0150<br\/>Loopback : 172.22.57.33<br\/>Up-Time : 47 days, 5:07:55.03","type":"ESR","status":"1","hoto":"1"},{"lat":"27.212","lng":"78.0525","name":"AGRASTNGESR002","address":"Sap : I-UW-AGRA-ENB-0152<br\/>Loopback : 172.22.50.72<br\/>Up-Time : 17 days, 19:35:06.26","type":"ESR","status":"1","hoto":"1"},{"lat":"27.1496","lng":"78.0575","name":"AGRANGLMESR002","address":"Sap : I-UW-AGRA-ENB-0153<br\/>Loopback : 172.22.49.86<br\/>Up-Time : 39 days, 3:55:42.59","type":"ESR","status":"1","hoto":"1"},{"lat":"27.2047","lng":"78.0584","name":"AGRAVLDNESR002","address":"Sap : I-UW-AGRA-ENB-0154<br\/>Loopback : 172.22.50.109<br\/>Up-Time : 10 days, 23:48:47.25","type":"ESR","status":"1","hoto":"1"},{"lat":"27.1682","lng":"78.0595","name":"AGRADNPRESR001","address":"Sap : I-UW-AGRA-ENB-0163<br\/>Loopback : 172.22.56.129<br\/>Up-Time : 1 day, 22:09:10.37","type":"ESR","status":"1","hoto":"1"},{"lat":"27.1526","lng":"78.0606","name":"AGRANGLMESR003","address":"Sap : I-UW-AGRA-ENB-0167<br\/>Loopback : 172.22.58.248<br\/>Up-Time : 41 days, 7:33:44.86","type":"ESR","status":"1","hoto":"1"},{"lat":"27.1338","lng":"78.0174","name":"AGRASTAGESR002","address":"Sap : I-UW-AGRA-ENB-0174<br\/>Loopback : 172.22.50.124<br\/>Up-Time : 44 days, 7:14:24.83","type":"ESR","status":"1","hoto":"1"},{"lat":"27.1271","lng":"78.029","name":"AGRASWLSESR001","address":"Sap : I-UW-AGRA-ENB-0178<br\/>Loopback : 172.22.50.125<br\/> ","type":"ESR","status":"0","hoto":"1"},{"lat":"27.1279","lng":"77.9957","name":"AGRANAJTESR001","address":"Sap : I-UW-AGRA-ENB-0180<br\/>Loopback : 172.22.56.130<br\/>Up-Time : 61 days, 4:54:40.46","type":"ESR","status":"1","hoto":"1"},{"lat":"27.1479","lng":"77.9899","name":"AGRADBSQESR001","address":"Sap : I-UW-AGRA-ENB-0181<br\/>Loopback : 172.22.56.131<br\/>Up-Time : 38 days, 13:09:23.01","type":"ESR","status":"1","hoto":"1"},{"lat":"27.145","lng":"77.9643","name":"AGRADHNUESR001","address":"Sap : I-UW-AGRA-ENB-0182<br\/>Loopback : 172.22.51.79<br\/>Up-Time : 48 days, 4:47:55.30","type":"ESR","status":"1","hoto":"1"},{"lat":"27.1436","lng":"77.9759","name":"AGRAAZPRESR001","address":"Sap : I-UW-AGRA-ENB-0187<br\/>Loopback : 172.22.50.126<br\/>Up-Time : 40 days, 0:41:15.27","type":"ESR","status":"1","hoto":"1"},{"lat":"27.1856","lng":"77.9435","name":"AGRADHTRESR004","address":"Sap : I-UW-AGRA-ENB-0189<br\/>Loopback : 172.22.57.135<br\/>Up-Time : 49 days, 5:22:04.70","type":"ESR","status":"1","hoto":"1"},{"lat":"27.1985","lng":"77.9417","name":"AGRADHTRESR003","address":"Sap : I-UW-AGRA-ENB-0190<br\/>Loopback : 172.22.51.3<br\/>Up-Time : 51 days, 4:15:56.96","type":"ESR","status":"1","hoto":"1"},{"lat":"27.2104","lng":"77.9353","name":"AGRASHTPESR002","address":"Sap : I-UW-AGRA-ENB-0194<br\/>Loopback : 172.22.51.1<br\/>Up-Time : 3 days, 12:21:37.61","type":"ESR","status":"1","hoto":"1"},{"lat":"27.2193","lng":"77.9449","name":"AGRASKDRESR001","address":"Sap : I-UW-AGRA-ENB-0196<br\/>Loopback : 172.22.50.129<br\/>Up-Time : 14 days, 15:07:45.50","type":"ESR","status":"1","hoto":"1"},{"lat":"27.2117","lng":"78.0702","name":"AGRAVLDNESR001","address":"Sap : I-UW-AGRA-ENB-0202<br\/>Loopback : 172.22.57.38<br\/>Up-Time : 8:05:13.22","type":"ESR","status":"1","hoto":"1"},{"lat":"27.2266","lng":"78.055","name":"AGRAPKSNESR001","address":"Sap : I-UW-AGRA-ENB-0203<br\/>Loopback : 172.22.50.150<br\/>Up-Time : 6 days, 22:36:13.21","type":"ESR","status":"1","hoto":"1"},{"lat":"27.2334","lng":"78.0496","name":"AGRAGULBESR001","address":"Sap : I-UW-AGRA-ENB-0204<br\/>Loopback : 172.22.50.146<br\/>Up-Time : 7 days, 9:33:26.59","type":"ESR","status":"1","hoto":"1"},{"lat":"27.2236","lng":"78.0423","name":"AGRABHWTESR001","address":"Sap : I-UW-AGRA-ENB-0205<br\/>Loopback : 172.22.51.78<br\/>Up-Time : 3 days, 8:25:51.02","type":"ESR","status":"1","hoto":"1"},{"lat":"27.1874","lng":"78.0377","name":"AGRANGDJESR001","address":"Sap : I-UW-AGRA-ENB-0207<br\/>Loopback : 172.22.57.95<br\/>Up-Time : 47 days, 5:51:35.51","type":"ESR","status":"1","hoto":"1"},{"lat":"27.1934","lng":"78.0478","name":"AGRALHYAESR001","address":"Sap : I-UW-AGRA-ENB-0208<br\/>Loopback : 172.22.49.87<br\/>Up-Time : 47 days, 5:37:00.06","type":"ESR","status":"1","hoto":"1"},{"lat":"27.1797","lng":"78.0154","name":"AGRAMUNDESR002","address":"Sap : I-UW-AGRA-ENB-0216<br\/>Loopback : 172.22.57.136<br\/>Up-Time : 6 days, 19:43:40.74","type":"ESR","status":"1","hoto":"1"},{"lat":"27.145","lng":"78.0126","name":"AGRADFETESR001","address":"Sap : I-UW-AGRA-ENB-0218<br\/>Loopback : 172.22.50.130<br\/>Up-Time : 7 days, 20:16:22.50","type":"ESR","status":"1","hoto":"1"},{"lat":"27.1737","lng":"78.0145","name":"AGRARKBJESR002","address":"Sap : I-UW-AGRA-ENB-0219<br\/>Loopback : 172.22.49.160<br\/>Up-Time : 48 days, 4:42:01.63","type":"ESR","status":"1","hoto":"1"},{"lat":"27.2301","lng":"78.0005","name":"DLBHSRLBESR001","address":"Sap : I-UW-AGRA-ENB-0221<br\/>Loopback : 172.22.50.241<br\/>Up-Time : 13 days, 11:11:23.01","type":"ESR","status":"1","hoto":"1"},{"lat":"27.1474","lng":"78.0767","name":"AGRALKVIESR002","address":"Sap : I-UW-AGRA-ENB-0223<br\/>Loopback : 172.22.49.218<br\/>Up-Time : 15 days, 15:09:27.34","type":"ESR","status":"1","hoto":"1"},{"lat":"27.1282","lng":"78.0559","name":"AGRABGDDESR001","address":"Sap : I-UW-AGRA-ENB-0225<br\/>Loopback : 172.22.49.106<br\/>Up-Time : 19 days, 22:04:19.65","type":"ESR","status":"1","hoto":"1"},{"lat":"27.1301","lng":"77.9765","name":"AGRATPRAESR001","address":"Sap : I-UW-AGRA-ENB-0226<br\/>Loopback : 172.22.57.78<br\/>Up-Time : 10 days, 21:36:54.75","type":"ESR","status":"1","hoto":"1"},{"lat":"27.1925","lng":"77.9291","name":"AGRAMNGTESR001","address":"Sap : I-UW-AGRA-ENB-0227<br\/>Loopback : 172.22.49.219<br\/>Up-Time : 33 days, 10:18:16.22","type":"ESR","status":"1","hoto":"1"},{"lat":"27.2063","lng":"77.9231","name":"AGRASHTPESR001","address":"Sap : I-UW-AGRA-ENB-0228<br\/>Loopback : 172.22.49.88<br\/>Up-Time : 9 days, 9:10:37.95","type":"ESR","status":"1","hoto":"1"},{"lat":"27.1566","lng":"78.0623","name":"AGRANGLMESR001","address":"Sap : I-UW-AGRA-ENB-0229<br\/>Loopback : 172.22.58.153<br\/>Up-Time : 49 days, 4:39:46.00","type":"ESR","status":"1","hoto":"1"},{"lat":"27.1595","lng":"77.9362","name":"AGRAIDGHESR001","address":"Sap : I-UW-AGRA-ENB-0231<br\/>Loopback : 172.22.50.15<br\/>Up-Time : 34 days, 10:10:50.62","type":"ESR","status":"1","hoto":"1"},{"lat":"27.1334","lng":"78.0742","name":"AGRALKVIESR001","address":"Sap : I-UW-AGRA-ENB-0233<br\/>Loopback : 172.22.59.15<br\/>Up-Time : 33 days, 23:47:26.11","type":"ESR","status":"1","hoto":"1"},{"lat":"27.2338","lng":"78.0024","name":"DLBHJYRMESR001","address":"Sap : I-UW-AGRA-ENB-0236<br\/>Loopback : 172.22.50.106<br\/>Up-Time : 28 days, 14:59:43.41","type":"ESR","status":"1","hoto":"1"},{"lat":"27.2081","lng":"78.0502","name":"AGRASHRNESR001","address":"Sap : I-UW-AGRA-ENB-0238<br\/>Loopback : 172.22.50.73<br\/>Up-Time : 3 days, 14:13:35.13","type":"ESR","status":"1","hoto":"1"},{"lat":"27.1878","lng":"78.0437","name":"AGRANGLDESR001","address":"Sap : I-UW-AGRA-ENB-0246<br\/>Loopback : 172.22.57.49<br\/>Up-Time : 1 day, 1:18:22.24","type":"ESR","status":"1","hoto":"1"},{"lat":"27.191","lng":"78.0393","name":"AGRANGDJESR002","address":"Sap : I-UW-AGRA-ENB-0247<br\/>Loopback : 172.22.58.33<br\/>Up-Time : 3 days, 12:24:53.15","type":"ESR","status":"1","hoto":"1"},{"lat":"27.1995","lng":"78.0394","name":"AGRAKTRWESR002","address":"Sap : I-UW-AGRA-ENB-0248<br\/>Loopback : 172.22.57.137<br\/>Up-Time : 4 days, 6:26:24.50","type":"ESR","status":"1","hoto":"1"},{"lat":"27.2019","lng":"78.0417","name":"AGRAKTRWESR003","address":"Sap : I-UW-AGRA-ENB-0249<br\/>Loopback : 172.22.57.96<br\/>Up-Time : 1 day, 22:47:52.79","type":"ESR","status":"1","hoto":"1"},{"lat":"27.2009","lng":"78.0478","name":"AGRANHNIESR002","address":"Sap : I-UW-AGRA-ENB-0250<br\/>Loopback : 172.22.57.32<br\/>Up-Time : 26 days, 10:53:48.70","type":"ESR","status":"1","hoto":"1"},{"lat":"27.2073","lng":"78.0445","name":"AGRATNSYESR002","address":"Sap : I-UW-AGRA-ENB-0251<br\/>Loopback : 172.22.51.64<br\/>Up-Time : 60 days, 5:11:14.23","type":"ESR","status":"1","hoto":"1"},{"lat":"27.2159","lng":"78.0504","name":"AGRASHYMESR004","address":"Sap : I-UW-AGRA-ENB-0257<br\/>Loopback : 172.22.57.124<br\/>Up-Time : 27 days, 6:57:01.34","type":"ESR","status":"1","hoto":"1"},{"lat":"27.2127","lng":"78.0484","name":"AGRASTNGESR003","address":"Sap : I-UW-AGRA-ENB-0258<br\/>Loopback : 172.22.58.18<br\/>Up-Time : 17 days, 17:37:17.66","type":"ESR","status":"1","hoto":"1"},{"lat":"27.2225","lng":"78.0595","name":"AGRAKLDIESR002","address":"Sap : I-UW-AGRA-ENB-0259<br\/>Loopback : 172.22.56.182<br\/>Up-Time : 34 days, 13:08:36.70","type":"ESR","status":"1","hoto":"1"},{"lat":"27.2301","lng":"78.0574","name":"AGRAGULBESR003","address":"Sap : I-UW-AGRA-ENB-0260<br\/>Loopback : 172.22.58.82<br\/>Up-Time : 31 days, 16:02:49.51","type":"ESR","status":"1","hoto":"1"},{"lat":"27.2298","lng":"78.0518","name":"AGRAGULBESR002","address":"Sap : I-UW-AGRA-ENB-0261<br\/>Loopback : 172.22.57.211<br\/>Up-Time : 47 days, 4:56:41.65","type":"ESR","status":"1","hoto":"1"},{"lat":"27.2272","lng":"78.0412","name":"AGRABHWTESR002","address":"Sap : I-UW-AGRA-ENB-0265<br\/>Loopback : 172.22.58.25<br\/>Up-Time : 9 days, 8:41:04.15","type":"ESR","status":"1","hoto":"1"},{"lat":"27.2256","lng":"77.9967","name":"DLBHVBHKESR001","address":"Sap : I-UW-AGRA-ENB-0271<br\/>Loopback : 172.22.58.241<br\/>Up-Time : 8 days, 13:58:00.55","type":"ESR","status":"1","hoto":"1"},{"lat":"27.2302","lng":"78.0201","name":"AGRASHNTESR001","address":"Sap : I-UW-AGRA-ENB-0282<br\/>Loopback : 172.22.57.138<br\/>Up-Time : 47 days, 4:38:46.05","type":"ESR","status":"1","hoto":"1"},{"lat":"27.2163","lng":"78.023","name":"AGRAKMLFESR001","address":"Sap : I-UW-AGRA-ENB-0284<br\/>Loopback : 172.22.57.131<br\/>Up-Time : 47 days, 4:44:34.12","type":"ESR","status":"1","hoto":"1"},{"lat":"27.2097","lng":"78.023","name":"AGRAGHTWESR005","address":"Sap : I-UW-AGRA-ENB-0287<br\/>Loopback : 172.22.57.68<br\/>Up-Time : 41 days, 22:22:24.98","type":"ESR","status":"1","hoto":"1"},{"lat":"27.2083","lng":"78.0331","name":"AGRARJWRESR001","address":"Sap : I-UW-AGRA-ENB-0292<br\/>Loopback : 172.22.57.220<br\/>Up-Time : 47 days, 4:53:38.94","type":"ESR","status":"1","hoto":"1"},{"lat":"27.2077","lng":"77.9835","name":"AGRAJWHRESR002","address":"Sap : I-UW-AGRA-ENB-0293<br\/>Loopback : 172.22.58.58<br\/>Up-Time : 22 days, 12:30:03.85","type":"ESR","status":"1","hoto":"1"},{"lat":"27.2071","lng":"78.0027","name":"AGRASURYESR002","address":"Sap : I-UW-AGRA-ENB-0296<br\/>Loopback : 172.22.58.46<br\/>Up-Time : 49 days, 4:34:07.58","type":"ESR","status":"1","hoto":"1"},{"lat":"27.1908","lng":"78.0085","name":"AGRASJYLESR002","address":"Sap : I-UW-AGRA-ENB-0309<br\/>Loopback : 172.22.58.177<br\/>Up-Time : 1 day, 16:04:12.37","type":"ESR","status":"1","hoto":"1"},{"lat":"27.2168","lng":"77.9568","name":"AGRAKSNPESR001","address":"Sap : I-UW-AGRA-ENB-0313<br\/>Loopback : 172.22.49.161<br\/>Up-Time : 55 days, 3:28:06.13","type":"ESR","status":"1","hoto":"1"},{"lat":"27.2148","lng":"77.9482","name":"AGRABJRGESR001","address":"Sap : I-UW-AGRA-ENB-0315<br\/>Loopback : 172.22.57.99<br\/>Up-Time : 30 days, 22:43:28.65","type":"ESR","status":"1","hoto":"1"},{"lat":"27.2047","lng":"77.9581","name":"AGRALHAIESR001","address":"Sap : I-UW-AGRA-ENB-0320<br\/>Loopback : 172.22.58.47<br\/>Up-Time : 40 days, 13:40:25.14","type":"ESR","status":"1","hoto":"1"},{"lat":"27.1888","lng":"77.9608","name":"AGRADHTRESR006","address":"Sap : I-UW-AGRA-ENB-0326<br\/>Loopback : 172.22.56.248<br\/>Up-Time : 24 days, 19:40:05.62","type":"ESR","status":"1","hoto":"1"},{"lat":"27.186","lng":"77.9673","name":"AGRAGLPRESR002","address":"Sap : I-UW-AGRA-ENB-0331<br\/>Loopback : 172.22.57.157<br\/>Up-Time : 2 days, 11:13:41.16","type":"ESR","status":"1","hoto":"1"},{"lat":"27.1785","lng":"77.9708","name":"AGRABHGPESR004","address":"Sap : I-UW-AGRA-ENB-0334<br\/>Loopback : 172.22.57.184<br\/>Up-Time : 6 days, 14:02:20.74","type":"ESR","status":"1","hoto":"1"},{"lat":"27.1719","lng":"77.9568","name":"AGRAASFCESR001","address":"Sap : I-UW-AGRA-ENB-0337<br\/>Loopback : 172.22.57.255<br\/>Up-Time : 3 days, 8:08:02.79","type":"ESR","status":"1","hoto":"1"},{"lat":"27.1739","lng":"77.9909","name":"AGRAPLCLESR001","address":"Sap : I-UW-AGRA-ENB-0359<br\/>Loopback : 172.22.57.159<br\/>Up-Time : ","type":"ESR","status":"1","hoto":"1"},{"lat":"27.1701","lng":"77.9868","name":"AGRADGKNESR001","address":"Sap : I-UW-AGRA-ENB-0360<br\/>Loopback : 172.22.57.160<br\/>Up-Time : 63 days, 20:06:28.74","type":"ESR","status":"1","hoto":"1"},{"lat":"27.1675","lng":"77.9845","name":"AGRAADYKESR001","address":"Sap : I-UW-AGRA-ENB-0362<br\/>Loopback : 172.22.57.100<br\/>Up-Time : 35 days, 17:07:16.43","type":"ESR","status":"1","hoto":"1"},{"lat":"27.15","lng":"77.9876","name":"AGRANRPAESR003","address":"Sap : I-UW-AGRA-ENB-0368<br\/>Loopback : 172.22.57.139<br\/>Up-Time : 47 days, 4:44:43.15","type":"ESR","status":"1","hoto":"1"},{"lat":"27.1457","lng":"77.9824","name":"AGRAAZPRESR002","address":"Sap : I-UW-AGRA-ENB-0369<br\/>Loopback : 172.22.51.66<br\/>Up-Time : 25 days, 13:40:43.17","type":"ESR","status":"1","hoto":"1"},{"lat":"27.1397","lng":"77.9632","name":"AGRADHNUESR004","address":"Sap : I-UW-AGRA-ENB-0371<br\/>Loopback : 172.22.58.19<br\/>Up-Time : 42 days, 16:50:27.00","type":"ESR","status":"1","hoto":"1"},{"lat":"27.1427","lng":"77.9893","name":"AGRADBSQESR002","address":"Sap : I-UW-AGRA-ENB-0372<br\/>Loopback : 172.22.57.141<br\/>Up-Time : 44 days, 5:15:21.20","type":"ESR","status":"1","hoto":"1"},{"lat":"27.1362","lng":"78.0213","name":"AGRARSHBESR001","address":"Sap : I-UW-AGRA-ENB-0378<br\/>Loopback : 172.22.57.200<br\/>Up-Time : 19 days, 22:01:36.52","type":"ESR","status":"1","hoto":"1"},{"lat":"27.1292","lng":"78.0183","name":"AGRASWLSESR003","address":"Sap : I-UW-AGRA-ENB-0380<br\/>Loopback : 172.22.57.31<br\/> ","type":"ESR","status":"0","hoto":"1"},{"lat":"27.1153","lng":"77.9992","name":"AGRAHMNSESR001","address":"Sap : I-UW-AGRA-ENB-0382<br\/>Loopback : 172.22.57.88<br\/>Up-Time : 15 days, 13:20:46.97","type":"ESR","status":"1","hoto":"1"},{"lat":"27.1354","lng":"78.0439","name":"AGRAAGRAESR015","address":"Sap : I-UW-AGRA-ENB-0384<br\/>Loopback : 172.22.57.101<br\/> ","type":"ESR","status":"0","hoto":"1"},{"lat":"27.1452","lng":"78.0381","name":"AGRAJWLNESR001","address":"Sap : I-UW-AGRA-ENB-0386<br\/>Loopback : 172.22.57.226<br\/>Up-Time : 6 days, 22:26:27.94","type":"ESR","status":"1","hoto":"1"},{"lat":"27.1423","lng":"78.0417","name":"AGRARHULESR001","address":"Sap : I-UW-AGRA-ENB-0387<br\/>Loopback : 172.22.57.225<br\/>Up-Time : 24 days, 6:21:29.37","type":"ESR","status":"1","hoto":"1"},{"lat":"27.1497","lng":"78.0396","name":"AGRAKVRVESR001","address":"Sap : I-UW-AGRA-ENB-0389<br\/>Loopback : 172.22.57.227<br\/>Up-Time : 14 days, 9:09:13.73","type":"ESR","status":"1","hoto":"1"},{"lat":"27.1558","lng":"78.0452","name":"AGRABGRPESR002","address":"Sap : I-UW-AGRA-ENB-0394<br\/>Loopback : 172.22.59.1<br\/>Up-Time : 7 days, 16:52:00.90","type":"ESR","status":"1","hoto":"1"},{"lat":"27.1615","lng":"78.0523","name":"AGRATJGNESR001","address":"Sap : I-UW-AGRA-ENB-0396<br\/>Loopback : 172.22.58.29<br\/>Up-Time : 11 days, 14:43:41.13","type":"ESR","status":"1","hoto":"1"},{"lat":"27.1857","lng":"78.0119","name":"AGRAPTLNESR001","address":"Sap : I-UW-AGRA-ENB-0406<br\/>Loopback : 172.22.57.252<br\/>Up-Time : 6 days, 12:52:44.20","type":"ESR","status":"1","hoto":"1"},{"lat":"27.1823","lng":"78.014","name":"AGRAHGKMESR001","address":"Sap : I-UW-AGRA-ENB-0407<br\/>Loopback : 172.22.57.142<br\/> ","type":"ESR","status":"0","hoto":"1"},{"lat":"27.1782","lng":"78.013","name":"AGRAMUNDESR003","address":"Sap : I-UW-AGRA-ENB-0408<br\/>Loopback : 172.22.57.213<br\/> ","type":"ESR","status":"0","hoto":"1"},{"lat":"27.1673","lng":"78.0067","name":"AGRAPRTRESR001","address":"Sap : I-UW-AGRA-ENB-0411<br\/>Loopback : 172.22.57.214<br\/> ","type":"ESR","status":"0","hoto":"1"},{"lat":"27.1525","lng":"77.9817","name":"AGRANRPAESR002","address":"Sap : I-UW-AGRA-ENB-0413<br\/>Loopback : 172.22.57.140<br\/>Up-Time : 47 days, 4:32:17.89","type":"ESR","status":"1","hoto":"1"},{"lat":"27.1429","lng":"77.9709","name":"AGRAAZPRESR003","address":"Sap : I-UW-AGRA-ENB-0415<br\/>Loopback : 172.22.51.67<br\/>Up-Time : 9 days, 23:28:11.06","type":"ESR","status":"1","hoto":"1"},{"lat":"27.2075","lng":"78.0548","name":"AGRAVLDNESR003","address":"Sap : I-UW-AGRA-ENB-6000<br\/>Loopback : 172.22.50.74<br\/>Up-Time : 18 days, 16:06:12.98","type":"ESR","status":"1","hoto":"1"},{"lat":"27.2297","lng":"78.0056","name":"AGRASRLBESR001","address":"Sap : I-UW-AGRA-ENB-6007<br\/>Loopback : 172.22.50.107<br\/>Up-Time : 60 days, 5:45:22.64","type":"ESR","status":"1","hoto":"1"},{"lat":"27.1417","lng":"77.9973","name":"AGRADFCLESR001","address":"Sap : I-UW-AGRA-ENB-6010<br\/>Loopback : 172.22.56.132<br\/>Up-Time : 61 days, 2:47:20.77","type":"ESR","status":"1","hoto":"1"},{"lat":"27.2101","lng":"78.0441","name":"AGRATNSYESR001","address":"Sap : I-UW-AGRA-ENB-6015<br\/>Loopback : 172.22.50.76<br\/>Up-Time : 51 days, 4:14:23.41","type":"ESR","status":"1","hoto":"1"},{"lat":"27.1513","lng":"78.0401","name":"AGRAMNVHESR001","address":"Sap : I-UW-AGRA-ENB-6016<br\/>Loopback : 172.22.58.254<br\/>Up-Time : 4 days, 7:43:36.70","type":"ESR","status":"1","hoto":"1"},{"lat":"27.1946","lng":"78.0201","name":"AGRAGDPRESR001","address":"Sap : I-UW-AGRA-ENB-6017<br\/>Loopback : 172.22.48.36<br\/>Up-Time : 55 days, 2:51:21.98","type":"ESR","status":"1","hoto":"1"},{"lat":"27.141","lng":"78.0034","name":"AGRAHTNPESR001","address":"Sap : I-UW-AGRA-ENB-6018<br\/>Loopback : 172.22.56.133<br\/>Up-Time : 22 days, 17:26:50.83","type":"ESR","status":"1","hoto":"1"},{"lat":"27.202","lng":"77.9538","name":"AGRARMHNESR001","address":"Sap : I-UW-AGRA-ENB-6019<br\/>Loopback : 172.22.50.37<br\/>Up-Time : 13 days, 18:10:25.59","type":"ESR","status":"1","hoto":"1"},{"lat":"27.1947","lng":"77.981","name":"AGRASFINESR001","address":"Sap : I-UW-AGRA-ENB-6020<br\/>Loopback : 172.22.56.197<br\/>Up-Time : 47 days, 5:51:21.14","type":"ESR","status":"1","hoto":"1"},{"lat":"27.2257","lng":"78.0174","name":"AGRARSMIESR001","address":"Sap : I-UW-AGRA-ENB-6021<br\/>Loopback : 172.22.50.235<br\/>Up-Time : 60 days, 5:43:57.93","type":"ESR","status":"1","hoto":"1"},{"lat":"27.1394","lng":"77.9685","name":"AGRADHNUESR003","address":"Sap : I-UW-AGRA-ENB-6024<br\/>Loopback : 172.22.50.208<br\/>Up-Time : 3 days, 13:09:06.83","type":"ESR","status":"1","hoto":"1"},{"lat":"27.2103","lng":"78.0081","name":"AGRANGLPESR002","address":"Sap : I-UW-AGRA-ENB-6026<br\/>Loopback : 172.22.50.252<br\/>Up-Time : 8 days, 11:31:21.92","type":"ESR","status":"1","hoto":"1"},{"lat":"27.1856","lng":"77.9924","name":"AGRASRDKESR001","address":"Sap : I-UW-AGRA-ENB-6028<br\/>Loopback : 172.22.56.249<br\/>Up-Time : 51 days, 3:31:28.02","type":"ESR","status":"1","hoto":"1"},{"lat":"27.1956","lng":"78.0393","name":"AGRANWGJESR002","address":"Sap : I-UW-AGRA-ENB-6032<br\/>Loopback : 172.22.51.9<br\/>Up-Time : 3 days, 14:00:45.21","type":"ESR","status":"1","hoto":"1"},{"lat":"27.1948","lng":"77.9747","name":"AGRAJGDHESR001","address":"Sap : I-UW-AGRA-ENB-6033<br\/>Loopback : 172.22.57.58<br\/>Up-Time : 47 days, 6:04:29.62","type":"ESR","status":"1","hoto":"1"},{"lat":"27.1344","lng":"78.0193","name":"AGRASTAGESR001","address":"Sap : I-UW-AGRA-ENB-6034<br\/>Loopback : 172.22.50.249<br\/>Up-Time : 35 days, 22:07:05.97","type":"ESR","status":"1","hoto":"1"},{"lat":"27.2253","lng":"78.0001","name":"AGRAVBHKESR001","address":"Sap : I-UW-AGRA-ENB-6037<br\/>Loopback : 172.22.58.152<br\/>Up-Time : 49 days, 4:40:20.24","type":"ESR","status":"1","hoto":"1"},{"lat":"27.2294","lng":"78.0246","name":"AGRAKRMYESR002","address":"Sap : I-UW-AGRA-ENB-6038<br\/>Loopback : 172.22.49.162<br\/>Up-Time : 61 days, 4:13:04.05","type":"ESR","status":"1","hoto":"1"},{"lat":"27.1994","lng":"78.0222","name":"AGRAVJYNESR001","address":"Sap : I-UW-AGRA-ENB-6041<br\/>Loopback : 172.22.57.69<br\/>Up-Time : 37 days, 16:44:53.42","type":"ESR","status":"1","hoto":"1"},{"lat":"27.2185","lng":"78.0245","name":"AGRARDHVESR001","address":"Sap : I-UW-AGRA-ENB-6046<br\/>Loopback : 172.22.56.135<br\/>Up-Time : 33 days, 20:09:22.16","type":"ESR","status":"1","hoto":"1"},{"lat":"27.2162","lng":"77.99","name":"AGRAKHDRESR001","address":"Sap : I-UW-AGRA-ENB-6050<br\/>Loopback : 172.22.50.147<br\/>Up-Time : 60 days, 5:44:00.87","type":"ESR","status":"1","hoto":"1"},{"lat":"27.2318","lng":"78.0116","name":"AGRAPRMBESR001","address":"Sap : I-UW-AGRA-ENB-6054<br\/>Loopback : 172.22.50.110<br\/>Up-Time : 60 days, 2:43:38.17","type":"ESR","status":"1","hoto":"1"},{"lat":"27.1602","lng":"78.056","name":"AGRABSKDESR001","address":"Sap : I-UW-AGRA-ENB-6055<br\/>Loopback : 172.22.56.134<br\/>Up-Time : 60 days, 8:04:33.76","type":"ESR","status":"1","hoto":"1"},{"lat":"27.1896","lng":"77.9995","name":"AGRARJKMESR001","address":"Sap : I-UW-AGRA-ENB-6057<br\/>Loopback : 172.22.57.158<br\/>Up-Time : 8 days, 12:57:09.57","type":"ESR","status":"1","hoto":"1"},{"lat":"27.1845","lng":"78.0165","name":"AGRAKSMRESR001","address":"Sap : I-UW-AGRA-ENB-6060<br\/>Loopback : 172.22.56.211<br\/>Up-Time : 2 days, 18:02:18.77","type":"ESR","status":"1","hoto":"1"},{"lat":"27.2146","lng":"78.019","name":"AGRAGHTWESR001","address":"Sap : I-UW-AGRA-ENB-6061<br\/>Loopback : 172.22.50.253<br\/>Up-Time : 47 days, 4:05:12.73","type":"ESR","status":"1","hoto":"1"},{"lat":"27.1832","lng":"78.0091","name":"AGRANKMDESR002","address":"Sap : I-UW-AGRA-ENB-6063<br\/>Loopback : 172.22.51.11<br\/>Up-Time : 33 days, 16:59:32.47","type":"ESR","status":"1","hoto":"1"},{"lat":"27.1682","lng":"78.0096","name":"AGRARKBJESR001","address":"Sap : I-UW-AGRA-ENB-6064<br\/>Loopback : 172.22.51.55<br\/>Up-Time : 39 days, 3:27:22.33","type":"ESR","status":"1","hoto":"1"},{"lat":"27.1464","lng":"78.0418","name":"AGRARHTEESR001","address":"Sap : I-UW-AGRA-ENB-6067<br\/>Loopback : 172.22.58.53<br\/>Up-Time : 3 days, 23:46:12.12","type":"ESR","status":"1","hoto":"1"},{"lat":"27.1988","lng":"78.007","name":"AGRAMDHNESR001","address":"Sap : I-UW-AGRA-ENB-6069<br\/>Loopback : 172.22.50.39<br\/>Up-Time : 47 days, 5:45:33.63","type":"ESR","status":"1","hoto":"1"},{"lat":"27.2043","lng":"78.0211","name":"AGRAVJYNESR002","address":"Sap : I-UW-AGRA-ENB-6073<br\/>Loopback : 172.22.49.163<br\/>Up-Time : 61 days, 4:14:54.76","type":"ESR","status":"1","hoto":"1"},{"lat":"27.1925","lng":"78.0426","name":"AGRANGLKESR001","address":"Sap : I-UW-AGRA-ENB-6076<br\/>Loopback : 172.22.49.91<br\/>Up-Time : 60 days, 7:22:18.34","type":"ESR","status":"1","hoto":"1"},{"lat":"27.1408","lng":"78.0203","name":"AGRAHMCLESR001","address":"Sap : I-UW-AGRA-ENB-6077<br\/>Loopback : 172.22.50.210<br\/>Up-Time : 51 days, 4:14:06.56","type":"ESR","status":"1","hoto":"1"},{"lat":"27.9006","lng":"78.0972","name":"AGRASURYESR001","address":"Sap : I-UW-AGRA-ENB-6078<br\/>Loopback : 172.22.57.185<br\/>Up-Time : 49 days, 5:00:12.55","type":"ESR","status":"1","hoto":"1"},{"lat":"27.2107","lng":"77.9854","name":"AGRAKHDRESR003","address":"Sap : I-UW-AGRA-ENB-6079<br\/>Loopback : 172.22.50.152<br\/>Up-Time : 60 days, 7:32:05.99","type":"ESR","status":"1","hoto":"1"},{"lat":"27.1556","lng":"78.0357","name":"AGRALACHESR001","address":"Sap : I-UW-AGRA-ENB-6086<br\/>Loopback : 172.22.50.77<br\/>Up-Time : 20 days, 21:10:40.81","type":"ESR","status":"1","hoto":"1"},{"lat":"27.1527","lng":"78.0467","name":"AGRABGRPESR001","address":"Sap : I-UW-AGRA-ENB-6087<br\/>Loopback : 172.22.58.255<br\/>Up-Time : 7 days, 17:35:11.94","type":"ESR","status":"1","hoto":"1"},{"lat":"27.2222","lng":"78.0277","name":"AGRAPCVTESR001","address":"Sap : I-UW-AGRA-ENB-6090<br\/>Loopback : 172.22.50.16<br\/>Up-Time : 15 days, 23:15:44.80","type":"ESR","status":"1","hoto":"1"},{"lat":"27.201","lng":"77.9308","name":"AGRASHTPESR005","address":"Sap : I-UW-AGRA-ENB-6092<br\/>Loopback : 172.22.50.213<br\/>Up-Time : 53 days, 21:35:36.75","type":"ESR","status":"1","hoto":"1"},{"lat":"27.123","lng":"77.9305","name":"AGRAAGRAESR011","address":"Sap : I-UW-AGRA-ENB-6099<br\/>Loopback : 172.22.58.107<br\/>Up-Time : 10 days, 19:55:42.47","type":"ESR","status":"1","hoto":"1"},{"lat":"27.1199","lng":"77.9971","name":"AGRASWLIESR001","address":"Sap : I-UW-AGRA-ENB-6101<br\/>Loopback : 172.22.50.214<br\/>Up-Time : 51 days, 4:09:02.53","type":"ESR","status":"1","hoto":"1"},{"lat":"27.1222","lng":"78.0046","name":"AGRANAGLESR001","address":"Sap : I-UW-AGRA-ENB-6102<br\/>Loopback : 172.22.50.215<br\/>Up-Time : 12 days, 10:47:49.49","type":"ESR","status":"1","hoto":"1"},{"lat":"27.0833","lng":"77.9238","name":"AGRAAGRAESR003","address":"Sap : I-UW-AGRA-ENB-6106<br\/>Loopback : 172.22.54.157<br\/>Up-Time : 58 days, 19:55:55.85","type":"ESR","status":"1","hoto":"1"},{"lat":"27.1517","lng":"77.8664","name":"AGRAAGRAESR002","address":"Sap : I-UW-AGRA-ENB-6107<br\/>Loopback : 172.22.54.228<br\/>Up-Time : 22 days, 22:33:55.71","type":"ESR","status":"1","hoto":"1"},{"lat":"27.172","lng":"77.8873","name":"AGRAAGRAESR010","address":"Sap : I-UW-AGRA-ENB-6108<br\/>Loopback : 172.22.51.27<br\/>Up-Time : 31 days, 3:15:05.84","type":"ESR","status":"1","hoto":"1"},{"lat":"27.1733","lng":"77.9138","name":"AGRAPTVLESR001","address":"Sap : I-UW-AGRA-ENB-6109<br\/>Loopback : 172.22.50.22<br\/>Up-Time : 47 days, 5:42:25.03","type":"ESR","status":"1","hoto":"1"},{"lat":"27.2508","lng":"78.0449","name":"AGRANGLLESR001","address":"Sap : I-UW-AGRA-ENB-6110<br\/>Loopback : 172.22.50.153<br\/>Up-Time : 42 days, 1:17:04.69","type":"ESR","status":"1","hoto":"1"},{"lat":"27.2311","lng":"77.8954","name":"AGRAAGRAESR013","address":"Sap : I-UW-AGRA-ENB-6112<br\/>Loopback : 172.22.48.37<br\/>Up-Time : 20 days, 20:36:25.07","type":"ESR","status":"1","hoto":"1"},{"lat":"27.2234","lng":"77.9132","name":"ATUIATUIESR001","address":"Sap : I-UW-AGRA-ENB-6113<br\/>Loopback : 172.22.48.42<br\/>Up-Time : 2 days, 19:26:52.17","type":"ESR","status":"1","hoto":"1"},{"lat":"27.1886","lng":"78.0006","name":"AGRAMTKTESR001","address":"Sap : I-UW-AGRA-ENB-A001<br\/>Loopback : 172.22.56.176<br\/>Up-Time : 34 days, 6:43:52.56","type":"ESR","status":"1","hoto":"1"},{"lat":"27.1966","lng":"78.0263","name":"AGRAKRSCESR002","address":"Sap : I-UW-AGRA-ENB-A002<br\/>Loopback : 172.22.49.90<br\/>Up-Time : 3 days, 17:29:30.23","type":"ESR","status":"1","hoto":"1"},{"lat":"27.2142","lng":"78.0147","name":"AGRAKRBLESR001","address":"Sap : I-UW-AGRA-ENB-A003<br\/>Loopback : 172.22.57.249<br\/>Up-Time : 42 days, 17:24:43.72","type":"ESR","status":"1","hoto":"1"},{"lat":"27.1989","lng":"78.0179","name":"AGRAGDPRESR002","address":"Sap : I-UW-AGRA-ENB-G001<br\/>Loopback : 172.22.50.32<br\/>Up-Time : 2 days, 18:04:12.86","type":"ESR","status":"1","hoto":"1"},{"lat":"27.1981","lng":"78.026","name":"AGRAKRSCESR003","address":"Sap : I-UW-AGRA-ENB-G002<br\/>Loopback : 172.22.51.28<br\/>Up-Time : 3 days, 13:45:35.96","type":"ESR","status":"1","hoto":"1"},{"lat":"27.1884","lng":"77.9933","name":"AGRANYBSESR001","address":"Sap : I-UW-AGRA-ENB-G003<br\/>Loopback : 172.22.57.230<br\/>Up-Time : 14 days, 10:04:09.19","type":"ESR","status":"1","hoto":"1"},{"lat":"27.1956","lng":"77.9617","name":"AGRANRLAESR005","address":"Sap : I-UW-AGRA-ENB-G004<br\/>Loopback : 172.22.57.113<br\/>Up-Time : 39 days, 18:12:49.78","type":"ESR","status":"1","hoto":"1"},{"lat":"27.2212","lng":"77.9582","name":"AGRABRPRESR002","address":"Sap : I-UW-AGRA-ENB-H002<br\/>Loopback : 172.22.49.152<br\/>Up-Time : 55 days, 3:40:18.89","type":"ESR","status":"1","hoto":"1"},{"lat":"27.1855","lng":"77.9717","name":"AGRAGLPRESR001","address":"Sap : I-UW-AGRA-ENB-H003<br\/>Loopback : 172.22.49.89<br\/>Up-Time : 47 days, 5:37:09.54","type":"ESR","status":"1","hoto":"1"},{"lat":"27.2021","lng":"78.0289","name":"AGRAKRSCESR001","address":"Sap : I-UW-AGRA-ENB-H005<br\/>Loopback : 172.22.49.171<br\/>Up-Time : 1 day, 20:47:14.42","type":"ESR","status":"1","hoto":"1"},{"lat":"27.1542","lng":"77.9849","name":"AGRARSLPESR003","address":"Sap : I-UW-AGRA-ENB-H006<br\/>Loopback : 172.22.49.164<br\/>Up-Time : 61 days, 2:46:09.64","type":"ESR","status":"1","hoto":"1"},{"lat":"27.2222","lng":"78.0173","name":"AGRARDHVESR002","address":"Sap : I-UW-AGRA-ENB-H007<br\/>Loopback : 172.22.49.165<br\/>Up-Time : 60 days, 5:44:38.56","type":"ESR","status":"1","hoto":"1"},{"lat":"27.1662","lng":"77.9821","name":"AGRAJYTNESR001","address":"Sap : I-UW-AGRA-ENB-H008<br\/>Loopback : 172.22.50.154<br\/>Up-Time : 47 days, 4:18:27.25","type":"ESR","status":"1","hoto":"1"},{"lat":"27.2013","lng":"77.9353","name":"AGRASHTPESR006","address":"Sap : I-UW-AGRA-ENB-H010<br\/>Loopback : 172.22.50.251<br\/>Up-Time : 60 days, 2:42:17.21","type":"ESR","status":"1","hoto":"1"},{"lat":"27.1921","lng":"78.0181","name":"AGRABELGESR001","address":"Sap : I-UW-AGRA-ENB-H013<br\/>Loopback : 172.22.58.9<br\/>Up-Time : 47 days, 6:01:40.97","type":"ESR","status":"1","hoto":"1"},{"lat":"27.1765","lng":"78.0101","name":"AGRACHPTESR002","address":"Sap : I-UW-AGRA-ENB-I001<br\/>Loopback : 172.22.49.166<br\/>Up-Time : 16 days, 17:08:37.64","type":"ESR","status":"1","hoto":"1"},{"lat":"27.1868","lng":"77.9882","name":"AGRAKTHNESR001","address":"Sap : I-UW-AGRA-ENB-V001<br\/>Loopback : 172.22.57.166<br\/>Up-Time : 34 days, 6:45:52.09","type":"ESR","status":"1","hoto":"1"},{"lat":"27.183","lng":"78.0021","name":"AGRAMNTLESR002","address":"Sap : I-UW-AGRA-ENB-V002<br\/>Loopback : 172.22.51.12<br\/>Up-Time : 14 days, 12:32:28.11","type":"ESR","status":"1","hoto":"1"},{"lat":"27.2189","lng":"78.0112","name":"SWBGBSNTESR001","address":"Sap : I-UW-AGRA-ENB-V003<br\/>Loopback : 172.22.49.168<br\/>Up-Time : 40 days, 18:54:17.50","type":"ESR","status":"1","hoto":"1"},{"lat":"27.2085","lng":"78.0288","name":"AGRAEWSQESR002","address":"Sap : I-UW-AGRA-ENB-V005<br\/>Loopback : 172.22.49.169<br\/>Up-Time : 32 days, 11:49:53.81","type":"ESR","status":"1","hoto":"1"},{"lat":"27.2093","lng":"78.0182","name":"AGRAGHTWESR003","address":"Sap : I-UW-AGRA-ENB-V007<br\/>Loopback : 172.22.50.254<br\/>Up-Time : 42 days, 1:09:53.31","type":"ESR","status":"1","hoto":"1"},{"lat":"27.2109","lng":"77.9932","name":"AGRAKUSPESR001","address":"Sap : I-UW-AGRA-ENB-W001<br\/>Loopback : 172.22.49.170<br\/>Up-Time : 55 days, 3:23:15.98","type":"ESR","status":"1","hoto":"1"},{"lat":"27.1851","lng":"78.0229","name":"AGRAPPLMESR001","address":"Sap : I-UW-AGRA-ENB-W002<br\/>Loopback : 172.22.49.85<br\/>Up-Time : 50 days, 20:29:32.44","type":"ESR","status":"1","hoto":"1"},{"lat":"27.2077","lng":"77.938","name":"AGRASHTPESR007","address":"Sap : I-UW-AGRA-ENB-W003<br\/>Loopback : 172.22.50.36<br\/>Up-Time : 48 days, 4:40:44.29","type":"ESR","status":"1","hoto":"1"},{"lat":"27.1783","lng":"77.7521","name":"AHNRAHNRESR001","address":"Sap : I-UW-AHNR-ENB-6000<br\/>Loopback : 172.22.48.38<br\/>Up-Time : 7 days, 14:32:10.83","type":"ESR","status":"1","hoto":"1"},{"lat":"27.8918","lng":"78.0382","name":"ALGRRMPRPAR002","address":"Sap : I-UW-ALGR-AG2-0001<br\/>Loopback : 172.16.50.70<br\/>Up-Time : 29 days, 21:09:43.74","type":"PAR","status":"1","hoto":"1"},{"lat":"27.8918","lng":"78.0382","name":"ALGRRMPRAAR001","address":"Sap : I-UW-ALGR-AG2-0001<br\/>Loopback : 49.44.4.11<br\/>Up-Time : 29 days, 21:16:49.06","type":"AAR","status":"1","hoto":"0"},{"lat":"27.8918","lng":"78.0382","name":"ALGRRMPRPAR001","address":"Sap : I-UW-ALGR-AG2-0001<br\/>Loopback : 172.16.50.243<br\/> ","type":"PAR","status":"0","hoto":"1"},{"lat":"27.8915","lng":"78.0675","name":"ALGRSHVPESR001","address":"Sap : I-UW-ALGR-ENB-0005<br\/>Loopback : 172.22.53.68<br\/>Up-Time : 12 days, 12:02:00.15","type":"ESR","status":"1","hoto":"1"},{"lat":"27.8856","lng":"78.064","name":"ALGRSRLWESR001","address":"Sap : I-UW-ALGR-ENB-0010<br\/>Loopback : 172.22.56.59<br\/>Up-Time : 26 days, 15:32:51.68","type":"ESR","status":"1","hoto":"1"},{"lat":"27.8881","lng":"78.0857","name":"ALGRGEHCESR001","address":"Sap : I-UW-ALGR-ENB-0014<br\/>Loopback : 172.22.54.183<br\/>Up-Time : 47 days, 5:40:36.09","type":"ESR","status":"1","hoto":"1"},{"lat":"27.8772","lng":"78.0797","name":"ALGRGDHIESR001","address":"Sap : I-UW-ALGR-ENB-0015<br\/>Loopback : 172.22.56.4<br\/>Up-Time : 3 days, 10:54:40.59","type":"ESR","status":"1","hoto":"1"},{"lat":"27.877","lng":"78.0676","name":"ALGRBNILESR001","address":"Sap : I-UW-ALGR-ENB-0018<br\/>Loopback : 172.22.54.253<br\/> ","type":"ESR","status":"0","hoto":"1"},{"lat":"27.875","lng":"78.0717","name":"ALGRJINGESR001","address":"Sap : I-UW-ALGR-ENB-0020<br\/>Loopback : 172.22.54.254<br\/>Up-Time : 25 days, 15:21:07.75","type":"ESR","status":"1","hoto":"1"},{"lat":"27.8816","lng":"78.0583","name":"ALGRDLHGESR001","address":"Sap : I-UW-ALGR-ENB-0022<br\/>Loopback : 172.22.51.102<br\/>Up-Time : 3 days, 11:46:04.39","type":"ESR","status":"1","hoto":"1"},{"lat":"27.8786","lng":"78.0882","name":"ALGRMHDNESR001","address":"Sap : I-UW-ALGR-ENB-0027<br\/>Loopback : 172.22.50.135<br\/>Up-Time : 1 day, 22:03:29.59","type":"ESR","status":"1","hoto":"1"},{"lat":"27.8704","lng":"78.0732","name":"ALGRGNGRESR003","address":"Sap : I-UW-ALGR-ENB-0032<br\/>Loopback : 172.22.49.207<br\/>Up-Time : 6 days, 8:03:38.98","type":"ESR","status":"1","hoto":"1"},{"lat":"27.8902","lng":"78.0502","name":"ALGRNGLJESR001","address":"Sap : I-UW-ALGR-ENB-0033<br\/>Loopback : 172.22.54.215<br\/>Up-Time : 3 days, 6:59:38.61","type":"ESR","status":"1","hoto":"1"},{"lat":"27.8716","lng":"78.0829","name":"ALGRBPNGESR001","address":"Sap : I-UW-ALGR-ENB-0039<br\/>Loopback : 172.22.55.118<br\/>Up-Time : 3 days, 18:02:30.43","type":"ESR","status":"1","hoto":"1"},{"lat":"27.8706","lng":"78.0791","name":"ALGRBHRNESR001","address":"Sap : I-UW-ALGR-ENB-0040<br\/>Loopback : 172.22.54.201<br\/>Up-Time : 3 days, 18:02:09.35","type":"ESR","status":"1","hoto":"1"},{"lat":"27.9102","lng":"78.0643","name":"ALGRLCLYESR001","address":"Sap : I-UW-ALGR-ENB-0046<br\/>Loopback : 172.22.54.255<br\/> ","type":"ESR","status":"0","hoto":"1"},{"lat":"27.9038","lng":"78.0528","name":"ALGRBSNTESR001","address":"Sap : I-UW-ALGR-ENB-0047<br\/>Loopback : 172.22.54.207<br\/>Up-Time : 42 days, 1:07:02.23","type":"ESR","status":"1","hoto":"1"},{"lat":"27.8653","lng":"78.0822","name":"ALGRPLSBESR001","address":"Sap : I-UW-ALGR-ENB-0050<br\/>Loopback : 172.22.54.191<br\/>Up-Time : 9 days, 11:54:08.35","type":"ESR","status":"1","hoto":"1"},{"lat":"27.8708","lng":"78.0926","name":"ALGRDRINESR002","address":"Sap : I-UW-ALGR-ENB-0051<br\/>Loopback : 172.22.54.196<br\/> ","type":"ESR","status":"0","hoto":"1"},{"lat":"27.8767","lng":"78.0446","name":"ALGRMNONESR001","address":"Sap : I-UW-ALGR-ENB-0053<br\/>Loopback : 172.22.54.217<br\/>Up-Time : 47 days, 5:12:04.62","type":"ESR","status":"1","hoto":"1"},{"lat":"27.9113","lng":"78.0562","name":"ALGRKNDNESR002","address":"Sap : I-UW-ALGR-ENB-0054<br\/>Loopback : 172.22.48.111<br\/>Up-Time : 12 days, 14:39:41.58","type":"ESR","status":"1","hoto":"1"},{"lat":"27.9122","lng":"78.0974","name":"ALGRJENGESR001","address":"Sap : I-UW-ALGR-ENB-0058<br\/>Loopback : 172.22.49.146<br\/>Up-Time : 1 day, 13:32:35.75","type":"ESR","status":"1","hoto":"1"},{"lat":"27.9031","lng":"78.0718","name":"ALGRNVQIESR001","address":"Sap : I-UW-ALGR-ENB-0068<br\/>Loopback : 172.22.56.5<br\/>Up-Time : 34 days, 21:31:48.62","type":"ESR","status":"1","hoto":"1"},{"lat":"27.8957","lng":"78.0543","name":"ALGRKPLVESR002","address":"Sap : I-UW-ALGR-ENB-0069<br\/>Loopback : 172.22.54.210<br\/>Up-Time : 19 days, 8:49:44.36","type":"ESR","status":"1","hoto":"1"},{"lat":"27.8968","lng":"78.0739","name":"ALGRPRSCESR001","address":"Sap : I-UW-ALGR-ENB-0073<br\/>Loopback : 172.22.55.1<br\/>Up-Time : 31 days, 23:35:17.26","type":"ESR","status":"1","hoto":"1"},{"lat":"27.8747","lng":"78.0516","name":"ALGRMKINESR001","address":"Sap : I-UW-ALGR-ENB-0076<br\/>Loopback : 172.22.52.175<br\/>Up-Time : 20 days, 22:56:13.86","type":"ESR","status":"1","hoto":"1"},{"lat":"27.8898","lng":"78.0438","name":"ALGRPSVHESR001","address":"Sap : I-UW-ALGR-ENB-0077<br\/>Loopback : 172.22.53.107<br\/>Up-Time : 47 days, 9:10:45.06","type":"ESR","status":"1","hoto":"1"},{"lat":"27.8675","lng":"78.0898","name":"ALGRDRINESR001","address":"Sap : I-UW-ALGR-ENB-0080<br\/>Loopback : 172.22.54.200<br\/>Up-Time : 13 days, 19:31:45.26","type":"ESR","status":"1","hoto":"1"},{"lat":"27.9142","lng":"78.0865","name":"ALGRSRSYESR001","address":"Sap : I-UW-ALGR-ENB-0087<br\/>Loopback : 172.22.50.42<br\/>Up-Time : 48 days, 4:40:26.33","type":"ESR","status":"1","hoto":"1"},{"lat":"27.8306","lng":"78.1001","name":"ALGRCHYPESR001","address":"Sap : I-UW-ALGR-ENB-0088<br\/>Loopback : 172.22.56.6<br\/>Up-Time : 1 day, 3:12:54.01","type":"ESR","status":"1","hoto":"1"},{"lat":"27.8608","lng":"78.08","name":"ALGRRKPMESR001","address":"Sap : I-UW-ALGR-ENB-0089<br\/>Loopback : 172.22.54.193<br\/>Up-Time : 15 days, 13:05:41.07","type":"ESR","status":"1","hoto":"1"},{"lat":"27.9164","lng":"78.0941","name":"ALGRSYDCESR001","address":"Sap : I-UW-ALGR-ENB-0091<br\/>Loopback : 172.22.52.176<br\/>Up-Time : 47 days, 5:41:50.42","type":"ESR","status":"1","hoto":"1"},{"lat":"27.9272","lng":"78.0908","name":"ALGRNGLHESR001","address":"Sap : I-UW-ALGR-ENB-0093<br\/>Loopback : 172.22.56.145<br\/>Up-Time : 31 days, 0:28:50.30","type":"ESR","status":"1","hoto":"1"},{"lat":"27.8723","lng":"78.0862","name":"ALGRABDKESR001","address":"Sap : I-UW-ALGR-ENB-0094<br\/>Loopback : 172.22.54.197<br\/>Up-Time : 15 days, 14:31:01.92","type":"ESR","status":"1","hoto":"1"},{"lat":"27.8958","lng":"78.0472","name":"ALGRSNTGESR001","address":"Sap : I-UW-ALGR-ENB-0096<br\/>Loopback : 172.22.54.209<br\/>Up-Time : 5 days, 4:27:19.98","type":"ESR","status":"1","hoto":"1"},{"lat":"27.8998","lng":"78.1057","name":"ALGRSTBDESR002","address":"Sap : I-UW-ALGR-ENB-0097<br\/>Loopback : 172.22.54.188<br\/>Up-Time : 28 days, 9:34:45.81","type":"ESR","status":"1","hoto":"1"},{"lat":"27.8692","lng":"78.0535","name":"ALGRTKMGESR001","address":"Sap : I-UW-ALGR-ENB-0098<br\/>Loopback : 172.22.55.58<br\/>Up-Time : 48 days, 4:51:05.80","type":"ESR","status":"1","hoto":"1"},{"lat":"27.8571","lng":"78.0737","name":"ALGRHRNYESR001","address":"Sap : I-UW-ALGR-ENB-0101<br\/>Loopback : 172.22.54.195<br\/>Up-Time : 45 days, 20:59:10.65","type":"ESR","status":"1","hoto":"1"},{"lat":"27.8638","lng":"78.057","name":"ALGRMULPESR001","address":"Sap : I-UW-ALGR-ENB-0102<br\/>Loopback : 172.22.54.214<br\/>Up-Time : 35 days, 12:43:47.26","type":"ESR","status":"1","hoto":"1"},{"lat":"27.8815","lng":"78.0372","name":"ALGRALHDESR001","address":"Sap : I-UW-ALGR-ENB-0103<br\/>Loopback : 172.22.48.135<br\/>Up-Time : 15 days, 0:00:58.40","type":"ESR","status":"1","hoto":"1"},{"lat":"27.9074","lng":"78.0779","name":"ALGRZHCEESR001","address":"Sap : I-UW-ALGR-ENB-0106<br\/>Loopback : 172.22.55.2<br\/>Up-Time : 1 day, 13:53:26.31","type":"ESR","status":"1","hoto":"1"},{"lat":"27.935","lng":"78.0722","name":"ALGRWHEDESR001","address":"Sap : I-UW-ALGR-ENB-0109<br\/>Loopback : 172.22.54.180<br\/>Up-Time : 2 days, 7:59:41.00","type":"ESR","status":"1","hoto":"1"},{"lat":"27.9289","lng":"78.0715","name":"ALGRPWRNESR001","address":"Sap : I-UW-ALGR-ENB-0111<br\/>Loopback : 172.22.54.178<br\/>Up-Time : 39 days, 14:32:42.09","type":"ESR","status":"1","hoto":"1"},{"lat":"27.8723","lng":"78.109","name":"ALGRIDRNESR001","address":"Sap : I-UW-ALGR-ENB-0112<br\/>Loopback : 172.22.54.198<br\/>Up-Time : 15 days, 14:31:55.08","type":"ESR","status":"1","hoto":"1"},{"lat":"27.9096","lng":"78.1118","name":"ALGRQRSIESR001","address":"Sap : I-UW-ALGR-ENB-0114<br\/>Loopback : 172.22.54.181<br\/>Up-Time : 4 days, 1:31:07.44","type":"ESR","status":"1","hoto":"1"},{"lat":"27.8536","lng":"78.0952","name":"ALGRBDSMESR001","address":"Sap : I-UW-ALGR-ENB-0115<br\/>Loopback : 172.22.52.185<br\/>Up-Time : 4 days, 21:24:07.81","type":"ESR","status":"1","hoto":"1"},{"lat":"27.8649","lng":"78.1039","name":"ALGRBCLYESR001","address":"Sap : I-UW-ALGR-ENB-0116<br\/>Loopback : 172.22.54.199<br\/>Up-Time : 1 day, 1:08:21.17","type":"ESR","status":"1","hoto":"1"},{"lat":"27.9364","lng":"78.0582","name":"ALGRALGRESR013","address":"Sap : I-UW-ALGR-ENB-0118<br\/>Loopback : 172.22.56.28<br\/>Up-Time : 5 days, 0:11:40.62","type":"ESR","status":"1","hoto":"1"},{"lat":"27.8635","lng":"78.1289","name":"ALGRPKUIESR001","address":"Sap : I-UW-ALGR-ENB-0120<br\/>Loopback : 172.22.52.149<br\/>Up-Time : 15 days, 0:31:17.99","type":"ESR","status":"1","hoto":"1"},{"lat":"27.9433","lng":"78.1024","name":"ALGRBRHTESR001","address":"Sap : I-UW-ALGR-ENB-0121<br\/>Loopback : 172.22.54.177<br\/>Up-Time : 47 days, 5:51:04.21","type":"ESR","status":"1","hoto":"1"},{"lat":"27.8447","lng":"78.0527","name":"ALGRKHRKESR001","address":"Sap : I-UW-ALGR-ENB-0123<br\/>Loopback : 172.22.52.172<br\/>Up-Time : 23 days, 23:07:39.37","type":"ESR","status":"1","hoto":"1"},{"lat":"27.9115","lng":"78.0382","name":"ALGRBHKMESR001","address":"Sap : I-UW-ALGR-ENB-0124<br\/>Loopback : 172.22.53.110<br\/>Up-Time : 10 days, 23:15:57.53","type":"ESR","status":"1","hoto":"1"},{"lat":"27.8481","lng":"78.0803","name":"ALGRNGLDESR001","address":"Sap : I-UW-ALGR-ENB-0125<br\/>Loopback : 172.22.54.194<br\/>Up-Time : 9 days, 7:57:34.34","type":"ESR","status":"1","hoto":"1"},{"lat":"27.932","lng":"78.0453","name":"ALGRMHRWESR001","address":"Sap : I-UW-ALGR-ENB-0126<br\/>Loopback : 172.22.53.109<br\/> ","type":"ESR","status":"0","hoto":"1"},{"lat":"27.8886","lng":"78.119","name":"ALGRDVKGESR001","address":"Sap : I-UW-ALGR-ENB-0127<br\/>Loopback : 172.22.52.178<br\/>Up-Time : 8 days, 21:45:35.19","type":"ESR","status":"1","hoto":"1"},{"lat":"27.8931","lng":"78.0226","name":"ALGRNNDDESR001","address":"Sap : I-UW-ALGR-ENB-0128<br\/>Loopback : 172.22.53.11<br\/>Up-Time : 5:33:40.33","type":"ESR","status":"1","hoto":"1"},{"lat":"27.9485","lng":"78.0638","name":"ALGRMNURESR001","address":"Sap : I-UW-ALGR-ENB-0129<br\/>Loopback : 172.22.52.170<br\/>Up-Time : 2 days, 14:54:42.54","type":"ESR","status":"1","hoto":"1"},{"lat":"27.8697","lng":"78.1625","name":"ALGRPKUIESR002","address":"Sap : I-UW-ALGR-ENB-0130<br\/>Loopback : 172.22.53.75<br\/>Up-Time : 1:07:20.13","type":"ESR","status":"1","hoto":"1"},{"lat":"27.846","lng":"78.1178","name":"ALGRKMLRESR001","address":"Sap : I-UW-ALGR-ENB-0131<br\/>Loopback : 172.22.56.7<br\/>Up-Time : 0:18:17.89","type":"ESR","status":"1","hoto":"1"},{"lat":"27.8761","lng":"78.1433","name":"ALGRPKUIESR003","address":"Sap : I-UW-ALGR-ENB-0132<br\/>Loopback : 172.22.55.3<br\/>Up-Time : 9 days, 21:19:16.67","type":"ESR","status":"1","hoto":"1"},{"lat":"27.9599","lng":"78.0963","name":"ALGRMJGIESR001","address":"Sap : I-UW-ALGR-ENB-0133<br\/>Loopback : 172.22.52.180<br\/>Up-Time : 2 days, 17:52:42.95","type":"ESR","status":"1","hoto":"1"},{"lat":"27.856","lng":"78.039","name":"ALGRTLSPESR001","address":"Sap : I-UW-ALGR-ENB-0134<br\/>Loopback : 172.22.55.4<br\/>Up-Time : 14:49:22.73","type":"ESR","status":"1","hoto":"1"},{"lat":"27.8253","lng":"78.0848","name":"ALGRMKDRESR001","address":"Sap : I-UW-ALGR-ENB-0135<br\/>Loopback : 172.22.52.181<br\/>Up-Time : 2:36:45.93","type":"ESR","status":"1","hoto":"1"},{"lat":"27.9333","lng":"78.0221","name":"ALGRSKDPESR001","address":"Sap : I-UW-ALGR-ENB-0136<br\/>Loopback : 172.22.55.254<br\/>Up-Time : 10 days, 21:29:19.83","type":"ESR","status":"1","hoto":"1"},{"lat":"27.971","lng":"78.0717","name":"ALGRRTWNESR001","address":"Sap : I-UW-ALGR-ENB-0137<br\/>Loopback : 172.22.52.182<br\/>Up-Time : 1 day, 8:51:46.38","type":"ESR","status":"1","hoto":"1"},{"lat":"27.9306","lng":"78.1371","name":"ALGRTLSRESR001","address":"Sap : I-UW-ALGR-ENB-0138<br\/>Loopback : 172.22.52.183<br\/>Up-Time : 1 day, 12:56:45.86","type":"ESR","status":"1","hoto":"1"},{"lat":"27.8577","lng":"78.1377","name":"ALGRALGRESR011","address":"Sap : I-UW-ALGR-ENB-0139<br\/>Loopback : 172.22.54.187<br\/>Up-Time : 8 days, 16:46:51.52","type":"ESR","status":"1","hoto":"1"},{"lat":"27.9024","lng":"78.0881","name":"ALGRAMRNESR001","address":"Sap : I-UW-ALGR-ENB-0143<br\/>Loopback : 172.22.56.8<br\/>Up-Time : 53 days, 9:49:11.03","type":"ESR","status":"1","hoto":"1"},{"lat":"27.8944","lng":"78.0999","name":"ALGRSTBDESR001","address":"Sap : I-UW-ALGR-ENB-0144<br\/>Loopback : 172.22.54.189<br\/>Up-Time : 24 days, 19:32:12.17","type":"ESR","status":"1","hoto":"1"},{"lat":"27.9156","lng":"78.0679","name":"ALGRSHBGESR001","address":"Sap : I-UW-ALGR-ENB-0148<br\/>Loopback : 172.22.58.68<br\/>Up-Time : 13 days, 14:48:59.23","type":"ESR","status":"1","hoto":"1"},{"lat":"27.9318","lng":"78.0744","name":"ALGRMULNESR001","address":"Sap : I-UW-ALGR-ENB-0151<br\/>Loopback : 172.22.57.89<br\/>Up-Time : 10:36:53.35","type":"ESR","status":"1","hoto":"1"},{"lat":"27.9338","lng":"78.1588","name":"ALGRALGRESR026","address":"Sap : I-UW-ALGR-ENB-0162<br\/>Loopback : 172.22.58.59<br\/>Up-Time : 26 days, 11:12:25.05","type":"ESR","status":"1","hoto":"1"},{"lat":"27.9083","lng":"78.1285","name":"ALGRALGRESR024","address":"Sap : I-UW-ALGR-ENB-0164<br\/>Loopback : 172.22.58.60<br\/>Up-Time : 1 day, 22:41:58.91","type":"ESR","status":"1","hoto":"1"},{"lat":"27.9007","lng":"78.1024","name":"ALGRAJNGESR001","address":"Sap : I-UW-ALGR-ENB-0166<br\/>Loopback : 172.22.51.40<br\/>Up-Time : 47 days, 3:41:32.89","type":"ESR","status":"1","hoto":"1"},{"lat":"27.8927","lng":"78.0941","name":"ALGRSWRNESR001","address":"Sap : I-UW-ALGR-ENB-0168<br\/>Loopback : 172.22.57.40<br\/>Up-Time : 41 days, 5:47:04.02","type":"ESR","status":"1","hoto":"1"},{"lat":"27.9016","lng":"78.0835","name":"ALGRAMRNESR002","address":"Sap : I-UW-ALGR-ENB-0172<br\/>Loopback : 172.22.58.55<br\/>Up-Time : 2 days, 17:16:09.18","type":"ESR","status":"1","hoto":"1"},{"lat":"27.8979","lng":"78.0858","name":"ALGRCVLPESR002","address":"Sap : I-UW-ALGR-ENB-0173<br\/>Loopback : 172.22.59.5<br\/>Up-Time : 11 days, 13:24:55.38","type":"ESR","status":"1","hoto":"1"},{"lat":"27.8862","lng":"78.0786","name":"ALGRSUDMESR001","address":"Sap : I-UW-ALGR-ENB-0176<br\/>Loopback : 172.22.57.90<br\/>Up-Time : 49 days, 5:22:56.93","type":"ESR","status":"1","hoto":"1"},{"lat":"27.886","lng":"78.0921","name":"ALGRSHNGESR001","address":"Sap : I-UW-ALGR-ENB-0178<br\/>Loopback : 172.22.58.209<br\/>Up-Time : 4 days, 23:27:33.05","type":"ESR","status":"1","hoto":"1"},{"lat":"27.8818","lng":"78.0885","name":"ALGRSUDNESR002","address":"Sap : I-UW-ALGR-ENB-0179<br\/>Loopback : 172.22.57.46<br\/>Up-Time : 7 days, 22:06:07.13","type":"ESR","status":"1","hoto":"1"},{"lat":"27.8747","lng":"78.0924","name":"ALGRMUKDESR001","address":"Sap : I-UW-ALGR-ENB-0182<br\/>Loopback : 172.22.57.231<br\/>Up-Time : 13:51:37.85","type":"ESR","status":"1","hoto":"1"},{"lat":"27.8776","lng":"78.0963","name":"ALGRBSNVESR001","address":"Sap : I-UW-ALGR-ENB-0183<br\/>Loopback : 172.22.58.61<br\/>Up-Time : 49 days, 4:46:36.35","type":"ESR","status":"1","hoto":"1"},{"lat":"27.8693","lng":"78.1028","name":"DNIPKNWNESR001","address":"Sap : I-UW-ALGR-ENB-0184<br\/>Loopback : 172.22.57.41<br\/>Up-Time : 12 days, 20:28:07.65","type":"ESR","status":"1","hoto":"1"},{"lat":"27.8685","lng":"78.0935","name":"ALGRDRINESR003","address":"Sap : I-UW-ALGR-ENB-0185<br\/>Loopback : 172.22.51.34<br\/>Up-Time : 20 days, 15:00:07.89","type":"ESR","status":"1","hoto":"1"},{"lat":"27.8673","lng":"78.1156","name":"DNIPKRHNESR001","address":"Sap : I-UW-ALGR-ENB-0186<br\/>Loopback : 172.22.57.62<br\/>Up-Time : 20 days, 19:12:51.11","type":"ESR","status":"1","hoto":"1"},{"lat":"27.8614","lng":"78.0724","name":"ALGRLDHVESR001","address":"Sap : I-UW-ALGR-ENB-0189<br\/>Loopback : 172.22.57.51<br\/>Up-Time : 15 days, 13:02:47.74","type":"ESR","status":"1","hoto":"1"},{"lat":"27.8655","lng":"78.0788","name":"ALGRVIKSESR002","address":"Sap : I-UW-ALGR-ENB-0190<br\/>Loopback : 172.22.56.201<br\/>Up-Time : 3 days, 14:25:56.02","type":"ESR","status":"1","hoto":"1"},{"lat":"27.8713","lng":"78.0607","name":"ALGRKLWRESR001","address":"Sap : I-UW-ALGR-ENB-0193<br\/>Loopback : 172.22.58.199<br\/>Up-Time : 1 day, 12:28:52.48","type":"ESR","status":"1","hoto":"1"},{"lat":"27.8709","lng":"78.0674","name":"ALGRSRIGESR001","address":"Sap : I-UW-ALGR-ENB-0194<br\/>Loopback : 172.22.58.73<br\/>Up-Time : 15 days, 12:24:40.76","type":"ESR","status":"1","hoto":"1"},{"lat":"27.8761","lng":"78.0479","name":"ALGRALGRESR028","address":"Sap : I-UW-ALGR-ENB-0196<br\/>Loopback : 172.22.57.232<br\/>Up-Time : 14 days, 11:12:12.07","type":"ESR","status":"1","hoto":"1"},{"lat":"27.8731","lng":"78.0726","name":"ALGRSRMSESR001","address":"Sap : I-UW-ALGR-ENB-0200<br\/>Loopback : 172.22.57.126<br\/>Up-Time : 16 days, 11:55:20.23","type":"ESR","status":"1","hoto":"1"},{"lat":"27.8771","lng":"78.0712","name":"ALGRSRQZESR001","address":"Sap : I-UW-ALGR-ENB-0203<br\/>Loopback : 172.22.58.27<br\/>Up-Time : 3 days, 10:28:40.39","type":"ESR","status":"1","hoto":"1"},{"lat":"27.8865","lng":"78.0683","name":"ALGRPTHNESR001","address":"Sap : I-UW-ALGR-ENB-0207<br\/>Loopback : 172.22.51.62<br\/>Up-Time : 47 days, 5:00:56.05","type":"ESR","status":"1","hoto":"1"},{"lat":"27.8868","lng":"78.0477","name":"ALGRNSPRESR001","address":"Sap : I-UW-ALGR-ENB-0216<br\/>Loopback : 172.22.56.217<br\/>Up-Time : 17:17:44.79","type":"ESR","status":"1","hoto":"1"},{"lat":"27.8806","lng":"78.0411","name":"ALGRALGRESR027","address":"Sap : I-UW-ALGR-ENB-0218<br\/>Loopback : 172.22.57.73<br\/>Up-Time : 19 days, 15:29:51.96","type":"ESR","status":"1","hoto":"1"},{"lat":"27.8985","lng":"78.0423","name":"ALGRBKCLESR001","address":"Sap : I-UW-ALGR-ENB-0220<br\/>Loopback : 172.22.51.72<br\/>Up-Time : 47 days, 5:01:21.58","type":"ESR","status":"1","hoto":"1"},{"lat":"27.9061","lng":"78.0419","name":"ALGRRMNRESR001","address":"Sap : I-UW-ALGR-ENB-0222<br\/>Loopback : 172.22.57.39<br\/>Up-Time : 4 days, 21:18:06.01","type":"ESR","status":"1","hoto":"1"},{"lat":"27.903","lng":"78.0281","name":"ALGRALGRESR023","address":"Sap : I-UW-ALGR-ENB-0223<br\/>Loopback : 172.22.58.62<br\/>Up-Time : 7 days, 5:10:02.99","type":"ESR","status":"1","hoto":"1"},{"lat":"27.911","lng":"78.0526","name":"ALGRKNDNESR003","address":"Sap : I-UW-ALGR-ENB-0225<br\/>Loopback : 172.22.51.74<br\/>Up-Time : 46 days, 22:10:36.47","type":"ESR","status":"1","hoto":"1"},{"lat":"27.833","lng":"78.1567","name":"ALGRALGRESR001","address":"Sap : I-UW-ALGR-ENB-6000<br\/>Loopback : 172.22.55.235<br\/>Up-Time : 2:14:58.12","type":"ESR","status":"1","hoto":"1"},{"lat":"27.8812","lng":"78.0635","name":"ALGRATBZESR001","address":"Sap : I-UW-ALGR-ENB-6002<br\/>Loopback : 172.22.55.5<br\/>Up-Time : 62 days, 6:01:58.20","type":"ESR","status":"1","hoto":"1"},{"lat":"27.8744","lng":"78.0987","name":"ALGRSRJNESR001","address":"Sap : I-UW-ALGR-ENB-6003<br\/>Loopback : 172.22.52.184<br\/>Up-Time : 15 days, 14:32:12.82","type":"ESR","status":"1","hoto":"1"},{"lat":"27.8835","lng":"78.0431","name":"ALGRPRMVESR002","address":"Sap : I-UW-ALGR-ENB-6004<br\/>Loopback : 172.22.48.133<br\/>Up-Time : 13 days, 2:56:16.77","type":"ESR","status":"1","hoto":"1"},{"lat":"27.8877","lng":"78.0576","name":"ALGRSHVNESR001","address":"Sap : I-UW-ALGR-ENB-6007<br\/>Loopback : 172.22.56.156<br\/>Up-Time : 51 days, 4:11:59.65","type":"ESR","status":"1","hoto":"1"},{"lat":"27.8844","lng":"78.086","name":"ALGRSUDNESR001","address":"Sap : I-UW-ALGR-ENB-6008<br\/>Loopback : 172.22.54.182<br\/>Up-Time : 23 days, 10:32:54.31","type":"ESR","status":"1","hoto":"1"},{"lat":"27.9261","lng":"78.0823","name":"ALGRGULTESR001","address":"Sap : I-UW-ALGR-ENB-6009<br\/>Loopback : 172.22.50.43<br\/>Up-Time : 15 days, 13:37:41.89","type":"ESR","status":"1","hoto":"1"},{"lat":"27.9079","lng":"78.0581","name":"ALGRKNDNESR001","address":"Sap : I-UW-ALGR-ENB-6010<br\/>Loopback : 172.22.53.65<br\/>Up-Time : 12 days, 18:59:21.54","type":"ESR","status":"1","hoto":"1"},{"lat":"27.893","lng":"78.0595","name":"ALGRSHKTESR001","address":"Sap : I-UW-ALGR-ENB-6011<br\/>Loopback : 172.22.54.211<br\/>Up-Time : 47 days, 5:11:11.92","type":"ESR","status":"1","hoto":"1"},{"lat":"27.9025","lng":"78.0455","name":"ALGRLCHPESR001","address":"Sap : I-UW-ALGR-ENB-6012<br\/>Loopback : 172.22.54.208<br\/>Up-Time : 42 days, 1:06:17.34","type":"ESR","status":"1","hoto":"1"},{"lat":"27.8888","lng":"78.09","name":"ALGRPSCLESR001","address":"Sap : I-UW-ALGR-ENB-6013<br\/>Loopback : 172.22.52.154<br\/>Up-Time : 4 days, 18:23:42.46","type":"ESR","status":"1","hoto":"1"},{"lat":"27.8763","lng":"78.0642","name":"ALGRSRQTESR001","address":"Sap : I-UW-ALGR-ENB-6014<br\/>Loopback : 172.22.52.186<br\/>Up-Time : 4 days, 23:04:25.19","type":"ESR","status":"1","hoto":"1"},{"lat":"27.882","lng":"78.1027","name":"ALGRCDRVESR001","address":"Sap : I-UW-ALGR-ENB-6015<br\/>Loopback : 172.22.54.186<br\/>Up-Time : 27 days, 11:39:13.38","type":"ESR","status":"1","hoto":"1"},{"lat":"27.9031","lng":"78.0617","name":"ALGRIDETESR001","address":"Sap : I-UW-ALGR-ENB-6016<br\/>Loopback : 172.22.53.67<br\/>Up-Time : 17 days, 20:30:13.31","type":"ESR","status":"1","hoto":"1"},{"lat":"27.9251","lng":"78.0769","name":"ALGRNGLAESR001","address":"Sap : I-UW-ALGR-ENB-6017<br\/>Loopback : 172.22.54.179<br\/>Up-Time : 30 days, 13:03:48.31","type":"ESR","status":"1","hoto":"1"},{"lat":"27.8776","lng":"78.0836","name":"ALGRNRGBESR001","address":"Sap : I-UW-ALGR-ENB-6018<br\/>Loopback : 172.22.52.179<br\/>Up-Time : 16 days, 17:19:50.33","type":"ESR","status":"1","hoto":"1"},{"lat":"27.8731","lng":"78.0691","name":"ALGRGHSKESR001","address":"Sap : I-UW-ALGR-ENB-6021<br\/>Loopback : 172.22.49.145<br\/>Up-Time : 1 day, 9:58:20.16","type":"ESR","status":"1","hoto":"1"},{"lat":"27.91","lng":"78.069","name":"ALGRBDRBESR001","address":"Sap : I-UW-ALGR-ENB-6022<br\/>Loopback : 172.22.50.40<br\/>Up-Time : 21 days, 11:02:15.47","type":"ESR","status":"1","hoto":"1"},{"lat":"27.9094","lng":"78.0868","name":"ALGRAHMDESR001","address":"Sap : I-UW-ALGR-ENB-6023<br\/>Loopback : 172.22.49.197<br\/>Up-Time : 48 days, 4:29:08.26","type":"ESR","status":"1","hoto":"1"},{"lat":"27.8981","lng":"78.0912","name":"ALGRSMITESR001","address":"Sap : I-UW-ALGR-ENB-6024<br\/>Loopback : 172.22.49.132<br\/>Up-Time : 27 days, 20:53:46.69","type":"ESR","status":"1","hoto":"1"},{"lat":"27.8774","lng":"78.0907","name":"ALGRPRDMESR001","address":"Sap : I-UW-ALGR-ENB-6026<br\/>Loopback : 172.22.56.44<br\/> ","type":"ESR","status":"0","hoto":"1"},{"lat":"27.9055","lng":"78.0829","name":"ALGRGRBMESR001","address":"Sap : I-UW-ALGR-ENB-6027<br\/>Loopback : 172.22.52.187<br\/>Up-Time : 51 days, 3:30:37.27","type":"ESR","status":"1","hoto":"1"},{"lat":"27.8887","lng":"78.0697","name":"ALGRSRBUESR001","address":"Sap : I-UW-ALGR-ENB-6028<br\/>Loopback : 172.22.56.94<br\/>Up-Time : 8:04:35.49","type":"ESR","status":"1","hoto":"1"},{"lat":"27.883","lng":"78.0766","name":"ALGRDDCPESR001","address":"Sap : I-UW-ALGR-ENB-6029<br\/>Loopback : 172.22.52.37<br\/>Up-Time : 4 days, 20:46:05.14","type":"ESR","status":"1","hoto":"1"},{"lat":"27.8733","lng":"78.0756","name":"ALGRKRSNESR001","address":"Sap : I-UW-ALGR-ENB-6030<br\/>Loopback : 172.22.56.60<br\/>Up-Time : 7 days, 14:59:54.14","type":"ESR","status":"1","hoto":"1"},{"lat":"27.8687","lng":"78.0591","name":"ALGRALIGESR001","address":"Sap : I-UW-ALGR-ENB-6032<br\/>Loopback : 172.22.55.71<br\/>Up-Time : 20 days, 19:54:37.79","type":"ESR","status":"1","hoto":"1"},{"lat":"27.8843","lng":"78.0523","name":"ALGRHRNGESR001","address":"Sap : I-UW-ALGR-ENB-6033<br\/>Loopback : 172.22.54.216<br\/>Up-Time : 4 days, 22:48:15.08","type":"ESR","status":"1","hoto":"1"},{"lat":"27.9006","lng":"78.0972","name":"ALGRRMBGESR001","address":"Sap : I-UW-ALGR-ENB-6034<br\/>Loopback : 172.22.49.136<br\/>Up-Time : 12 days, 19:56:08.00","type":"ESR","status":"1","hoto":"1"},{"lat":"27.8642","lng":"78.0755","name":"ALGRVIKSESR001","address":"Sap : I-UW-ALGR-ENB-6035<br\/>Loopback : 172.22.52.153<br\/>Up-Time : 18 days, 16:18:54.83","type":"ESR","status":"1","hoto":"1"},{"lat":"27.8897","lng":"78.0626","name":"ALGRAHKNESR001","address":"Sap : I-UW-ALGR-ENB-6037<br\/>Loopback : 172.22.54.213<br\/>Up-Time : 26 days, 14:44:33.55","type":"ESR","status":"1","hoto":"1"},{"lat":"27.9016","lng":"78.0792","name":"ALGRCVLPESR001","address":"Sap : I-UW-ALGR-ENB-6038<br\/>Loopback : 172.22.54.212<br\/>Up-Time : 47 days, 5:05:00.36","type":"ESR","status":"1","hoto":"1"},{"lat":"27.8892","lng":"78.0804","name":"ALGRSYMNESR001","address":"Sap : I-UW-ALGR-ENB-6039<br\/>Loopback : 172.22.54.185<br\/>Up-Time : 34 days, 21:56:41.41","type":"ESR","status":"1","hoto":"1"},{"lat":"27.9321","lng":"78.08","name":"ALGRHMDRESR001","address":"Sap : I-UW-ALGR-ENB-6040<br\/>Loopback : 172.22.52.171<br\/>Up-Time : 14 days, 21:02:44.93","type":"ESR","status":"1","hoto":"1"},{"lat":"27.9066","lng":"78.1027","name":"ALGRRJNGESR001","address":"Sap : I-UW-ALGR-ENB-6041<br\/>Loopback : 172.22.52.177<br\/>Up-Time : 15 days, 9:25:07.88","type":"ESR","status":"1","hoto":"1"},{"lat":"27.8736","lng":"78.0582","name":"ALGRAKSHESR001","address":"Sap : I-UW-ALGR-ENB-6042<br\/>Loopback : 172.22.49.195<br\/>Up-Time : 60 days, 5:37:09.52","type":"ESR","status":"1","hoto":"1"},{"lat":"27.8302","lng":"78.0377","name":"ALGRALGRESR020","address":"Sap : I-UW-ALGR-ENB-6044<br\/>Loopback : 172.22.58.94<br\/>Up-Time : 4 days, 18:05:35.24","type":"ESR","status":"1","hoto":"1"},{"lat":"27.9096","lng":"78.2044","name":"ALGRALGRESR015","address":"Sap : I-UW-ALGR-ENB-6045<br\/>Loopback : 172.22.55.40<br\/>Up-Time : 1 day, 12:50:33.37","type":"ESR","status":"1","hoto":"1"},{"lat":"27.748","lng":"78.321","name":"ALGRALGRESR014","address":"Sap : I-UW-ALGR-ENB-6046<br\/>Loopback : 172.22.51.237<br\/>Up-Time : 12 days, 15:47:54.12","type":"ESR","status":"1","hoto":"1"},{"lat":"27.9462","lng":"78.1538","name":"ALGRHRGJESR001","address":"Sap : I-UW-ALGR-ENB-6047<br\/>Loopback : 172.22.52.173<br\/>Up-Time : 5 days, 3:54:46.63","type":"ESR","status":"1","hoto":"1"},{"lat":"27.8682","lng":"78.2516","name":"JALLJALLESR001","address":"Sap : I-UW-ALGR-ENB-6048<br\/>Loopback : 172.22.53.58<br\/>Up-Time : 14:54:52.51","type":"ESR","status":"1","hoto":"1"},{"lat":"27.9035","lng":"77.9799","name":"ALGRALGRESR017","address":"Sap : I-UW-ALGR-ENB-6051<br\/>Loopback : 172.22.56.9<br\/>Up-Time : 3 days, 20:50:28.63","type":"ESR","status":"1","hoto":"1"},{"lat":"27.8388","lng":"78.271","name":"PILKPILKESR001","address":"Sap : I-UW-ALGR-ENB-6054<br\/>Loopback : 172.22.53.59<br\/>Up-Time : 4 days, 0:31:16.43","type":"ESR","status":"1","hoto":"1"},{"lat":"28.0085","lng":"78.1309","name":"ALGRALGRESR006","address":"Sap : I-UW-ALGR-ENB-6055<br\/>Loopback : 172.22.53.60<br\/>Up-Time : 2 days, 15:16:48.96","type":"ESR","status":"1","hoto":"1"},{"lat":"27.9781","lng":"78.1285","name":"ALGRALGRESR016","address":"Sap : I-UW-ALGR-ENB-6056<br\/>Loopback : 172.22.56.103<br\/>Up-Time : 2:21:17.17","type":"ESR","status":"1","hoto":"1"},{"lat":"27.9876","lng":"78.1737","name":"ALGRALGRESR004","address":"Sap : I-UW-ALGR-ENB-6057<br\/>Loopback : 172.22.52.188<br\/>Up-Time : 12:58:02.76","type":"ESR","status":"1","hoto":"1"},{"lat":"27.9624","lng":"78.0233","name":"ALGRALGRESR012","address":"Sap : I-UW-ALGR-ENB-9013<br\/>Loopback : 172.22.55.77<br\/>Up-Time : 21:54:16.92","type":"ESR","status":"1","hoto":"1"},{"lat":"27.8088","lng":"78.1014","name":"ALGRALGRESR007","address":"Sap : I-UW-ALGR-ENB-9014<br\/>Loopback : 172.22.56.61<br\/>Up-Time : 2:49:51.31","type":"ESR","status":"1","hoto":"1"},{"lat":"27.9557","lng":"78.0096","name":"ALGRALGRESR008","address":"Sap : I-UW-ALGR-ENB-9018<br\/>Loopback : 172.22.58.63<br\/> ","type":"ESR","status":"0","hoto":"1"},{"lat":"27.8279","lng":"78.2207","name":"ALGRALGRESR010","address":"Sap : I-UW-ALGR-ENB-9019<br\/>Loopback : 172.22.55.65<br\/>Up-Time : 3 days, 0:56:05.26","type":"ESR","status":"1","hoto":"1"},{"lat":"27.9865","lng":"78.1005","name":"ALGRALGRESR009","address":"Sap : I-UW-ALGR-ENB-9020<br\/>Loopback : 172.22.55.41<br\/>Up-Time : 1 day, 1:11:20.59","type":"ESR","status":"1","hoto":"1"},{"lat":"28.0429","lng":"78.1188","name":"ALGRALGRESR005","address":"Sap : I-UW-ALGR-ENB-9021<br\/>Loopback : 172.22.53.84<br\/>Up-Time : 1 day, 12:09:51.20","type":"ESR","status":"1","hoto":"1"},{"lat":"27.9209","lng":"78.0836","name":"ALGRLNMCESR001","address":"Sap : I-UW-ALGR-ENB-B001<br\/>Loopback : 172.22.56.10<br\/>Up-Time : 23 days, 18:01:08.53","type":"ESR","status":"1","hoto":"1"},{"lat":"27.8737","lng":"78.0635","name":"ALGRSRQTESR002","address":"Sap : I-UW-ALGR-ENB-G001<br\/>Loopback : 172.22.49.196<br\/>Up-Time : 60 days, 7:19:35.43","type":"ESR","status":"1","hoto":"1"},{"lat":"27.9102","lng":"78.043","name":"ALGRSSVHESR001","address":"Sap : I-UW-ALGR-ENB-H001<br\/>Loopback : 172.22.53.108<br\/>Up-Time : 25 days, 18:30:12.62","type":"ESR","status":"1","hoto":"1"},{"lat":"27.93","lng":"78.0834","name":"ALGRJMLPESR001","address":"Sap : I-UW-ALGR-ENB-H003<br\/>Loopback : 172.22.50.236<br\/>Up-Time : 38 days, 11:40:47.02","type":"ESR","status":"1","hoto":"1"},{"lat":"27.805","lng":"78.2707","name":"ALGRALGRESR018","address":"Sap : I-UW-ALGR-ENB-I001<br\/>Loopback : 172.22.55.66<br\/>Up-Time : 8 days, 3:39:26.46","type":"ESR","status":"1","hoto":"1"},{"lat":"27.8884","lng":"78.0725","name":"ALGRSRHKESR001","address":"Sap : I-UW-ALGR-ENB-I002<br\/>Loopback : 172.22.50.41<br\/>Up-Time : 60 days, 7:17:39.27","type":"ESR","status":"1","hoto":"1"},{"lat":"27.917","lng":"78.0725","name":"ALGRZHCEESR002","address":"Sap : I-UW-ALGR-ENB-I003<br\/>Loopback : 172.22.54.136<br\/>Up-Time : 60 days, 4:06:08.95","type":"ESR","status":"1","hoto":"1"},{"lat":"27.8922","lng":"78.0777","name":"ALGRCNTPESR001","address":"Sap : I-UW-ALGR-ENB-V001<br\/>Loopback : 172.22.53.69<br\/>Up-Time : 5 days, 11:55:16.33","type":"ESR","status":"1","hoto":"1"},{"lat":"27.8988","lng":"78.0611","name":"ALGRIDETESR002","address":"Sap : I-UW-ALGR-ENB-V002<br\/>Loopback : 172.22.54.156<br\/>Up-Time : 8 days, 14:56:07.39","type":"ESR","status":"1","hoto":"1"},{"lat":"27.9183","lng":"78.1203","name":"ALGRSKRWESR001","address":"Sap : I-UW-ALGR-ENB-V003<br\/>Loopback : 172.22.52.189<br\/>Up-Time : 18 days, 11:02:08.89","type":"ESR","status":"1","hoto":"1"},{"lat":"27.8867","lng":"78.0387","name":"ALGRPRMVESR001","address":"Sap : I-UW-ALGR-ENB-V004<br\/>Loopback : 172.22.48.125<br\/>Up-Time : 8 days, 15:11:47.02","type":"ESR","status":"1","hoto":"1"},{"lat":"27.8706","lng":"78.0646","name":"ALGRKSMNESR001","address":"Sap : I-UW-ALGR-ENB-V005<br\/>Loopback : 172.22.56.11<br\/>Up-Time : 14:55:37.39","type":"ESR","status":"1","hoto":"1"},{"lat":"27.8525","lng":"78.1649","name":"ALGRALGRESR019","address":"Sap : I-UW-ALGR-ENB-V006<br\/>Loopback : 172.22.53.85<br\/>Up-Time : 15 days, 10:03:06.66","type":"ESR","status":"1","hoto":"1"},{"lat":"27.9018","lng":"78.0576","name":"ALGRTBWLESR001","address":"Sap : I-UW-ALGR-ENB-V007<br\/>Loopback : 172.22.53.66<br\/>Up-Time : 13 days, 18:24:16.19","type":"ESR","status":"1","hoto":"1"},{"lat":"27.9281","lng":"78.0793","name":"ALGRBDMNESR001","address":"Sap : I-UW-ALGR-ENB-V008<br\/>Loopback : 172.22.54.250<br\/>Up-Time : 25 days, 11:37:49.80","type":"ESR","status":"1","hoto":"1"},{"lat":"27.9041","lng":"78.0926","name":"ALGRRMBYESR002","address":"Sap : I-UW-ALGR-ENB-V009<br\/>Loopback : 172.22.54.230<br\/>Up-Time : 23 days, 18:35:57.11","type":"ESR","status":"1","hoto":"1"},{"lat":"27.9075","lng":"78.0528","name":"ALGRCHPRESR001","address":"Sap : I-UW-ALGR-ENB-V010<br\/>Loopback : 172.22.54.231<br\/>Up-Time : 6 days, 10:44:39.29","type":"ESR","status":"1","hoto":"1"},{"lat":"27.8803","lng":"78.0457","name":"ALGRROWRESR002","address":"Sap : I-UW-ALGR-ENB-V011<br\/>Loopback : 172.22.56.26<br\/>Up-Time : 5 days, 0:11:19.61","type":"ESR","status":"1","hoto":"1"},{"lat":"27.9039","lng":"78.0486","name":"ALGRLCHPESR002","address":"Sap : I-UW-ALGR-ENB-V012<br\/>Loopback : 172.22.51.100<br\/>Up-Time : 3 days, 15:32:40.28","type":"ESR","status":"1","hoto":"1"},{"lat":"28.8913","lng":"78.465","name":"AMRHSGRAESR001","address":"Sap : I-UW-AMRH-ENB-0004<br\/>Loopback : 172.22.50.219<br\/>Up-Time : 7 days, 10:48:15.15","type":"ESR","status":"1","hoto":"1"},{"lat":"28.8976","lng":"78.4582","name":"AMRHHJBHESR001","address":"Sap : I-UW-AMRH-ENB-0007<br\/>Loopback : 172.22.55.126<br\/>Up-Time : 26 days, 19:47:05.65","type":"ESR","status":"1","hoto":"1"},{"lat":"28.9114","lng":"78.4605","name":"AMRHMHLKESR002","address":"Sap : I-UW-AMRH-ENB-0015<br\/>Loopback : 172.22.57.168<br\/>Up-Time : 17 days, 16:37:14.98","type":"ESR","status":"1","hoto":"1"},{"lat":"28.8209","lng":"78.6012","name":"AMRHAMRHESR002","address":"Sap : I-UW-AMRH-ENB-6000<br\/>Loopback : 172.22.57.67<br\/>Up-Time : 3 days, 1:55:51.10","type":"ESR","status":"1","hoto":"1"},{"lat":"28.9021","lng":"78.4665","name":"AMRHMHLMESR001","address":"Sap : I-UW-AMRH-ENB-6001<br\/>Loopback : 172.22.55.124<br\/>Up-Time : 61 days, 6:36:07.18","type":"ESR","status":"1","hoto":"1"},{"lat":"28.8986","lng":"78.4695","name":"AMRHBZABESR001","address":"Sap : I-UW-AMRH-ENB-6002<br\/>Loopback : 172.22.55.123<br\/>Up-Time : 11 days, 16:13:04.83","type":"ESR","status":"1","hoto":"1"},{"lat":"28.9107","lng":"78.4747","name":"AMRHGSTYESR001","address":"Sap : I-UW-AMRH-ENB-6003<br\/>Loopback : 172.22.55.127<br\/>Up-Time : 39 days, 23:50:57.72","type":"ESR","status":"1","hoto":"1"},{"lat":"28.9052","lng":"78.4751","name":"AMRHCHBRESR001","address":"Sap : I-UW-AMRH-ENB-6004<br\/>Loopback : 172.22.51.83<br\/>Up-Time : 17 days, 20:44:42.32","type":"ESR","status":"1","hoto":"1"},{"lat":"28.9096","lng":"78.4702","name":"AMRHMHLKESR001","address":"Sap : I-UW-AMRH-ENB-6005<br\/>Loopback : 172.22.54.99<br\/> ","type":"ESR","status":"0","hoto":"1"},{"lat":"28.8955","lng":"78.4722","name":"AMRHPEGPESR001","address":"Sap : I-UW-AMRH-ENB-6006<br\/>Loopback : 172.22.54.100<br\/>Up-Time : 61 days, 6:35:04.26","type":"ESR","status":"1","hoto":"1"},{"lat":"28.8972","lng":"78.4654","name":"AMRHMHLNESR001","address":"Sap : I-UW-AMRH-ENB-6007<br\/>Loopback : 172.22.55.125<br\/>Up-Time : 2 days, 12:47:47.47","type":"ESR","status":"1","hoto":"1"},{"lat":"28.8323","lng":"78.5283","name":"AMRHAMRHESR001","address":"Sap : I-UW-AMRH-ENB-6008<br\/>Loopback : 172.22.55.79<br\/>Up-Time : 10 days, 16:08:20.09","type":"ESR","status":"1","hoto":"1"},{"lat":"29.0007","lng":"78.4046","name":"NGSTNGSTESR001","address":"Sap : I-UW-AMRH-ENB-6009<br\/>Loopback : 172.22.54.101<br\/>Up-Time : 12 days, 20:33:51.88","type":"ESR","status":"1","hoto":"1"},{"lat":"29.0236","lng":"78.3936","name":"BELNBELNESR001","address":"Sap : I-UW-AMRH-ENB-6010<br\/>Loopback : 172.22.55.219<br\/>Up-Time : ","type":"ESR","status":"1","hoto":"1"},{"lat":"29.0045","lng":"78.4027","name":"NGSTNGSTESR003","address":"Sap : I-UW-AMRH-ENB-6011<br\/>Loopback : 172.22.55.218<br\/>Up-Time : 13 days, 12:04:49.97","type":"ESR","status":"1","hoto":"1"},{"lat":"29.0118","lng":"78.4013","name":"NGSTNGSTESR002","address":"Sap : I-UW-AMRH-ENB-6012<br\/>Loopback : 172.22.54.102<br\/>Up-Time : 5 days, 10:51:55.20","type":"ESR","status":"1","hoto":"1"},{"lat":"28.8024","lng":"78.5634","name":"AMRHAMRHESR005","address":"Sap : I-UW-AMRH-ENB-6014<br\/>Loopback : 172.22.55.78<br\/>Up-Time : 6 days, 19:09:38.37","type":"ESR","status":"1","hoto":"1"},{"lat":"28.8362","lng":"78.3772","name":"AMRHAMRHESR006","address":"Sap : I-UW-AMRH-ENB-6015<br\/>Loopback : 172.22.54.103<br\/>Up-Time : 5 days, 2:05:08.50","type":"ESR","status":"1","hoto":"1"},{"lat":"28.9061","lng":"78.4817","name":"AMRHVJYNESR001","address":"Sap : I-UW-AMRH-ENB-G001<br\/>Loopback : 172.22.50.53<br\/>Up-Time : 3 days, 15:54:20.59","type":"ESR","status":"1","hoto":"1"},{"lat":"28.9057","lng":"78.4698","name":"AMRHGUZIESR001","address":"Sap : I-UW-AMRH-ENB-V001<br\/>Loopback : 172.22.56.31<br\/>Up-Time : 10 days, 16:23:50.57","type":"ESR","status":"1","hoto":"1"},{"lat":"28.9068","lng":"78.4674","name":"AMRHMHLTESR001","address":"Sap : I-UW-AMRH-ENB-V002<br\/>Loopback : 172.22.50.218<br\/>Up-Time : 60 days, 6:20:34.47","type":"ESR","status":"1","hoto":"1"},{"lat":"28.3566","lng":"78.2683","name":"ANPSANPSESR001","address":"Sap : I-UW-ANPS-ENB-6002<br\/>Loopback : 172.22.54.75<br\/>Up-Time : 33 days, 11:38:36.72","type":"ESR","status":"1","hoto":"1"},{"lat":"28.0269","lng":"78.2913","name":"ATRLATRLESR003","address":"Sap : I-UW-ATRL-ENB-6001<br\/>Loopback : 172.22.50.9<br\/>Up-Time : 4 days, 22:20:11.16","type":"ESR","status":"1","hoto":"1"},{"lat":"28.0259","lng":"78.2813","name":"ATRLATRLESR004","address":"Sap : I-UW-ATRL-ENB-6002<br\/>Loopback : 172.22.56.36<br\/>Up-Time : 46 days, 3:26:29.39","type":"ESR","status":"1","hoto":"1"},{"lat":"28.031","lng":"78.2836","name":"ATRLATRLESR001","address":"Sap : I-UW-ATRL-ENB-6003<br\/>Loopback : 172.22.53.152<br\/>Up-Time : 23 days, 11:04:30.85","type":"ESR","status":"1","hoto":"1"},{"lat":"28.0317","lng":"78.2872","name":"ATRLATRLESR002","address":"Sap : I-UW-ATRL-ENB-9012<br\/>Loopback : 172.22.50.10<br\/>Up-Time : 28 days, 18:10:36.48","type":"ESR","status":"1","hoto":"1"},{"lat":"28.0279","lng":"78.2853","name":"ATRLATRLESR007","address":"Sap : I-UW-ATRL-ENB-9013<br\/>Loopback : 172.22.55.225<br\/>Up-Time : 7 days, 20:17:10.64","type":"ESR","status":"1","hoto":"1"},{"lat":"26.4643","lng":"79.5098","name":"AURYHSMTESR001","address":"Sap : I-UW-AURY-ENB-0001<br\/>Loopback : 172.23.103.138<br\/>Up-Time : 21 days, 6:26:00.54","type":"ESR","status":"1","hoto":"1"},{"lat":"26.4701","lng":"79.5185","name":"AURYCLMTESR001","address":"Sap : I-UW-AURY-ENB-0002<br\/>Loopback : 172.23.103.193<br\/>Up-Time : 34 days, 12:42:36.64","type":"ESR","status":"1","hoto":"1"},{"lat":"26.4547","lng":"79.5127","name":"AURYONGRESR001","address":"Sap : I-UW-AURY-ENB-0004<br\/>Loopback : 172.23.103.206<br\/>Up-Time : 31 days, 9:24:54.40","type":"ESR","status":"1","hoto":"1"},{"lat":"26.4546","lng":"79.5027","name":"AURYSINKESR001","address":"Sap : I-UW-AURY-ENB-0005<br\/>Loopback : 172.23.103.136<br\/>Up-Time : 21 days, 6:24:39.99","type":"ESR","status":"1","hoto":"1"},{"lat":"26.4705","lng":"79.4996","name":"AURYBRHPESR001","address":"Sap : I-UW-AURY-ENB-0006<br\/>Loopback : 172.23.103.191<br\/>Up-Time : 16 days, 7:45:52.20","type":"ESR","status":"1","hoto":"1"},{"lat":"26.4687","lng":"79.5084","name":"AURYPDHNESR001","address":"Sap : I-UW-AURY-ENB-0007<br\/>Loopback : 172.23.103.139<br\/>Up-Time : 5:56:38.75","type":"ESR","status":"1","hoto":"1"},{"lat":"26.4738","lng":"79.5029","name":"AURYBRHPESR002","address":"Sap : I-UW-AURY-ENB-0008<br\/>Loopback : 172.23.103.192<br\/>Up-Time : 2 days, 17:52:20.74","type":"ESR","status":"1","hoto":"1"},{"lat":"26.4429","lng":"79.4968","name":"KSBKKSBKESR001","address":"Sap : I-UW-AURY-ENB-0009<br\/>Loopback : 172.23.103.141<br\/>Up-Time : 13 days, 13:39:05.30","type":"ESR","status":"1","hoto":"1"},{"lat":"26.5905","lng":"79.3528","name":"ATSUATSUESR001","address":"Sap : I-UW-AURY-ENB-6000<br\/>Loopback : 172.23.104.255<br\/>Up-Time : 11:14:47.82","type":"ESR","status":"1","hoto":"1"},{"lat":"26.4667","lng":"79.5145","name":"AURYSTWRESR001","address":"Sap : I-UW-AURY-ENB-6001<br\/>Loopback : 172.23.103.137<br\/>Up-Time : 2 days, 0:33:31.84","type":"ESR","status":"1","hoto":"1"},{"lat":"26.5637","lng":"79.3109","name":"BRAJBRAJESR001","address":"Sap : I-UW-AURY-ENB-6004<br\/>Loopback : 172.23.105.1<br\/>Up-Time : 6 days, 22:25:51.78","type":"ESR","status":"1","hoto":"1"},{"lat":"26.4612","lng":"79.3826","name":"AURYAURYESR001","address":"Sap : I-UW-AURY-ENB-6005<br\/>Loopback : 172.23.105.10<br\/>Up-Time : 36 days, 18:19:57.67","type":"ESR","status":"1","hoto":"1"},{"lat":"26.5105","lng":"79.3916","name":"AURYAURYESR005","address":"Sap : I-UW-AURY-ENB-6007<br\/>Loopback : 172.23.105.78<br\/>Up-Time : 47 days, 5:35:42.52","type":"ESR","status":"1","hoto":"1"},{"lat":"26.4716","lng":"79.486","name":"AURYAURYESR006","address":"Sap : I-UW-AURY-ENB-9009<br\/>Loopback : 172.23.106.198<br\/>Up-Time : 30 days, 21:53:17.40","type":"ESR","status":"1","hoto":"1"},{"lat":"26.5371","lng":"79.3533","name":"AURYAURYESR003","address":"Sap : I-UW-AURY-ENB-9010<br\/>Loopback : 172.23.106.213<br\/>Up-Time : 5:15:52.66","type":"ESR","status":"1","hoto":"1"},{"lat":"26.4864","lng":"79.4371","name":"AURYAURYESR004","address":"Sap : I-UW-AURY-ENB-9011<br\/>Loopback : 172.23.105.79<br\/>Up-Time : 8 days, 23:49:33.98","type":"ESR","status":"1","hoto":"1"},{"lat":"26.4603","lng":"79.5144","name":"AURYASVKESR001","address":"Sap : I-UW-AURY-ENB-V001<br\/>Loopback : 172.23.103.189<br\/>Up-Time : 35 days, 21:11:15.61","type":"ESR","status":"1","hoto":"1"},{"lat":"27.4428","lng":"78.4861","name":"AWGRAWGRESR001","address":"Sap : I-UW-AWGR-ENB-6000<br\/>Loopback : 172.22.53.238<br\/>Up-Time : 15 days, 12:48:44.18","type":"ESR","status":"1","hoto":"1"},{"lat":"29.4703","lng":"77.5729","name":"BAHABAHAESR001","address":"Sap : I-UW-BAHA-ENB-6000<br\/>Loopback : 172.22.161.237<br\/>Up-Time : 10 days, 14:16:55.01","type":"ESR","status":"1","hoto":"1"},{"lat":"26.8881","lng":"78.376","name":"PNHTPNHTESR001","address":"Sap : I-UW-BAHH-ENB-6006<br\/>Loopback : 172.22.54.158<br\/>Up-Time : 5 days, 22:02:44.77","type":"ESR","status":"1","hoto":"1"},{"lat":"28.7216","lng":"77.8472","name":"BBGRBBGRESR001","address":"Sap : I-UW-BBGR-ENB-I001<br\/>Loopback : 172.22.53.81<br\/> ","type":"ESR","status":"0","hoto":"1"},{"lat":"28.6411","lng":"77.9555","name":"BBNGBBNGESR001","address":"Sap : I-UW-BBNG-ENB-I001<br\/>Loopback : 172.22.53.124<br\/> ","type":"ESR","status":"0","hoto":"1"},{"lat":"29.244","lng":"77.4646","name":"BDNABDNAESR013","address":"Sap : I-UW-BDNA-ENB-6003<br\/>Loopback : 172.22.171.179<br\/>Up-Time : 4 days, 20:05:35.18","type":"ESR","status":"1","hoto":"1"},{"lat":"29.2935","lng":"77.4719","name":"BDNABDNAESR002","address":"Sap : I-UW-BDNA-ENB-6004<br\/>Loopback : 172.22.167.187<br\/>Up-Time : 12 days, 1:17:05.39","type":"ESR","status":"1","hoto":"1"},{"lat":"29.2916","lng":"77.4676","name":"BDNABDNAESR003","address":"Sap : I-UW-BDNA-ENB-6005<br\/>Loopback : 172.22.169.48<br\/>Up-Time : 30 days, 9:30:21.50","type":"ESR","status":"1","hoto":"1"},{"lat":"29.2852","lng":"77.4791","name":"BDNABDNAESR001","address":"Sap : I-UW-BDNA-ENB-6007<br\/>Loopback : 172.22.169.49<br\/>Up-Time : 48 days, 3:50:25.45","type":"ESR","status":"1","hoto":"1"},{"lat":"29.4146","lng":"77.4702","name":"SSULSSULESR001","address":"Sap : I-UW-BDNA-ENB-6018<br\/>Loopback : 172.22.169.53<br\/>Up-Time : 15 days, 23:51:56.25","type":"ESR","status":"1","hoto":"1"},{"lat":"28.0205","lng":"79.1322","name":"BDUNMZPRESR001","address":"Sap : I-UW-BDNN-ENB-0002<br\/>Loopback : 172.22.56.85<br\/>Up-Time : 1 day, 5:02:36.57","type":"ESR","status":"1","hoto":"1"},{"lat":"28.0158","lng":"79.1419","name":"BDUNMZPRESR002","address":"Sap : I-UW-BDNN-ENB-0003<br\/>Loopback : 172.22.54.170<br\/>Up-Time : 47 days, 5:43:30.95","type":"ESR","status":"1","hoto":"1"},{"lat":"28.03","lng":"79.1366","name":"BDUNMDVNESR001","address":"Sap : I-UW-BDNN-ENB-0004<br\/>Loopback : 172.22.56.52<br\/>Up-Time : 22 days, 10:13:11.12","type":"ESR","status":"1","hoto":"1"},{"lat":"28.042","lng":"79.1221","name":"BDUNBDNLESR001","address":"Sap : I-UW-BDNN-ENB-0009<br\/>Loopback : 172.22.54.113<br\/>Up-Time : 12 days, 12:55:01.39","type":"ESR","status":"1","hoto":"1"},{"lat":"28.0527","lng":"79.134","name":"BDUNKHRNESR001","address":"Sap : I-UW-BDNN-ENB-0011<br\/>Loopback : 172.22.54.175<br\/>Up-Time : 47 days, 5:43:49.99","type":"ESR","status":"1","hoto":"1"},{"lat":"28.0336","lng":"79.1173","name":"BDUNBDNUESR001","address":"Sap : I-UW-BDNN-ENB-0012<br\/>Loopback : 172.22.56.53<br\/>Up-Time : 56 days, 14:40:10.72","type":"ESR","status":"1","hoto":"1"},{"lat":"28.0306","lng":"79.1282","name":"BDUNWTERESR001","address":"Sap : I-UW-BDNN-ENB-V001<br\/>Loopback : 172.22.55.163<br\/>Up-Time : 0:13:50.86","type":"ESR","status":"1","hoto":"1"},{"lat":"28.0365","lng":"79.1182","name":"BDUNBDNXESR001","address":"Sap : I-UW-BDNN-ENB-V002<br\/>Loopback : 172.22.55.164<br\/>Up-Time : 14 days, 20:05:48.09","type":"ESR","status":"1","hoto":"1"},{"lat":"28.0479","lng":"79.1311","name":"BDUNGDMMPAR002","address":"Sap : I-UW-BDUN-AG2-0001<br\/>Loopback : 172.16.50.92<br\/>Up-Time : ","type":"PAR","status":"1","hoto":"1"},{"lat":"28.0479","lng":"79.1311","name":"BDUNGDMMPAR003","address":"Sap : I-UW-BDUN-AG2-0001<br\/>Loopback : 172.16.50.93<br\/>Up-Time : ","type":"PAR","status":"1","hoto":"1"},{"lat":"28.0479","lng":"79.1311","name":"BDUNGDMMPAR001","address":"Sap : I-UW-BDUN-AG2-0001<br\/>Loopback : 172.16.50.81<br\/>Up-Time : 57 days, 23:28:43.49","type":"PAR","status":"1","hoto":"1"},{"lat":"28.0479","lng":"79.1311","name":"BDUNGDMMAAR001","address":"Sap : I-UW-BDUN-AG2-0001<br\/>Loopback : 49.44.4.35<br\/>Up-Time : 76 days, 6:04:18.26","type":"AAR","status":"1","hoto":"0"},{"lat":"28.0479","lng":"79.1311","name":"BDUNGDMMAAR002","address":"Sap : I-UW-BDUN-AG2-0001<br\/>Loopback : 49.44.4.36<br\/>Up-Time : 75 days, 6:04:24.78","type":"AAR","status":"1","hoto":"0"},{"lat":"28.0721","lng":"79.1319","name":"BDUNBDUNESR003","address":"Sap : I-UW-BDUN-ENB-6000<br\/>Loopback : 172.22.54.67<br\/>Up-Time : 10 days, 16:42:16.13","type":"ESR","status":"1","hoto":"1"},{"lat":"28.0264","lng":"79.1327","name":"BDUNTCHRESR001","address":"Sap : I-UW-BDUN-ENB-6006<br\/>Loopback : 172.22.57.80<br\/>Up-Time : 16 days, 16:46:56.84","type":"ESR","status":"1","hoto":"1"},{"lat":"28.0381","lng":"79.1366","name":"BDUNKTMPESR001","address":"Sap : I-UW-BDUN-ENB-6008<br\/>Loopback : 172.22.53.159<br\/>Up-Time : 48 days, 16:25:49.39","type":"ESR","status":"1","hoto":"1"},{"lat":"28.0431","lng":"79.1281","name":"BDUNGDMMESR001","address":"Sap : I-UW-BDUN-ENB-6009<br\/>Loopback : 172.22.55.165<br\/>Up-Time : 52 days, 22:19:32.43","type":"ESR","status":"1","hoto":"1"},{"lat":"28.0103","lng":"79.17","name":"BDUNBDUNESR005","address":"Sap : I-UW-BDUN-ENB-6012<br\/>Loopback : 172.22.56.91<br\/>Up-Time : 15 days, 22:08:59.15","type":"ESR","status":"1","hoto":"1"},{"lat":"28.0091","lng":"79.1019","name":"BDUNBDUNESR002","address":"Sap : I-UW-BDUN-ENB-6015<br\/>Loopback : 172.22.50.143<br\/>Up-Time : 1:01:24.78","type":"ESR","status":"1","hoto":"1"},{"lat":"27.9431","lng":"78.8731","name":"BDUNBDUNESR008","address":"Sap : I-UW-BDUN-ENB-H001<br\/>Loopback : 172.22.54.129<br\/>Up-Time : 48 days, 4:07:41.76","type":"ESR","status":"1","hoto":"1"},{"lat":"28.0266","lng":"79.122","name":"BDUNBDUHESR002","address":"Sap : I-UW-BDUN-ENB-V004<br\/>Loopback : 172.22.54.120<br\/>Up-Time : 12 days, 11:54:39.12","type":"ESR","status":"1","hoto":"1"},{"lat":"30.1747","lng":"77.6169","name":"BEHTBEHTESR001","address":"Sap : I-UW-BEHT-ENB-6000<br\/>Loopback : 172.22.168.182<br\/>Up-Time : 4 days, 1:21:00.56","type":"ESR","status":"1","hoto":"1"},{"lat":"30.2588","lng":"77.6259","name":"BEHTBEHTESR009","address":"Sap : I-UW-BEHT-ENB-6003<br\/>Loopback : 172.22.169.221<br\/>Up-Time : 27 days, 15:21:14.93","type":"ESR","status":"1","hoto":"1"},{"lat":"30.08","lng":"77.7831","name":"BEHTBEHTESR004","address":"Sap : I-UW-BEHT-ENB-6006<br\/>Loopback : 172.22.170.73<br\/>Up-Time : 15 days, 9:01:24.17","type":"ESR","status":"1","hoto":"1"},{"lat":"30.0857","lng":"77.6003","name":"BEHTBEHTESR002","address":"Sap : I-UW-BEHT-ENB-6007<br\/>Loopback : 172.22.168.183<br\/>Up-Time : 4 days, 0:31:52.62","type":"ESR","status":"1","hoto":"1"},{"lat":"30.0967","lng":"77.8286","name":"BEHTBEHTESR005","address":"Sap : I-UW-BEHT-ENB-6008<br\/>Loopback : 172.22.170.74<br\/>Up-Time : 4 days, 22:17:35.98","type":"ESR","status":"1","hoto":"1"},{"lat":"27.2194","lng":"79.2979","name":"BEWABEWAESR002","address":"Sap : I-UW-BEWA-ENB-6000<br\/>Loopback : 172.22.50.198<br\/>Up-Time : 9 days, 19:50:03.08","type":"ESR","status":"1","hoto":"1"},{"lat":"28.9506","lng":"77.2729","name":"AGWMAGWMESR001","address":"Sap : I-UW-BGHP-ENB-6000<br\/>Loopback : 172.22.53.28<br\/>Up-Time : 24 days, 14:49:59.84","type":"ESR","status":"1","hoto":"1"},{"lat":"28.9458","lng":"77.2201","name":"BGHPBGHPESR002","address":"Sap : I-UW-BGHP-ENB-6001<br\/>Loopback : 172.22.49.194<br\/> ","type":"ESR","status":"0","hoto":"1"},{"lat":"28.941","lng":"77.2155","name":"BGHPBGHPESR006","address":"Sap : I-UW-BGHP-ENB-6003<br\/>Loopback : 172.22.53.29<br\/>Up-Time : 27 days, 17:53:16.74","type":"ESR","status":"1","hoto":"1"},{"lat":"28.9445","lng":"77.2137","name":"BGHPBGHPESR009","address":"Sap : I-UW-BGHP-ENB-9011<br\/>Loopback : 172.22.56.170<br\/>Up-Time : 14 days, 15:01:09.96","type":"ESR","status":"1","hoto":"1"},{"lat":"28.9325","lng":"77.2219","name":"BGHPBGHPESR007","address":"Sap : I-UW-BGHP-ENB-V002<br\/>Loopback : 172.22.53.30<br\/>Up-Time : 1 day, 23:41:56.69","type":"ESR","status":"1","hoto":"1"},{"lat":"27.2679","lng":"79.0919","name":"BHGNBHGNESR005","address":"Sap : I-UW-BHGN-ENB-6000<br\/>Loopback : 172.22.57.164<br\/>Up-Time : 17 days, 15:51:39.75","type":"ESR","status":"1","hoto":"1"},{"lat":"27.2523","lng":"79.1802","name":"BHGNBHGNESR001","address":"Sap : I-UW-BHGN-ENB-6010<br\/>Loopback : 172.22.50.200<br\/>Up-Time : 13 days, 11:23:39.81","type":"ESR","status":"1","hoto":"1"},{"lat":"27.2842","lng":"79.1453","name":"BHGNBHGNESR011","address":"Sap : I-UW-BHGN-ENB-6012<br\/>Loopback : 172.22.56.148<br\/>Up-Time : 4 days, 22:58:57.00","type":"ESR","status":"1","hoto":"1"},{"lat":"27.1026","lng":"79.283","name":"KUSMKUSMESR001","address":"Sap : I-UW-BHGN-ENB-6017<br\/>Loopback : 172.22.50.199<br\/>Up-Time : 11 days, 20:19:26.89","type":"ESR","status":"1","hoto":"1"},{"lat":"27.3173","lng":"79.0972","name":"BHGNBHGNESR004","address":"Sap : I-UW-BHGN-ENB-9029<br\/>Loopback : 172.22.58.160<br\/>Up-Time : 41 days, 5:48:59.83","type":"ESR","status":"1","hoto":"1"},{"lat":"28.7865","lng":"79.5123","name":"BHRISHNRESR001","address":"Sap : I-UW-BHRI-ENB-0007<br\/>Loopback : 172.22.53.55<br\/>Up-Time : 5 days, 5:49:40.78","type":"ESR","status":"1","hoto":"1"},{"lat":"28.7773","lng":"79.4955","name":"BHRISHKPESR001","address":"Sap : I-UW-BHRI-ENB-6001<br\/>Loopback : 172.22.53.56<br\/>Up-Time : 47 days, 4:47:28.85","type":"ESR","status":"1","hoto":"1"},{"lat":"28.8823","lng":"79.2675","name":"BILFBILFESR003","address":"Sap : I-UW-BILF-ENB-6002<br\/>Loopback : 172.22.56.30<br\/>Up-Time : 8 days, 20:37:07.46","type":"ESR","status":"1","hoto":"1"},{"lat":"28.8887","lng":"79.264","name":"BILFBILFESR001","address":"Sap : I-UW-BILF-ENB-6003<br\/>Loopback : 172.22.53.49<br\/>Up-Time : 9 days, 6:18:07.35","type":"ESR","status":"1","hoto":"1"},{"lat":"28.8637","lng":"79.2541","name":"BILFBILFESR004","address":"Sap : I-UW-BILF-ENB-9006<br\/>Loopback : 172.22.49.250<br\/>Up-Time : 12 days, 7:52:41.56","type":"ESR","status":"1","hoto":"1"},{"lat":"28.9493","lng":"79.3694","name":"BILFBILFESR007","address":"Sap : I-UW-BILF-ENB-9012<br\/>Loopback : 172.22.58.161<br\/>Up-Time : 7 days, 7:49:04.34","type":"ESR","status":"1","hoto":"1"},{"lat":"28.8643","lng":"79.1992","name":"BILFBILFESR005","address":"Sap : I-UW-BILF-ENB-9013<br\/>Loopback : 172.22.53.74<br\/>Up-Time : 8 days, 21:36:00.86","type":"ESR","status":"1","hoto":"1"},{"lat":"28.9311","lng":"79.3413","name":"BILFBILFESR006","address":"Sap : I-UW-BILF-ENB-9014<br\/>Loopback : 172.22.55.34<br\/>Up-Time : 8 days, 23:03:29.43","type":"ESR","status":"1","hoto":"1"},{"lat":"28.2858","lng":"78.7802","name":"BILSBILSESR002","address":"Sap : I-UW-BILS-ENB-6005<br\/>Loopback : 172.22.54.22<br\/>Up-Time : 10 days, 14:21:55.95","type":"ESR","status":"1","hoto":"1"},{"lat":"28.2372","lng":"79.0303","name":"BILSBILSESR001","address":"Sap : I-UW-BILS-ENB-6006<br\/>Loopback : 172.22.54.229<br\/>Up-Time : 2 days, 1:52:29.08","type":"ESR","status":"1","hoto":"1"},{"lat":"29.377","lng":"78.1259","name":"BJNRPLCLESR001","address":"Sap : I-UW-BJNR-ENB-0006<br\/>Loopback : 172.22.54.133<br\/>Up-Time : 30 days, 16:53:04.93","type":"ESR","status":"1","hoto":"1"},{"lat":"29.3686","lng":"78.1432","name":"BJNRFTEPESR001","address":"Sap : I-UW-BJNR-ENB-0008<br\/>Loopback : 172.22.55.119<br\/>Up-Time : 6 days, 11:52:44.82","type":"ESR","status":"1","hoto":"1"},{"lat":"29.3787","lng":"78.1653","name":"BJNRSLMDESR001","address":"Sap : I-UW-BJNR-ENB-0011<br\/>Loopback : 172.22.53.155<br\/>Up-Time : 14 days, 12:57:17.24","type":"ESR","status":"1","hoto":"1"},{"lat":"29.3801","lng":"78.1098","name":"BJNRBJNRESR003","address":"Sap : I-UW-BJNR-ENB-0013<br\/>Loopback : 172.22.55.17<br\/>Up-Time : 2 days, 0:26:46.13","type":"ESR","status":"1","hoto":"1"},{"lat":"29.3912","lng":"78.168","name":"BJNRFRDPESR001","address":"Sap : I-UW-BJNR-ENB-0014<br\/>Loopback : 172.22.55.18<br\/>Up-Time : 8 days, 11:34:05.50","type":"ESR","status":"1","hoto":"1"},{"lat":"29.3723","lng":"78.1428","name":"BJNRFTPUESR001","address":"Sap : I-UW-BJNR-ENB-6000<br\/>Loopback : 172.22.55.121<br\/>Up-Time : 38 days, 8:35:20.29","type":"ESR","status":"1","hoto":"1"},{"lat":"29.3801","lng":"78.1427","name":"BJNRPUJBESR001","address":"Sap : I-UW-BJNR-ENB-6001<br\/>Loopback : 172.22.53.153<br\/>Up-Time : 47 days, 6:00:31.12","type":"ESR","status":"1","hoto":"1"},{"lat":"29.3708","lng":"78.1326","name":"BJNRSDRBESR001","address":"Sap : I-UW-BJNR-ENB-6002<br\/>Loopback : 172.22.51.82<br\/>Up-Time : 30 days, 19:40:04.78","type":"ESR","status":"1","hoto":"1"},{"lat":"29.3827","lng":"78.1302","name":"BJNRSHEKESR001","address":"Sap : I-UW-BJNR-ENB-6003<br\/>Loopback : 172.22.51.38<br\/>Up-Time : 6 days, 14:05:11.73","type":"ESR","status":"1","hoto":"1"},{"lat":"29.3642","lng":"78.1389","name":"BJNRSRKMESR001","address":"Sap : I-UW-BJNR-ENB-6004<br\/>Loopback : 172.22.53.154<br\/>Up-Time : 29 days, 23:50:44.42","type":"ESR","status":"1","hoto":"1"},{"lat":"29.3755","lng":"78.1386","name":"BJNRGRDWESR001","address":"Sap : I-UW-BJNR-ENB-6005<br\/>Loopback : 172.22.55.122<br\/>Up-Time : 6 days, 11:29:09.70","type":"ESR","status":"1","hoto":"1"},{"lat":"28.5719","lng":"77.3714","name":"BJNRSDPRESR001","address":"Sap : I-UW-BJNR-ENB-6006<br\/>Loopback : 172.22.55.120<br\/>Up-Time : 8 days, 23:20:39.54","type":"ESR","status":"1","hoto":"1"},{"lat":"29.5764","lng":"78.1527","name":"BJNRBJNRESR011","address":"Sap : I-UW-BJNR-ENB-6007<br\/>Loopback : 172.22.56.90<br\/>Up-Time : 47 days, 11:33:02.45","type":"ESR","status":"1","hoto":"1"},{"lat":"29.243","lng":"78.1796","name":"BJNRBJNRESR010","address":"Sap : I-UW-BJNR-ENB-6008<br\/>Loopback : 172.22.55.178<br\/>Up-Time : 5 days, 22:17:54.79","type":"ESR","status":"1","hoto":"1"},{"lat":"29.2905","lng":"78.2829","name":"HLDRHLDRESR001","address":"Sap : I-UW-BJNR-ENB-6009<br\/>Loopback : 172.22.54.125<br\/>Up-Time : 58 days, 10:31:09.87","type":"ESR","status":"1","hoto":"1"},{"lat":"29.4874","lng":"78.128","name":"MWRRMWRRESR001","address":"Sap : I-UW-BJNR-ENB-6011<br\/>Loopback : 172.22.54.55<br\/> ","type":"ESR","status":"0","hoto":"1"},{"lat":"29.2705","lng":"78.1165","name":"BJNRBJNRESR001","address":"Sap : I-UW-BJNR-ENB-6013<br\/>Loopback : 172.22.55.179<br\/>Up-Time : 23 days, 5:39:05.98","type":"ESR","status":"1","hoto":"1"},{"lat":"29.3932","lng":"78.1232","name":"BJNRTRKMESR001","address":"Sap : I-UW-BJNR-ENB-6014<br\/>Loopback : 172.22.53.156<br\/>Up-Time : 53 days, 2:48:09.99","type":"ESR","status":"1","hoto":"1"},{"lat":"29.4324","lng":"78.1332","name":"BJNRBJNRESR006","address":"Sap : I-UW-BJNR-ENB-9009<br\/>Loopback : 172.22.55.19<br\/>Up-Time : 13:12:16.65","type":"ESR","status":"1","hoto":"1"},{"lat":"29.5419","lng":"78.1362","name":"BJNRBJNRESR005","address":"Sap : I-UW-BJNR-ENB-9010<br\/>Loopback : 172.22.56.102<br\/>Up-Time : 24 days, 13:16:07.83","type":"ESR","status":"1","hoto":"1"},{"lat":"29.4109","lng":"78.1622","name":"BJNRBJNRESR007","address":"Sap : I-UW-BJNR-ENB-9011<br\/>Loopback : 172.22.54.56<br\/> ","type":"ESR","status":"0","hoto":"1"},{"lat":"29.3705","lng":"78.056","name":"BJNRBJNRESR008","address":"Sap : I-UW-BJNR-ENB-9012<br\/>Loopback : 172.22.55.20<br\/> ","type":"ESR","status":"0","hoto":"1"},{"lat":"29.4632","lng":"78.1787","name":"BJNRBJNRESR004","address":"Sap : I-UW-BJNR-ENB-9013<br\/>Loopback : 172.22.55.21<br\/>Up-Time : 27 days, 1:55:59.48","type":"ESR","status":"1","hoto":"1"},{"lat":"29.3709","lng":"78.1258","name":"BJNRKLNSESR001","address":"Sap : I-UW-BJNR-ENB-G001<br\/>Loopback : 172.22.58.54<br\/>Up-Time : 17 days, 0:35:07.54","type":"ESR","status":"1","hoto":"1"},{"lat":"29.3937","lng":"78.1473","name":"BJNRADMPESR001","address":"Sap : I-UW-BJNR-ENB-H001<br\/>Loopback : 172.22.53.157<br\/>Up-Time : 51 days, 3:57:09.19","type":"ESR","status":"1","hoto":"1"},{"lat":"29.3765","lng":"78.1463","name":"BJNRNWBKESR001","address":"Sap : I-UW-BJNR-ENB-H002<br\/>Loopback : 172.22.56.12<br\/>Up-Time : 46 days, 21:28:47.17","type":"ESR","status":"1","hoto":"1"},{"lat":"29.386","lng":"78.1607","name":"BJNRBJNRESR012","address":"Sap : I-UW-BJNR-ENB-S001<br\/>Loopback : 172.22.49.154<br\/>Up-Time : 55 days, 3:35:35.99","type":"ESR","status":"1","hoto":"1"},{"lat":"29.3734","lng":"78.1361","name":"BJNRGRDWESR002","address":"Sap : I-UW-BJNR-ENB-V001<br\/>Loopback : 172.22.55.157<br\/>Up-Time : 6 days, 13:08:59.84","type":"ESR","status":"1","hoto":"1"},{"lat":"29.3865","lng":"78.1243","name":"BJNRAWSVESR001","address":"Sap : I-UW-BJNR-ENB-V002<br\/>Loopback : 172.22.56.75<br\/>Up-Time : 38 days, 22:01:59.55","type":"ESR","status":"1","hoto":"1"},{"lat":"28.4109","lng":"77.8505","name":"BLDRNGRNESR001","address":"Sap : I-UW-BLDR-ENB-0001<br\/>Loopback : 172.22.53.77<br\/>Up-Time : 6 days, 14:47:20.38","type":"ESR","status":"1","hoto":"1"},{"lat":"28.4108","lng":"77.8574","name":"BLDRDEPTESR001","address":"Sap : I-UW-BLDR-ENB-0002<br\/>Loopback : 172.22.48.223<br\/>Up-Time : 55 days, 2:57:19.39","type":"ESR","status":"1","hoto":"1"},{"lat":"28.4079","lng":"77.8621","name":"BLDRKLBIESR001","address":"Sap : I-UW-BLDR-ENB-0003<br\/>Loopback : 172.22.48.224<br\/>Up-Time : 39 days, 20:36:25.95","type":"ESR","status":"1","hoto":"1"},{"lat":"28.4037","lng":"77.8632","name":"BLDRGNMKESR001","address":"Sap : I-UW-BLDR-ENB-0004<br\/>Loopback : 172.22.48.232<br\/>Up-Time : 55 days, 3:30:00.74","type":"ESR","status":"1","hoto":"1"},{"lat":"28.3995","lng":"77.8631","name":"BLDRBLMKESR001","address":"Sap : I-UW-BLDR-ENB-0005<br\/>Loopback : 172.22.48.233<br\/>Up-Time : 17 days, 14:43:52.06","type":"ESR","status":"1","hoto":"1"},{"lat":"28.4014","lng":"77.8571","name":"BLDRBRBZESR001","address":"Sap : I-UW-BLDR-ENB-0006<br\/>Loopback : 172.22.56.106<br\/>Up-Time : 2 days, 3:32:24.07","type":"ESR","status":"1","hoto":"1"},{"lat":"28.3941","lng":"77.8593","name":"BLDRSETKESR001","address":"Sap : I-UW-BLDR-ENB-0007<br\/>Loopback : 172.22.48.227<br\/>Up-Time : 26 days, 18:57:37.39","type":"ESR","status":"1","hoto":"1"},{"lat":"28.4125","lng":"77.8376","name":"BLDRBRNGESR001","address":"Sap : I-UW-BLDR-ENB-0010<br\/>Loopback : 172.22.48.230<br\/>Up-Time : 26 days, 18:49:04.54","type":"ESR","status":"1","hoto":"1"},{"lat":"28.4152","lng":"77.8279","name":"BLDRPLVVESR001","address":"Sap : I-UW-BLDR-ENB-0012<br\/>Loopback : 172.22.48.220<br\/>Up-Time : 55 days, 2:57:39.50","type":"ESR","status":"1","hoto":"1"},{"lat":"28.4995","lng":"77.9579","name":"BLDRBLDRESR004","address":"Sap : I-UW-BLDR-ENB-6000<br\/>Loopback : 172.22.53.163<br\/>Up-Time : 19 days, 20:48:30.92","type":"ESR","status":"1","hoto":"1"},{"lat":"28.4066","lng":"77.8532","name":"BLDRMNSIESR001","address":"Sap : I-UW-BLDR-ENB-6003<br\/>Loopback : 172.22.48.225<br\/>Up-Time : 13 days, 22:12:25.23","type":"ESR","status":"1","hoto":"1"},{"lat":"28.4044","lng":"77.8718","name":"BLDRSHKRESR001","address":"Sap : I-UW-BLDR-ENB-6004<br\/>Loopback : 172.22.48.235<br\/>Up-Time : 5 days, 12:00:10.11","type":"ESR","status":"1","hoto":"1"},{"lat":"28.3993","lng":"77.8533","name":"BLDRKLSPESR001","address":"Sap : I-UW-BLDR-ENB-6005<br\/>Loopback : 172.22.48.238<br\/>Up-Time : 5 days, 7:16:22.93","type":"ESR","status":"1","hoto":"1"},{"lat":"28.4143","lng":"77.8467","name":"BLDRSKRPESR001","address":"Sap : I-UW-BLDR-ENB-6006<br\/>Loopback : 172.22.48.222<br\/>Up-Time : 34 days, 20:35:50.08","type":"ESR","status":"1","hoto":"1"},{"lat":"28.4105","lng":"77.8717","name":"BLDRALINESR001","address":"Sap : I-UW-BLDR-ENB-6007<br\/>Loopback : 172.22.48.236<br\/>Up-Time : 5 days, 9:07:39.57","type":"ESR","status":"1","hoto":"1"},{"lat":"28.3976","lng":"77.8556","name":"BLDRRDHNESR001","address":"Sap : I-UW-BLDR-ENB-6008<br\/>Loopback : 172.22.48.226<br\/>Up-Time : 17 days, 15:20:32.57","type":"ESR","status":"1","hoto":"1"},{"lat":"28.404","lng":"77.8468","name":"BLDRLXMIESR001","address":"Sap : I-UW-BLDR-ENB-6009<br\/>Loopback : 172.22.48.221<br\/>Up-Time : 58 days, 13:11:52.55","type":"ESR","status":"1","hoto":"1"},{"lat":"28.4054","lng":"77.8581","name":"BLDRFTHMESR001","address":"Sap : I-UW-BLDR-ENB-6010<br\/>Loopback : 172.22.48.231<br\/>Up-Time : 56 days, 0:57:55.40","type":"ESR","status":"1","hoto":"1"},{"lat":"28.5223","lng":"77.953","name":"BLDRBLDRESR007","address":"Sap : I-UW-BLDR-ENB-6013<br\/>Loopback : 172.22.55.32<br\/>Up-Time : 39 days, 3:37:51.77","type":"ESR","status":"1","hoto":"1"},