var maplatlng = {"latlng":[{"lat":"23.5845","lng":"87.2219","name":"ADALADALESR005","address":"Sap : I-WB-ADAL-ENB-6000<br\/>Loopback : 172.23.244.122<br\/>Up-Time : 56 days, 5:09:34.42","type":"ESR","status":"1","hoto":"1"},{"lat":"23.5647","lng":"87.2096","name":"ADALADALESR006","address":"Sap : I-WB-ADAL-ENB-V001<br\/>Loopback : 172.23.255.79<br\/>Up-Time : 49 days, 15:39:45.65","type":"ESR","status":"1","hoto":"1"},{"lat":"22.9045","lng":"88.5403","name":"DHHNMTGHESR001","address":"Sap : I-WB-ADNG-ENB-6000<br\/>Loopback : 172.23.255.177<br\/> ","type":"ESR","status":"0","hoto":"1"},{"lat":"22.8389","lng":"88.5224","name":"KLKTDRAPESR001","address":"Sap : I-WB-ADNG-ENB-9002<br\/>Loopback : 172.23.254.55<br\/>Up-Time : 14:09:49.51","type":"ESR","status":"1","hoto":"1"},{"lat":"23.4867","lng":"86.6939","name":"ADRAADRAESR002","address":"Sap : I-WB-ADRA-ENB-6001<br\/>Loopback : 172.23.75.56<br\/>Up-Time : 19 days, 17:56:36.49","type":"ESR","status":"1","hoto":"1"},{"lat":"23.5005","lng":"86.6736","name":"ADRAADRAESR001","address":"Sap : I-WB-ADRA-ENB-6002<br\/>Loopback : 172.23.75.38<br\/>Up-Time : 41 days, 11:38:56.51","type":"ESR","status":"1","hoto":"1"},{"lat":"23.4894","lng":"86.6706","name":"ADRAADRAESR003","address":"Sap : I-WB-ADRA-ENB-I001<br\/>Loopback : 172.23.75.57<br\/> ","type":"ESR","status":"0","hoto":"1"},{"lat":"23.8293","lng":"87.6913","name":"AHDPAHDPPAR001","address":"Sap : I-WB-AHDP-ENB-6000<br\/>Loopback : 172.16.58.9<br\/>Up-Time : 66 days, 3:03:46.58","type":"PAR","status":"1","hoto":"1"},{"lat":"26.3889","lng":"89.2278","name":"AKPDAKPDPAR001","address":"Sap : I-WB-AKPD-ENB-6000<br\/>Loopback : 172.16.58.220<br\/>Up-Time : 36 days, 19:58:49.92","type":"PAR","status":"1","hoto":"1"},{"lat":"26.4787","lng":"89.5267","name":"ALPDMYTKPAR002","address":"Sap : I-WB-ALPD-AG2-0001<br\/>Loopback : 172.16.58.87<br\/>Up-Time : 219 days, 8:07:12.50","type":"PAR","status":"1","hoto":"1"},{"lat":"26.4959","lng":"89.5289","name":"ALPDMITRESR001","address":"Sap : I-WB-ALPD-ENB-0001<br\/>Loopback : 172.23.68.82<br\/>Up-Time : 60 days, 3:30:30.07","type":"ESR","status":"1","hoto":"1"},{"lat":"26.535","lng":"89.5464","name":"ALPDDLITESR001","address":"Sap : I-WB-ALPD-ENB-6002<br\/>Loopback : 172.23.67.77<br\/>Up-Time : 53 days, 0:00:09.39","type":"ESR","status":"1","hoto":"1"},{"lat":"26.503","lng":"89.5233","name":"ALPDUTYNESR001","address":"Sap : I-WB-ALPD-ENB-6003<br\/>Loopback : 172.23.68.148<br\/>Up-Time : 61 days, 1:40:44.44","type":"ESR","status":"1","hoto":"1"},{"lat":"26.4924","lng":"89.5382","name":"ALPDSRDNESR001","address":"Sap : I-WB-ALPD-ENB-6005<br\/>Loopback : 172.23.66.171<br\/>Up-Time : 39 days, 2:04:48.94","type":"ESR","status":"1","hoto":"1"},{"lat":"26.4863","lng":"89.5284","name":"ALPDSHNNESR001","address":"Sap : I-WB-ALPD-ENB-6006<br\/>Loopback : 172.23.66.176<br\/>Up-Time : 60 days, 2:26:36.31","type":"ESR","status":"1","hoto":"1"},{"lat":"26.512","lng":"89.5117","name":"ALPDALPDESR002","address":"Sap : I-WB-ALPD-ENB-6007<br\/>Loopback : 172.23.67.106<br\/>Up-Time : 36 days, 10:51:48.91","type":"ESR","status":"1","hoto":"1"},{"lat":"26.5389","lng":"89.529","name":"ALPDALPDESR001","address":"Sap : I-WB-ALPD-ENB-6008<br\/>Loopback : 172.23.68.149<br\/>Up-Time : 60 days, 1:36:25.42","type":"ESR","status":"1","hoto":"1"},{"lat":"26.5042","lng":"89.5424","name":"ALPDALPDESR003","address":"Sap : I-WB-ALPD-ENB-6009<br\/>Loopback : 172.23.68.233<br\/>Up-Time : 36 days, 10:51:17.68","type":"ESR","status":"1","hoto":"1"},{"lat":"26.5096","lng":"89.5274","name":"ALPDJIBNESR001","address":"Sap : I-WB-ALPD-ENB-A001<br\/>Loopback : 172.23.68.150<br\/>Up-Time : 39 days, 2:14:29.78","type":"ESR","status":"1","hoto":"1"},{"lat":"26.4814","lng":"89.5363","name":"ALPDPNKIESR001","address":"Sap : I-WB-ALPD-ENB-B001<br\/>Loopback : 172.23.68.174<br\/>Up-Time : 60 days, 4:30:40.56","type":"ESR","status":"1","hoto":"1"},{"lat":"26.4812","lng":"89.5046","name":"BIIPBIIPESR001","address":"Sap : I-WB-ALPD-ENB-G001<br\/>Loopback : 172.23.70.76<br\/>Up-Time : 7 days, 13:53:44.87","type":"ESR","status":"1","hoto":"1"},{"lat":"26.5341","lng":"89.5366","name":"ALPDALPDESR004","address":"Sap : I-WB-ALPD-ENB-R001<br\/>Loopback : 172.23.68.232<br\/>Up-Time : 55 days, 15:43:17.12","type":"ESR","status":"1","hoto":"1"},{"lat":"26.4915","lng":"89.6791","name":"ALPOALPOESR001","address":"Sap : I-WB-ALPO-ENB-6002<br\/>Loopback : 172.23.70.163<br\/>Up-Time : 46 days, 3:37:28.21","type":"ESR","status":"1","hoto":"1"},{"lat":"26.4693","lng":"89.7236","name":"UKKGUKKGESR001","address":"Sap : I-WB-ALPO-ENB-6005<br\/>Loopback : 172.23.70.161<br\/>Up-Time : 40 days, 1:06:44.95","type":"ESR","status":"1","hoto":"1"},{"lat":"26.49","lng":"89.6999","name":"ALPOALPOESR003","address":"Sap : I-WB-ALPO-ENB-9005<br\/>Loopback : 172.23.70.162<br\/>Up-Time : 7 days, 9:15:06.38","type":"ESR","status":"1","hoto":"1"},{"lat":"22.88","lng":"87.7908","name":"AMBGBDPMESR003","address":"Sap : I-WB-AMBG-ENB-0005<br\/>Loopback : 172.23.253.118<br\/>Up-Time : 4 days, 18:51:39.18","type":"ESR","status":"1","hoto":"1"},{"lat":"22.8668","lng":"87.7941","name":"AMBGAMBGESR002","address":"Sap : I-WB-AMBG-ENB-0006<br\/>Loopback : 172.23.244.8<br\/>Up-Time : 61 days, 5:21:06.83","type":"ESR","status":"1","hoto":"1"},{"lat":"22.8784","lng":"87.7777","name":"AMBGBLDWESR001","address":"Sap : I-WB-AMBG-ENB-0011<br\/>Loopback : 172.23.244.7<br\/>Up-Time : 4 days, 8:05:49.00","type":"ESR","status":"1","hoto":"1"},{"lat":"22.8942","lng":"87.7897","name":"AMBGAMBGESR004","address":"Sap : I-WB-AMBG-ENB-6000<br\/>Loopback : 172.23.244.5<br\/>Up-Time : 62 days, 0:00:17.75","type":"ESR","status":"1","hoto":"1"},{"lat":"23.4363","lng":"88.3916","name":"MYPRMYPRESR001","address":"Sap : I-WB-AMBG-ENB-6001<br\/>Loopback : 172.23.244.10<br\/>Up-Time : 42 days, 11:08:17.83","type":"ESR","status":"1","hoto":"1"},{"lat":"22.8937","lng":"87.7745","name":"AMBGPLSEESR001","address":"Sap : I-WB-AMBG-ENB-6002<br\/>Loopback : 172.23.244.6<br\/>Up-Time : 27 days, 1:51:42.23","type":"ESR","status":"1","hoto":"1"},{"lat":"22.8689","lng":"87.8082","name":"AMBGBDPMESR001","address":"Sap : I-WB-AMBG-ENB-6003<br\/>Loopback : 172.23.244.3<br\/>Up-Time : 61 days, 3:54:20.38","type":"ESR","status":"1","hoto":"1"},{"lat":"22.869","lng":"87.8082","name":"AMBGMHPRESR001","address":"Sap : I-WB-AMBG-ENB-6004<br\/>Loopback : 172.23.244.9<br\/>Up-Time : 27 days, 7:31:25.50","type":"ESR","status":"1","hoto":"1"},{"lat":"22.8847","lng":"87.7817","name":"AMBGNTJIESR001","address":"Sap : I-WB-AMBG-ENB-6005<br\/>Loopback : 172.23.244.4<br\/>Up-Time : 61 days, 3:54:24.10","type":"ESR","status":"1","hoto":"1"},{"lat":"22.8213","lng":"87.7831","name":"AMBGAMBGESR006","address":"Sap : I-WB-AMBG-ENB-6006<br\/>Loopback : 172.23.244.11<br\/>Up-Time : 43 days, 22:39:36.11","type":"ESR","status":"1","hoto":"1"},{"lat":"22.7928","lng":"87.8325","name":"AMBGAMBGESR007","address":"Sap : I-WB-AMBG-ENB-6008<br\/>Loopback : 172.23.244.12<br\/>Up-Time : 40 days, 1:26:37.90","type":"ESR","status":"1","hoto":"1"},{"lat":"22.8847","lng":"87.9062","name":"AMBGAMBGESR005","address":"Sap : I-WB-AMBG-ENB-6010<br\/>Loopback : 172.23.244.13<br\/>Up-Time : 25 days, 13:07:06.26","type":"ESR","status":"1","hoto":"1"},{"lat":"22.905","lng":"87.9031","name":"AMBGAMBGESR008","address":"Sap : I-WB-AMBG-ENB-6011<br\/>Loopback : 172.23.244.14<br\/>Up-Time : 43 days, 22:11:42.46","type":"ESR","status":"1","hoto":"1"},{"lat":"22.8789","lng":"87.785","name":"AMBGNTJIESR003","address":"Sap : I-WB-AMBG-ENB-A001<br\/>Loopback : 172.23.253.252<br\/>Up-Time : 49 days, 8:41:58.13","type":"ESR","status":"1","hoto":"1"},{"lat":"22.8766","lng":"87.7912","name":"AMBGBDPMESR002","address":"Sap : I-WB-AMBG-ENB-B001<br\/>Loopback : 172.23.245.101<br\/>Up-Time : 61 days, 4:15:53.14","type":"ESR","status":"1","hoto":"1"},{"lat":"22.8851","lng":"87.7879","name":"AMBGNBPYESR001","address":"Sap : I-WB-AMBG-ENB-V001<br\/>Loopback : 172.23.244.41<br\/>Up-Time : 61 days, 23:59:49.07","type":"ESR","status":"1","hoto":"1"},{"lat":"22.8886","lng":"87.7805","name":"AMBGNTJIESR002","address":"Sap : I-WB-AMBG-ENB-V002<br\/>Loopback : 172.23.244.42<br\/>Up-Time : 61 days, 23:59:33.19","type":"ESR","status":"1","hoto":"1"},{"lat":"22.5874","lng":"87.9998","name":"AMTOAMTOESR005","address":"Sap : I-WB-AMTO-ENB-6000<br\/>Loopback : 172.23.254.91<br\/>Up-Time : 43 days, 22:30:52.19","type":"ESR","status":"1","hoto":"1"},{"lat":"22.5747","lng":"87.9955","name":"AMTOAMTOESR001","address":"Sap : I-WB-AMTO-ENB-6001<br\/>Loopback : 172.23.253.90<br\/>Up-Time : 43 days, 12:31:32.00","type":"ESR","status":"1","hoto":"1"},{"lat":"22.6094","lng":"87.9373","name":"AMTOAMTOESR006","address":"Sap : I-WB-AMTO-ENB-6002<br\/>Loopback : 172.23.255.151<br\/>Up-Time : 51 days, 3:47:55.37","type":"ESR","status":"1","hoto":"1"},{"lat":"22.558","lng":"87.9648","name":"AMTOAMTOESR004","address":"Sap : I-WB-AMTO-ENB-6003<br\/>Loopback : 172.23.253.58<br\/>Up-Time : 56 days, 2:02:24.30","type":"ESR","status":"1","hoto":"1"},{"lat":"22.5646","lng":"87.9313","name":"AMTOAMTOESR003","address":"Sap : I-WB-AMTO-ENB-6004<br\/>Loopback : 172.23.252.130<br\/>Up-Time : 56 days, 1:18:39.08","type":"ESR","status":"1","hoto":"1"},{"lat":"22.5394","lng":"87.9747","name":"AMTOAMTOESR002","address":"Sap : I-WB-AMTO-ENB-6005<br\/>Loopback : 172.23.253.57<br\/>Up-Time : 29 days, 11:00:05.83","type":"ESR","status":"1","hoto":"1"},{"lat":"22.5805","lng":"88.0081","name":"AMTTAMTTESR001","address":"Sap : I-WB-AMTT-ENB-6000<br\/>Loopback : 172.23.254.93<br\/>Up-Time : 58 days, 2:56:26.48","type":"ESR","status":"1","hoto":"1"},{"lat":"22.574","lng":"88.0435","name":"AMTTAMTTESR002","address":"Sap : I-WB-AMTT-ENB-6001<br\/>Loopback : 172.23.254.92<br\/>Up-Time : 16 days, 21:44:46.37","type":"ESR","status":"1","hoto":"1"},{"lat":"22.5646","lng":"87.9313","name":"ANGBANGBESR001","address":"Sap : I-WB-ANGB-ENB-6000<br\/>Loopback : 172.23.71.105<br\/> ","type":"ESR","status":"0","hoto":"1"},{"lat":"23.5433","lng":"87.7206","name":"ASGMASGMESR002","address":"Sap : I-WB-ASGM-ENB-9003<br\/>Loopback : 172.23.255.220<br\/>Up-Time : 6 days, 18:17:18.47","type":"ESR","status":"1","hoto":"1"},{"lat":"23.459","lng":"87.7412","name":"ASGMASGMESR004","address":"Sap : I-WB-ASGM-ENB-9005<br\/>Loopback : 172.23.71.148<br\/>Up-Time : 11 days, 16:30:10.04","type":"ESR","status":"1","hoto":"1"},{"lat":"23.4011","lng":"87.7483","name":"ASGMASGMESR005","address":"Sap : I-WB-ASGM-ENB-B001<br\/>Loopback : 172.23.71.201<br\/>Up-Time : 27 days, 7:25:20.94","type":"ESR","status":"1","hoto":"1"},{"lat":"23.432","lng":"87.4865","name":"ASGOASGOESR002","address":"Sap : I-WB-ASGO-ENB-6003<br\/>Loopback : 172.23.252.135<br\/>Up-Time : 11 days, 20:39:44.27","type":"ESR","status":"1","hoto":"1"},{"lat":"23.4575","lng":"87.4809","name":"ASGOASGOESR006","address":"Sap : I-WB-ASGO-ENB-I001<br\/>Loopback : 172.23.253.54<br\/>Up-Time : 44 days, 14:35:31.85","type":"ESR","status":"1","hoto":"1"},{"lat":"23.7046","lng":"86.9664","name":"ASSLVNGRPAR002","address":"Sap : I-WB-ASSL-AG2-0001<br\/>Loopback : 172.16.58.6<br\/>Up-Time : 66 days, 3:02:58.38","type":"PAR","status":"1","hoto":"1"},{"lat":"23.6823","lng":"86.9578","name":"ASSLVNGRPAR001","address":"Sap : I-WB-ASSL-ENB-0001<br\/>Loopback : 172.16.58.5<br\/>Up-Time : 57 days, 23:24:01.21","type":"PAR","status":"1","hoto":"1"},{"lat":"23.6823","lng":"86.9578","name":"ASSLBDHAPAR001","address":"Sap : I-WB-ASSL-ENB-0001<br\/>Loopback : 172.16.58.176<br\/>Up-Time : 32 days, 6:20:23.99","type":"PAR","status":"1","hoto":"1"},{"lat":"23.6888","lng":"86.9545","name":"ASSLMGHSESR003","address":"Sap : I-WB-ASSL-ENB-0005<br\/>Loopback : 172.23.69.18<br\/>Up-Time : 45 days, 15:24:40.20","type":"ESR","status":"1","hoto":"1"},{"lat":"23.6802","lng":"86.9532","name":"ASSLNRSGESR001","address":"Sap : I-WB-ASSL-ENB-0006<br\/>Loopback : 172.23.67.177<br\/>Up-Time : 62 days, 1:39:54.11","type":"ESR","status":"1","hoto":"1"},{"lat":"23.6839","lng":"86.9494","name":"ASSLCHLDESR002","address":"Sap : I-WB-ASSL-ENB-0007<br\/>Loopback : 172.23.67.241<br\/>Up-Time : 1 day, 20:25:25.39","type":"ESR","status":"1","hoto":"1"},{"lat":"23.6802","lng":"86.946","name":"ASSLNRSGPAR001","address":"Sap : I-WB-ASSL-ENB-0008<br\/>Loopback : 172.16.58.120<br\/>Up-Time : ","type":"PAR","status":"1","hoto":"1"},{"lat":"23.6696","lng":"86.9434","name":"ASSLBRNPESR003","address":"Sap : I-WB-ASSL-ENB-0010<br\/>Loopback : 172.23.70.64<br\/>Up-Time : 9 days, 15:10:45.15","type":"ESR","status":"1","hoto":"1"},{"lat":"23.6722","lng":"86.9497","name":"ASSLBRNPPAR001","address":"Sap : I-WB-ASSL-ENB-0011<br\/>Loopback : 172.16.58.123<br\/>Up-Time : 67 days, 15:42:19.44","type":"PAR","status":"1","hoto":"1"},{"lat":"23.6732","lng":"86.9566","name":"ASSLSMMSESR001","address":"Sap : I-WB-ASSL-ENB-0012<br\/>Loopback : 172.23.67.229<br\/>Up-Time : 10 days, 16:01:32.47","type":"ESR","status":"1","hoto":"1"},{"lat":"23.6941","lng":"86.9302","name":"ASSLNYBTESR001","address":"Sap : I-WB-ASSL-ENB-0016<br\/>Loopback : 172.23.67.228<br\/>Up-Time : 39 days, 10:00:02.92","type":"ESR","status":"1","hoto":"1"},{"lat":"23.677","lng":"86.9448","name":"ASSLNRSGESR003","address":"Sap : I-WB-ASSL-ENB-0019<br\/>Loopback : 172.23.68.111<br\/>Up-Time : 9 days, 14:26:48.88","type":"ESR","status":"1","hoto":"1"},{"lat":"23.687","lng":"86.9209","name":"ASSLCHDGESR001","address":"Sap : I-WB-ASSL-ENB-0021<br\/>Loopback : 172.23.70.8<br\/>Up-Time : 46 days, 2:32:54.78","type":"ESR","status":"1","hoto":"1"},{"lat":"23.6974","lng":"86.9425","name":"ASSLKMRPPAR001","address":"Sap : I-WB-ASSL-ENB-0022<br\/>Loopback : 172.16.58.118<br\/>Up-Time : 14 days, 21:25:44.56","type":"PAR","status":"1","hoto":"1"},{"lat":"23.6781","lng":"86.9601","name":"ASSLPTCLESR001","address":"Sap : I-WB-ASSL-ENB-0024<br\/>Loopback : 172.23.67.231<br\/>Up-Time : 50 days, 17:25:51.99","type":"ESR","status":"1","hoto":"1"},{"lat":"23.6816","lng":"86.9689","name":"ASSLATWLESR001","address":"Sap : I-WB-ASSL-ENB-0026<br\/>Loopback : 172.23.67.187<br\/>Up-Time : 60 days, 5:47:34.55","type":"ESR","status":"1","hoto":"1"},{"lat":"23.6813","lng":"86.9732","name":"ASSLBSTNESR002","address":"Sap : I-WB-ASSL-ENB-0028<br\/>Loopback : 172.23.67.176<br\/>Up-Time : 3 days, 12:45:09.79","type":"ESR","status":"1","hoto":"1"},{"lat":"23.6755","lng":"86.9695","name":"ASSLHMDNESR002","address":"Sap : I-WB-ASSL-ENB-0029<br\/>Loopback : 172.23.69.24<br\/> ","type":"ESR","status":"0","hoto":"1"},{"lat":"23.6846","lng":"86.9696","name":"ASSLPTHKPAR001","address":"Sap : I-WB-ASSL-ENB-0031<br\/>Loopback : 172.16.58.175<br\/>Up-Time : 69 days, 23:24:43.84","type":"PAR","status":"1","hoto":"1"},{"lat":"23.6836","lng":"86.9737","name":"ASSLPTHKPAR003","address":"Sap : I-WB-ASSL-ENB-0033<br\/>Loopback : 172.16.96.16<br\/>Up-Time : 58 days, 4:53:03.50","type":"PAR","status":"1","hoto":"1"},{"lat":"23.6769","lng":"86.9772","name":"ASSLRPRBESR002","address":"Sap : I-WB-ASSL-ENB-0035<br\/>Loopback : 172.23.70.7<br\/>Up-Time : 6 days, 13:43:21.47","type":"ESR","status":"1","hoto":"1"},{"lat":"23.6801","lng":"86.9845","name":"ASSLUSHGESR002","address":"Sap : I-WB-ASSL-ENB-0036<br\/>Loopback : 172.23.69.156<br\/>Up-Time : 34 days, 8:14:56.28","type":"ESR","status":"1","hoto":"1"},{"lat":"23.6696","lng":"86.9918","name":"ASSLUSHGPAR001","address":"Sap : I-WB-ASSL-ENB-0040<br\/>Loopback : 172.16.58.121<br\/>Up-Time : 59 days, 11:54:57.17","type":"PAR","status":"1","hoto":"1"},{"lat":"23.6949","lng":"86.9816","name":"ASSLDPURESR001","address":"Sap : I-WB-ASSL-ENB-0045<br\/>Loopback : 172.23.70.69<br\/>Up-Time : 35 days, 16:01:10.10","type":"ESR","status":"1","hoto":"1"},{"lat":"23.6651","lng":"86.9503","name":"ASSLSYMBPAR001","address":"Sap : I-WB-ASSL-ENB-0050<br\/>Loopback : 172.16.96.34<br\/>Up-Time : 18 days, 17:14:34.96","type":"PAR","status":"1","hoto":"1"},{"lat":"23.6612","lng":"86.9465","name":"ASSLKBSTESR001","address":"Sap : I-WB-ASSL-ENB-0053<br\/>Loopback : 172.23.66.79<br\/>Up-Time : 61 days, 5:23:43.39","type":"ESR","status":"1","hoto":"1"},{"lat":"23.6494","lng":"86.9413","name":"ASSLRSTCESR001","address":"Sap : I-WB-ASSL-ENB-0054<br\/>Loopback : 172.23.69.116<br\/>Up-Time : 58 days, 6:48:42.12","type":"ESR","status":"1","hoto":"1"},{"lat":"23.6556","lng":"86.9199","name":"ASSLHSNGESR001","address":"Sap : I-WB-ASSL-ENB-0056<br\/>Loopback : 172.23.69.117<br\/>Up-Time : 1 day, 18:57:08.99","type":"ESR","status":"1","hoto":"1"},{"lat":"23.6942","lng":"86.9696","name":"ASSLRILPESR001","address":"Sap : I-WB-ASSL-ENB-0057<br\/>Loopback : 172.23.69.5<br\/>Up-Time : 6 days, 14:53:38.05","type":"ESR","status":"1","hoto":"1"},{"lat":"23.6941","lng":"86.9749","name":"ASSLJHGRESR001","address":"Sap : I-WB-ASSL-ENB-0058<br\/>Loopback : 172.23.66.63<br\/>Up-Time : 60 days, 5:20:44.66","type":"ESR","status":"1","hoto":"1"},{"lat":"23.695","lng":"86.9558","name":"ASSLUPCRESR001","address":"Sap : I-WB-ASSL-ENB-0061<br\/>Loopback : 172.23.66.82<br\/>Up-Time : 60 days, 2:57:35.52","type":"ESR","status":"1","hoto":"1"},{"lat":"23.6999","lng":"86.9612","name":"ASSLRLPRESR001","address":"Sap : I-WB-ASSL-ENB-0063<br\/>Loopback : 172.23.66.64<br\/>Up-Time : 46 days, 3:04:31.76","type":"ESR","status":"1","hoto":"1"},{"lat":"23.7071","lng":"86.9701","name":"ASSLVKNDESR001","address":"Sap : I-WB-ASSL-ENB-0068<br\/>Loopback : 172.23.67.182<br\/>Up-Time : 44 days, 16:09:58.07","type":"ESR","status":"1","hoto":"1"},{"lat":"23.7031","lng":"86.9627","name":"ASSLVNGRESR002","address":"Sap : I-WB-ASSL-ENB-0071<br\/>Loopback : 172.23.70.51<br\/>Up-Time : 11 days, 15:29:29.02","type":"ESR","status":"1","hoto":"1"},{"lat":"23.7137","lng":"86.9534","name":"ASSLKLYNPAR001","address":"Sap : I-WB-ASSL-ENB-0072<br\/>Loopback : 172.16.58.177<br\/>Up-Time : 68 days, 2:53:22.81","type":"PAR","status":"1","hoto":"1"},{"lat":"23.6892","lng":"86.938","name":"ASSLNCPRPAR001","address":"Sap : I-WB-ASSL-ENB-0077<br\/>Loopback : 172.16.58.119<br\/>Up-Time : 69 days, 23:28:30.67","type":"PAR","status":"1","hoto":"1"},{"lat":"23.6735","lng":"86.9158","name":"BRBNBRBNESR002","address":"Sap : I-WB-ASSL-ENB-0078<br\/>Loopback : 172.23.67.223<br\/>Up-Time : 58 days, 3:51:38.57","type":"ESR","status":"1","hoto":"1"},{"lat":"23.6682","lng":"86.9094","name":"ASSLLISCESR002","address":"Sap : I-WB-ASSL-ENB-0079<br\/>Loopback : 172.23.69.118<br\/>Up-Time : 4 days, 14:56:33.75","type":"ESR","status":"1","hoto":"1"},{"lat":"23.6735","lng":"86.9461","name":"ASSLBRNPESR002","address":"Sap : I-WB-ASSL-ENB-0081<br\/>Loopback : 172.23.70.63<br\/>Up-Time : 41 days, 21:12:48.45","type":"ESR","status":"1","hoto":"1"},{"lat":"23.6798","lng":"87.002","name":"ASSLKHBGPAR001","address":"Sap : I-WB-ASSL-ENB-0084<br\/>Loopback : 172.16.96.5<br\/>Up-Time : 70 days, 2:17:24.96","type":"PAR","status":"1","hoto":"1"},{"lat":"23.6724","lng":"87.0134","name":"ASSLKHBGESR002","address":"Sap : I-WB-ASSL-ENB-0085<br\/>Loopback : 172.23.67.184<br\/>Up-Time : 52 days, 16:50:22.31","type":"ESR","status":"1","hoto":"1"},{"lat":"23.6706","lng":"87.0315","name":"ASSLNIGHESR003","address":"Sap : I-WB-ASSL-ENB-0086<br\/>Loopback : 172.23.67.186<br\/>Up-Time : 58 days, 5:23:00.70","type":"ESR","status":"1","hoto":"1"},{"lat":"23.6528","lng":"87.0344","name":"ASSLRTBIESR001","address":"Sap : I-WB-ASSL-ENB-0087<br\/>Loopback : 172.23.66.66<br\/>Up-Time : 45 days, 17:48:10.45","type":"ESR","status":"1","hoto":"1"},{"lat":"23.6618","lng":"87.0162","name":"ASSLDMRAESR001","address":"Sap : I-WB-ASSL-ENB-0088<br\/>Loopback : 172.23.67.189<br\/>Up-Time : 6 days, 14:02:49.89","type":"ESR","status":"1","hoto":"1"},{"lat":"23.7084","lng":"86.9865","name":"ASSLSRKIPAR001","address":"Sap : I-WB-ASSL-ENB-0089<br\/>Loopback : 172.16.58.174<br\/>Up-Time : ","type":"PAR","status":"1","hoto":"1"},{"lat":"23.688","lng":"87.0364","name":"ASSLNIGHESR001","address":"Sap : I-WB-ASSL-ENB-0090<br\/>Loopback : 172.23.67.190<br\/>Up-Time : 58 days, 4:51:17.93","type":"ESR","status":"1","hoto":"1"},{"lat":"23.6517","lng":"87.0103","name":"ASSLDMRAESR002","address":"Sap : I-WB-ASSL-ENB-0093<br\/>Loopback : 172.23.67.78<br\/>Up-Time : 10 days, 7:12:13.30","type":"ESR","status":"1","hoto":"1"},{"lat":"23.6484","lng":"86.9788","name":"ASSLASSLESR002","address":"Sap : I-WB-ASSL-ENB-0094<br\/>Loopback : 172.23.70.55<br\/>Up-Time : 46 days, 1:36:54.49","type":"ESR","status":"1","hoto":"1"},{"lat":"23.6974","lng":"86.9664","name":"ASSLVNGRESR001","address":"Sap : I-WB-ASSL-ENB-6001<br\/>Loopback : 172.23.67.181<br\/>Up-Time : 46 days, 1:45:58.69","type":"ESR","status":"1","hoto":"1"},{"lat":"23.6901","lng":"86.9582","name":"ASSLMGHSESR001","address":"Sap : I-WB-ASSL-ENB-6002<br\/>Loopback : 172.23.66.72<br\/>Up-Time : 60 days, 3:03:36.65","type":"ESR","status":"1","hoto":"1"},{"lat":"23.7051","lng":"86.9237","name":"ASSLBHCKESR001","address":"Sap : I-WB-ASSL-ENB-6003<br\/>Loopback : 172.23.67.226<br\/> ","type":"ESR","status":"0","hoto":"1"},{"lat":"23.6894","lng":"86.9302","name":"ASSLNYBTESR002","address":"Sap : I-WB-ASSL-ENB-6004<br\/>Loopback : 172.23.67.225<br\/>Up-Time : 37 days, 4:45:11.46","type":"ESR","status":"1","hoto":"1"},{"lat":"23.693","lng":"86.9775","name":"ASSLJHGRESR002","address":"Sap : I-WB-ASSL-ENB-6005<br\/>Loopback : 172.23.67.179<br\/>Up-Time : 46 days, 3:08:14.57","type":"ESR","status":"1","hoto":"1"},{"lat":"23.7121","lng":"86.9677","name":"ASSLGBDPESR001","address":"Sap : I-WB-ASSL-ENB-6006<br\/>Loopback : 172.23.67.180<br\/>Up-Time : 61 days, 5:14:00.58","type":"ESR","status":"1","hoto":"1"},{"lat":"23.6753","lng":"86.9616","name":"ASSLHMDNESR001","address":"Sap : I-WB-ASSL-ENB-6007<br\/>Loopback : 172.23.66.76<br\/>Up-Time : 28 days, 15:34:32.93","type":"ESR","status":"1","hoto":"1"},{"lat":"23.677","lng":"86.9476","name":"ASSLNRSGESR002","address":"Sap : I-WB-ASSL-ENB-6008<br\/>Loopback : 172.23.66.73<br\/>Up-Time : 46 days, 3:20:46.18","type":"ESR","status":"1","hoto":"1"},{"lat":"23.6933","lng":"86.9413","name":"ASSLCPDIESR001","address":"Sap : I-WB-ASSL-ENB-6009<br\/>Loopback : 172.23.67.224<br\/>Up-Time : 12 days, 14:27:26.88","type":"ESR","status":"1","hoto":"1"},{"lat":"23.6863","lng":"86.9705","name":"ASSLPTHKESR002","address":"Sap : I-WB-ASSL-ENB-6011<br\/>Loopback : 172.23.69.210<br\/>Up-Time : 58 days, 4:53:12.11","type":"ESR","status":"1","hoto":"1"},{"lat":"23.657","lng":"86.9464","name":"ASSLTHKRESR001","address":"Sap : I-WB-ASSL-ENB-6012<br\/>Loopback : 172.23.66.81<br\/>Up-Time : 41 days, 21:18:03.80","type":"ESR","status":"1","hoto":"1"},{"lat":"23.6774","lng":"86.9734","name":"ASSLBSTNESR001","address":"Sap : I-WB-ASSL-ENB-6013<br\/>Loopback : 172.23.66.67<br\/>Up-Time : 46 days, 3:15:07.05","type":"ESR","status":"1","hoto":"1"},{"lat":"23.6983","lng":"86.9411","name":"ASSLKMRPESR002","address":"Sap : I-WB-ASSL-ENB-6014<br\/>Loopback : 172.23.66.78<br\/>Up-Time : 60 days, 5:13:35.40","type":"ESR","status":"1","hoto":"1"},{"lat":"23.6852","lng":"86.9553","name":"ASSLMGHSESR002","address":"Sap : I-WB-ASSL-ENB-6015<br\/>Loopback : 172.23.67.238<br\/>Up-Time : 58 days, 10:32:33.73","type":"ESR","status":"1","hoto":"1"},{"lat":"23.6817","lng":"86.9903","name":"ASSLKHBGESR001","address":"Sap : I-WB-ASSL-ENB-6017<br\/>Loopback : 172.23.70.34<br\/>Up-Time : 58 days, 3:46:54.47","type":"ESR","status":"1","hoto":"1"},{"lat":"23.6846","lng":"86.9631","name":"ASSLATWLESR002","address":"Sap : I-WB-ASSL-ENB-6018<br\/>Loopback : 172.23.67.178<br\/>Up-Time : 13 days, 4:21:10.08","type":"ESR","status":"1","hoto":"1"},{"lat":"23.6774","lng":"86.9871","name":"ASSLRPRBESR001","address":"Sap : I-WB-ASSL-ENB-6019<br\/>Loopback : 172.23.66.61<br\/>Up-Time : 58 days, 2:42:45.51","type":"ESR","status":"1","hoto":"1"},{"lat":"23.6933","lng":"86.95","name":"ASSLHDTNESR001","address":"Sap : I-WB-ASSL-ENB-6021<br\/>Loopback : 172.23.67.240<br\/>Up-Time : 12 days, 13:45:10.71","type":"ESR","status":"1","hoto":"1"},{"lat":"23.6914","lng":"86.9219","name":"ASSLGPLRESR001","address":"Sap : I-WB-ASSL-ENB-6023<br\/>Loopback : 172.23.67.227<br\/>Up-Time : 1 day, 15:45:22.69","type":"ESR","status":"1","hoto":"1"},{"lat":"23.6852","lng":"86.9779","name":"ASSLRLWYESR001","address":"Sap : I-WB-ASSL-ENB-6024<br\/>Loopback : 172.23.67.230<br\/>Up-Time : 56 days, 12:16:45.76","type":"ESR","status":"1","hoto":"1"},{"lat":"23.6795","lng":"86.999","name":"ASSLKHBGESR003","address":"Sap : I-WB-ASSL-ENB-6025<br\/>Loopback : 172.23.67.185<br\/>Up-Time : 58 days, 5:25:47.89","type":"ESR","status":"1","hoto":"1"},{"lat":"23.662","lng":"86.9265","name":"ASSLBRNPESR001","address":"Sap : I-WB-ASSL-ENB-6027<br\/>Loopback : 172.23.69.115<br\/> ","type":"ESR","status":"0","hoto":"1"},{"lat":"23.7014","lng":"87.0276","name":"ASSLNIGHESR002","address":"Sap : I-WB-ASSL-ENB-A001<br\/>Loopback : 172.23.67.191<br\/>Up-Time : 41 days, 21:04:14.48","type":"ESR","status":"1","hoto":"1"},{"lat":"23.6965","lng":"86.9496","name":"ASSLUKGDESR001","address":"Sap : I-WB-ASSL-ENB-B001<br\/>Loopback : 172.23.69.4<br\/>Up-Time : 27 days, 14:33:40.10","type":"ESR","status":"1","hoto":"1"},{"lat":"23.6628","lng":"86.9382","name":"ASSLTHKRESR002","address":"Sap : I-WB-ASSL-ENB-B002<br\/>Loopback : 172.23.69.71<br\/>Up-Time : 4:23:50.02","type":"ESR","status":"1","hoto":"1"},{"lat":"23.7024","lng":"86.9811","name":"ASSLDHDKESR001","address":"Sap : I-WB-ASSL-ENB-B003<br\/>Loopback : 172.23.66.62<br\/>Up-Time : 16:46:01.43","type":"ESR","status":"1","hoto":"1"},{"lat":"23.6724","lng":"86.9541","name":"ASSLSMMSESR002","address":"Sap : I-WB-ASSL-ENB-G001<br\/>Loopback : 172.23.66.126<br\/>Up-Time : 11 days, 18:51:09.26","type":"ESR","status":"1","hoto":"1"},{"lat":"23.6936","lng":"86.9919","name":"ASSLGPLGESR001","address":"Sap : I-WB-ASSL-ENB-I001<br\/>Loopback : 172.23.69.110<br\/>Up-Time : 33 days, 13:42:08.44","type":"ESR","status":"1","hoto":"1"},{"lat":"23.6354","lng":"86.9736","name":"BRBNBRBNESR018","address":"Sap : I-WB-ASSL-ENB-I002<br\/>Loopback : 172.23.68.236<br\/>Up-Time : 24 days, 2:43:31.52","type":"ESR","status":"1","hoto":"1"},{"lat":"23.6868","lng":"86.9528","name":"ASSLCHLDESR003","address":"Sap : I-WB-ASSL-ENB-I003<br\/>Loopback : 172.23.66.125<br\/>Up-Time : 44 days, 11:39:03.51","type":"ESR","status":"1","hoto":"1"},{"lat":"23.6777","lng":"86.9533","name":"ASSLNRSGESR004","address":"Sap : I-WB-ASSL-ENB-I004<br\/>Loopback : 172.23.65.189<br\/>Up-Time : 33 days, 9:20:34.33","type":"ESR","status":"1","hoto":"1"},{"lat":"23.7014","lng":"86.9532","name":"ASSLKLYPESR001","address":"Sap : I-WB-ASSL-ENB-I005<br\/>Loopback : 172.23.66.237<br\/>Up-Time : 60 days, 5:50:57.53","type":"ESR","status":"1","hoto":"1"},{"lat":"23.6889","lng":"86.9868","name":"ASSLGPLGESR002","address":"Sap : I-WB-ASSL-ENB-I006<br\/>Loopback : 172.23.70.68<br\/>Up-Time : 19 days, 10:07:11.62","type":"ESR","status":"1","hoto":"1"},{"lat":"23.6848","lng":"87.0011","name":"ASSLBKDGESR001","address":"Sap : I-WB-ASSL-ENB-V001<br\/>Loopback : 172.23.67.192<br\/> ","type":"ESR","status":"0","hoto":"1"},{"lat":"23.6837","lng":"86.9402","name":"ASSLANSLESR001","address":"Sap : I-WB-ASSL-ENB-V003<br\/>Loopback : 172.23.66.77<br\/>Up-Time : 58 days, 5:23:06.21","type":"ESR","status":"1","hoto":"1"},{"lat":"23.7018","lng":"86.9318","name":"ASSLGPLPESR001","address":"Sap : I-WB-ASSL-ENB-V005<br\/>Loopback : 172.23.69.47<br\/>Up-Time : 46 days, 3:38:59.94","type":"ESR","status":"1","hoto":"1"},{"lat":"23.6838","lng":"86.9326","name":"ASSLLISCESR001","address":"Sap : I-WB-ASSL-ENB-V006<br\/>Loopback : 172.23.65.123<br\/>Up-Time : 62 days, 2:45:56.23","type":"ESR","status":"1","hoto":"1"},{"lat":"23.6642","lng":"86.9627","name":"ASSLAZDNESR002","address":"Sap : I-WB-ASSL-ENB-V007<br\/>Loopback : 172.23.70.53<br\/>Up-Time : 46 days, 3:16:42.21","type":"ESR","status":"1","hoto":"1"},{"lat":"23.6739","lng":"86.9749","name":"ASSLSHPRESR002","address":"Sap : I-WB-ASSL-ENB-V008<br\/>Loopback : 172.23.66.57<br\/>Up-Time : 13 days, 11:09:28.22","type":"ESR","status":"1","hoto":"1"},{"lat":"23.6754","lng":"86.9919","name":"ASSLUSHGESR001","address":"Sap : I-WB-ASSL-ENB-W002<br\/>Loopback : 172.23.66.60<br\/>Up-Time : 58 days, 5:23:58.03","type":"ESR","status":"1","hoto":"1"},{"lat":"23.6704","lng":"86.9687","name":"ASSLAZDNESR001","address":"Sap : I-WB-ASSL-ENB-W003<br\/>Loopback : 172.23.66.68<br\/>Up-Time : 46 days, 3:13:27.61","type":"ESR","status":"1","hoto":"1"},{"lat":"23.683","lng":"86.9828","name":"ASSLGCTHESR001","address":"Sap : I-WB-ASSL-ENB-W004<br\/>Loopback : 172.23.69.211<br\/>Up-Time : 58 days, 4:52:15.96","type":"ESR","status":"1","hoto":"1"},{"lat":"23.6978","lng":"86.9723","name":"ASSLSTDGESR001","address":"Sap : I-WB-ASSL-ENB-W005<br\/>Loopback : 172.23.69.85<br\/>Up-Time : 32 days, 12:30:40.84","type":"ESR","status":"1","hoto":"1"},{"lat":"22.7356","lng":"88.7856","name":"BADUBADUESR001","address":"Sap : I-WB-BADU-ENB-6002<br\/>Loopback : 172.23.250.3<br\/>Up-Time : 40 days, 1:18:59.00","type":"ESR","status":"1","hoto":"1"},{"lat":"22.7989","lng":"88.802","name":"BADUBADUESR004","address":"Sap : I-WB-BADU-ENB-6003<br\/>Loopback : 172.23.252.122<br\/>Up-Time : 26 days, 13:54:37.61","type":"ESR","status":"1","hoto":"1"},{"lat":"22.7331","lng":"88.8254","name":"BADUBADUESR003","address":"Sap : I-WB-BADU-ENB-6006<br\/>Loopback : 172.23.255.128<br\/>Up-Time : 46 days, 2:54:02.82","type":"ESR","status":"1","hoto":"1"},{"lat":"22.7649","lng":"88.7741","name":"BADUBADUESR006","address":"Sap : I-WB-BADU-ENB-I001<br\/>Loopback : 172.23.251.238<br\/>Up-Time : 61 days, 5:18:35.61","type":"ESR","status":"1","hoto":"1"},{"lat":"22.8214","lng":"88.7902","name":"BADUBADUESR005","address":"Sap : I-WB-BADU-ENB-I002<br\/>Loopback : 172.23.246.66<br\/>Up-Time : 3 days, 20:14:13.00","type":"ESR","status":"1","hoto":"1"},{"lat":"23.3176","lng":"87.2218","name":"NTIANTIAESR001","address":"Sap : I-WB-BARJ-ENB-6000<br\/>Loopback : 172.23.94.217<br\/>Up-Time : 4 days, 17:55:53.51","type":"ESR","status":"1","hoto":"1"},{"lat":"23.4259","lng":"87.284","name":"BARJBARJESR002","address":"Sap : I-WB-BARJ-ENB-6001<br\/>Loopback : 172.23.255.92<br\/>Up-Time : 46 days, 1:59:34.62","type":"ESR","status":"1","hoto":"1"},{"lat":"23.3248","lng":"87.3142","name":"BARJBARJESR001","address":"Sap : I-WB-BARJ-ENB-6002<br\/>Loopback : 172.23.94.218<br\/>Up-Time : 32 days, 13:43:44.50","type":"ESR","status":"1","hoto":"1"},{"lat":"23.4753","lng":"87.2225","name":"BARJBARJESR003","address":"Sap : I-WB-BARJ-ENB-6003<br\/>Loopback : 172.23.255.86<br\/>Up-Time : 46 days, 3:46:09.59","type":"ESR","status":"1","hoto":"1"},{"lat":"23.4082","lng":"87.9753","name":"BATRBATRESR002","address":"Sap : I-WB-BATR-ENB-6001<br\/>Loopback : 172.23.255.25<br\/>Up-Time : 46 days, 1:52:11.15","type":"ESR","status":"1","hoto":"1"},{"lat":"23.4044","lng":"87.9272","name":"BATRBATRPAR001","address":"Sap : I-WB-BATR-ENB-6002<br\/>Loopback : 172.16.77.134<br\/>Up-Time : 41 days, 16:52:35.45","type":"PAR","status":"1","hoto":"1"},{"lat":"23.4044","lng":"87.9272","name":"BATRBATRESR001","address":"Sap : I-WB-BATR-ENB-6003<br\/>Loopback : 172.23.255.145<br\/>Up-Time : 12 days, 16:18:52.02","type":"ESR","status":"1","hoto":"1"},{"lat":"23.4604","lng":"87.91","name":"BATRBATRESR003","address":"Sap : I-WB-BATR-ENB-6004<br\/>Loopback : 172.23.255.118<br\/>Up-Time : 14 days, 14:28:48.63","type":"ESR","status":"1","hoto":"1"},{"lat":"23.4376","lng":"87.7618","name":"BATRBATRESR004","address":"Sap : I-WB-BATR-ENB-6006<br\/>Loopback : 172.23.69.207<br\/>Up-Time : 1 day, 11:42:27.67","type":"ESR","status":"1","hoto":"1"},{"lat":"23.4376","lng":"87.7451","name":"ASGMASGMESR001","address":"Sap : I-WB-BATR-ENB-9005<br\/>Loopback : 172.23.70.70<br\/>Up-Time : 45 days, 20:52:37.70","type":"ESR","status":"1","hoto":"1"},{"lat":"23.4153","lng":"88.0165","name":"BATRBATRESR006","address":"Sap : I-WB-BATR-ENB-I001<br\/>Loopback : 172.23.255.144<br\/>Up-Time : 37 days, 11:29:39.70","type":"ESR","status":"1","hoto":"1"},{"lat":"23.4592","lng":"87.9476","name":"BATRBATRESR005","address":"Sap : I-WB-BATR-ENB-V001<br\/>Loopback : 172.23.255.219<br\/>Up-Time : 39 days, 2:26:56.88","type":"ESR","status":"1","hoto":"1"},{"lat":"24.0487","lng":"88.2454","name":"BAURBRGHESR001","address":"Sap : I-WB-BAUR-ENB-0018<br\/>Loopback : 172.23.69.153<br\/>Up-Time : 19 days, 16:42:57.12","type":"ESR","status":"1","hoto":"1"},{"lat":"24.0792","lng":"88.2514","name":"BAURGRBHESR001","address":"Sap : I-WB-BAUR-ENB-6003<br\/>Loopback : 172.23.71.60<br\/> ","type":"ESR","status":"0","hoto":"1"},{"lat":"24.1443","lng":"88.3021","name":"BAURAYBGESR001","address":"Sap : I-WB-BAUR-ENB-V009<br\/>Loopback : 172.23.71.178<br\/>Up-Time : 32 days, 15:11:42.48","type":"ESR","status":"1","hoto":"1"},{"lat":"23.282","lng":"87.8779","name":"BCRDNRDIESR001","address":"Sap : I-WB-BCRD-ENB-6000<br\/>Loopback : 172.23.247.177<br\/>Up-Time : 41 days, 21:23:51.07","type":"ESR","status":"1","hoto":"1"},{"lat":"23.2215","lng":"87.852","name":"BRDNTLPMPAR001","address":"Sap : I-WB-BDDM-AG2-0001<br\/>Loopback : 172.16.76.22<br\/>Up-Time : 41 days, 2:36:39.11","type":"PAR","status":"1","hoto":"1"},{"lat":"23.2444","lng":"87.836","name":"BRDNSLPRPAR001","address":"Sap : I-WB-BDDM-ENB-0001<br\/>Loopback : 172.16.77.59<br\/>Up-Time : 17:00:53.57","type":"PAR","status":"1","hoto":"1"},{"lat":"23.2373","lng":"87.8266","name":"BRDNUDYPESR001","address":"Sap : I-WB-BDDM-ENB-0002<br\/>Loopback : 172.23.243.193<br\/>Up-Time : 56 days, 5:57:46.31","type":"ESR","status":"1","hoto":"1"},{"lat":"23.2306","lng":"87.8774","name":"BRDNICBDESR001","address":"Sap : I-WB-BDDM-ENB-0003<br\/>Loopback : 172.23.243.235<br\/>Up-Time : 16 days, 19:05:23.54","type":"ESR","status":"1","hoto":"1"},{"lat":"23.2456","lng":"87.8555","name":"BRDNRJBTESR002","address":"Sap : I-WB-BDDM-ENB-0004<br\/>Loopback : 172.23.240.85<br\/>Up-Time : 46 days, 10:56:38.71","type":"ESR","status":"1","hoto":"1"},{"lat":"23.2394","lng":"87.8587","name":"BRDNRDHNESR001","address":"Sap : I-WB-BDDM-ENB-0005<br\/>Loopback : 172.23.243.194<br\/>Up-Time : 19 days, 15:31:46.80","type":"ESR","status":"1","hoto":"1"},{"lat":"23.2366","lng":"87.8624","name":"BRDNMRBIESR001","address":"Sap : I-WB-BDDM-ENB-0007<br\/>Loopback : 172.23.243.184<br\/>Up-Time : 27 days, 12:23:36.98","type":"ESR","status":"1","hoto":"1"},{"lat":"23.2401","lng":"87.8671","name":"BRDNSBHYPAR001","address":"Sap : I-WB-BDDM-ENB-0008<br\/>Loopback : 172.16.77.58<br\/>Up-Time : ","type":"PAR","status":"1","hoto":"1"},{"lat":"23.2357","lng":"87.8537","name":"BDDMSKPRESR001","address":"Sap : I-WB-BDDM-ENB-0010<br\/>Loopback : 172.23.253.197<br\/>Up-Time : 1 day, 20:33:43.26","type":"ESR","status":"1","hoto":"1"},{"lat":"23.2332","lng":"87.8521","name":"BRDNSKPRESR002","address":"Sap : I-WB-BDDM-ENB-0012<br\/>Loopback : 172.23.243.185<br\/>Up-Time : 3 days, 14:34:43.90","type":"ESR","status":"1","hoto":"1"},{"lat":"23.2331","lng":"87.8639","name":"BRDNBREPPAR001","address":"Sap : I-WB-BDDM-ENB-0014<br\/>Loopback : 172.16.77.54<br\/>Up-Time : ","type":"PAR","status":"1","hoto":"1"},{"lat":"23.2388","lng":"87.8695","name":"BDDMKRZGESR001","address":"Sap : I-WB-BDDM-ENB-0015<br\/>Loopback : 172.23.254.140<br\/>Up-Time : 17 days, 16:05:32.14","type":"ESR","status":"1","hoto":"1"},{"lat":"23.2428","lng":"87.8691","name":"BDDMKHBLESR001","address":"Sap : I-WB-BDDM-ENB-0016<br\/>Loopback : 172.23.250.244<br\/>Up-Time : 22 days, 14:09:42.44","type":"ESR","status":"1","hoto":"1"},{"lat":"23.2379","lng":"87.8767","name":"BRDNNTPYESR001","address":"Sap : I-WB-BDDM-ENB-0017<br\/>Loopback : 172.23.243.230<br\/>Up-Time : 56 days, 5:58:48.86","type":"ESR","status":"1","hoto":"1"},{"lat":"23.2232","lng":"87.8585","name":"BDDMCHTRESR001","address":"Sap : I-WB-BDDM-ENB-0018<br\/>Loopback : 172.23.255.43<br\/>Up-Time : 46 days, 3:53:38.90","type":"ESR","status":"1","hoto":"1"},{"lat":"23.2291","lng":"87.8691","name":"BDDMAKBRESR001","address":"Sap : I-WB-BDDM-ENB-0020<br\/>Loopback : 172.23.252.37<br\/>Up-Time : 3 days, 20:53:58.48","type":"ESR","status":"1","hoto":"1"},{"lat":"23.2357","lng":"87.8815","name":"BRDNDSBDPAR001","address":"Sap : I-WB-BDDM-ENB-0021<br\/>Loopback : 172.16.77.55<br\/>Up-Time : 70 days, 1:53:38.13","type":"PAR","status":"1","hoto":"1"},{"lat":"23.2171","lng":"87.8632","name":"BRDNSURJESR001","address":"Sap : I-WB-BDDM-ENB-0023<br\/>Loopback : 172.23.243.244<br\/>Up-Time : 56 days, 5:54:32.46","type":"ESR","status":"1","hoto":"1"},{"lat":"23.2172","lng":"87.8724","name":"BDDMSRPTESR001","address":"Sap : I-WB-BDDM-ENB-0024<br\/>Loopback : 172.23.253.211<br\/>Up-Time : 32 days, 12:11:51.46","type":"ESR","status":"1","hoto":"1"},{"lat":"23.2444","lng":"87.8818","name":"BDDMBDDMESR002","address":"Sap : I-WB-BDDM-ENB-0027<br\/>Loopback : 172.23.250.247<br\/>Up-Time : 61 days, 1:49:20.49","type":"ESR","status":"1","hoto":"1"},{"lat":"23.2515","lng":"87.8644","name":"BDDMPNJBESR001","address":"Sap : I-WB-BDDM-ENB-0028<br\/>Loopback : 172.23.251.126<br\/>Up-Time : ","type":"ESR","status":"1","hoto":"1"},{"lat":"23.2584","lng":"87.8627","name":"BDDMLXMPESR001","address":"Sap : I-WB-BDDM-ENB-0029<br\/>Loopback : 172.23.252.157<br\/>Up-Time : 25 days, 12:31:42.68","type":"ESR","status":"1","hoto":"1"},{"lat":"23.2556","lng":"87.8742","name":"BDDMRLYQESR001","address":"Sap : I-WB-BDDM-ENB-0032<br\/>Loopback : 172.23.250.248<br\/>Up-Time : 61 days, 0:54:37.02","type":"ESR","status":"1","hoto":"1"},{"lat":"23.2709","lng":"87.8761","name":"BRDNDSPRESR001","address":"Sap : I-WB-BDDM-ENB-0034<br\/>Loopback : 172.23.254.77<br\/>Up-Time : 56 days, 3:35:36.05","type":"ESR","status":"1","hoto":"1"},{"lat":"23.2192","lng":"87.8561","name":"BRDNSRPLESR001","address":"Sap : I-WB-BDDM-ENB-0037<br\/>Loopback : 172.23.243.246<br\/>Up-Time : 41 days, 11:47:27.91","type":"ESR","status":"1","hoto":"1"},{"lat":"23.2331","lng":"87.8423","name":"BRDNARBGESR001","address":"Sap : I-WB-BDDM-ENB-0039<br\/>Loopback : 172.23.243.186<br\/>Up-Time : 56 days, 6:01:46.66","type":"ESR","status":"1","hoto":"1"},{"lat":"23.2395","lng":"87.8338","name":"BDDMSLPKESR001","address":"Sap : I-WB-BDDM-ENB-0040<br\/>Loopback : 172.23.244.252<br\/>Up-Time : 56 days, 2:02:40.58","type":"ESR","status":"1","hoto":"1"},{"lat":"23.2396","lng":"87.8404","name":"BDDMNTNGESR001","address":"Sap : I-WB-BDDM-ENB-0041<br\/>Loopback : 172.23.250.245<br\/>Up-Time : 56 days, 4:55:44.74","type":"ESR","status":"1","hoto":"1"},{"lat":"23.2498","lng":"87.84","name":"BRDNSUBPESR001","address":"Sap : I-WB-BDDM-ENB-0042<br\/>Loopback : 172.23.243.190<br\/>Up-Time : 54 days, 16:34:35.60","type":"ESR","status":"1","hoto":"1"},{"lat":"23.2497","lng":"87.8815","name":"BRDNRWYLESR001","address":"Sap : I-WB-BDDM-ENB-0044<br\/>Loopback : 172.23.243.237<br\/>Up-Time : 61 days, 2:03:43.01","type":"ESR","status":"1","hoto":"1"},{"lat":"23.2532","lng":"87.8577","name":"BDDMSBHPESR001","address":"Sap : I-WB-BDDM-ENB-0064<br\/>Loopback : 172.23.252.159<br\/>Up-Time : 13 days, 19:20:26.47","type":"ESR","status":"1","hoto":"1"},{"lat":"23.225","lng":"87.88","name":"BRDNPRBCESR001","address":"Sap : I-WB-BDDM-ENB-A001<br\/>Loopback : 172.23.243.245<br\/>Up-Time : 56 days, 14:35:11.36","type":"ESR","status":"1","hoto":"1"},{"lat":"23.2592","lng":"87.8519","name":"BDDMBDDMESR001","address":"Sap : I-WB-BDDM-ENB-A002<br\/>Loopback : 172.23.251.80<br\/>Up-Time : 34 days, 11:59:45.34","type":"ESR","status":"1","hoto":"1"},{"lat":"23.2565","lng":"87.846","name":"BDDMGPLBESR001","address":"Sap : I-WB-BDDM-ENB-B002<br\/>Loopback : 172.23.251.81<br\/>Up-Time : 26 days, 11:01:01.53","type":"ESR","status":"1","hoto":"1"},{"lat":"23.2486","lng":"87.8735","name":"BDDMBDMTESR001","address":"Sap : I-WB-BDDM-ENB-B004<br\/>Loopback : 172.23.251.79<br\/>Up-Time : 16 days, 13:46:24.02","type":"ESR","status":"1","hoto":"1"},{"lat":"23.2416","lng":"87.8513","name":"BRDNRJBTESR001","address":"Sap : I-WB-BDDM-ENB-V001<br\/>Loopback : 172.23.243.183<br\/>Up-Time : 21 days, 12:55:22.02","type":"ESR","status":"1","hoto":"1"},{"lat":"23.2195","lng":"87.8845","name":"BRDNNTJPESR001","address":"Sap : I-WB-BDDM-ENB-V002<br\/>Loopback : 172.23.240.90<br\/>Up-Time : 157 days, 11:45:12.52","type":"ESR","status":"1","hoto":"1"},{"lat":"23.7822","lng":"88.5462","name":"THTTTHTTESR006","address":"Sap : I-WB-BETA-ENB-6000<br\/>Loopback : 172.23.66.113<br\/>Up-Time : 46 days, 13:35:48.74","type":"ESR","status":"1","hoto":"1"},{"lat":"22.5031","lng":"88.6171","name":"BGARBGARESR002","address":"Sap : I-WB-BGAR-ENB-6002<br\/>Loopback : 172.23.255.234<br\/>Up-Time : 4 days, 14:16:34.04","type":"ESR","status":"1","hoto":"1"},{"lat":"22.4227","lng":"88.6145","name":"BGARBGARESR003","address":"Sap : I-WB-BGAR-ENB-6003<br\/>Loopback : 172.23.232.4<br\/>Up-Time : 56 days, 6:03:05.87","type":"ESR","status":"1","hoto":"1"},{"lat":"23.2105","lng":"88.7649","name":"BGDABGDAESR005","address":"Sap : I-WB-BGDA-ENB-6001<br\/>Loopback : 172.23.254.198<br\/>Up-Time : 36 days, 4:59:23.04","type":"ESR","status":"1","hoto":"1"},{"lat":"23.185","lng":"88.8525","name":"BGDABGDAESR001","address":"Sap : I-WB-BGDA-ENB-6002<br\/>Loopback : 172.23.255.35<br\/>Up-Time : 42 days, 15:29:37.46","type":"ESR","status":"1","hoto":"1"},{"lat":"23.1852","lng":"88.7701","name":"BGDABGDAESR004","address":"Sap : I-WB-BGDA-ENB-6003<br\/>Loopback : 172.23.254.199<br\/>Up-Time : 15 days, 8:13:45.87","type":"ESR","status":"1","hoto":"1"},{"lat":"22.4666","lng":"87.9638","name":"KLKTCKMLESR002","address":"Sap : I-WB-BGNN-ENB-6000<br\/>Loopback : 172.23.254.88<br\/>Up-Time : 35 days, 17:00:11.02","type":"ESR","status":"1","hoto":"1"},{"lat":"22.4996","lng":"87.9238","name":"BGNNBGNNESR004","address":"Sap : I-WB-BGNN-ENB-6002<br\/>Loopback : 172.23.252.129<br\/>Up-Time : 39 days, 12:17:46.72","type":"ESR","status":"1","hoto":"1"},{"lat":"22.4849","lng":"87.9126","name":"BGNNBGNNESR002","address":"Sap : I-WB-BGNN-ENB-6003<br\/>Loopback : 172.23.252.149<br\/>Up-Time : 49 days, 13:24:03.78","type":"ESR","status":"1","hoto":"1"},{"lat":"22.5078","lng":"87.9509","name":"BGNNBGNNESR005","address":"Sap : I-WB-BGNN-ENB-6004<br\/>Loopback : 172.23.252.131<br\/>Up-Time : 48 days, 10:34:16.99","type":"ESR","status":"1","hoto":"1"},{"lat":"22.5196","lng":"88.0195","name":"BGNNBGNNESR001","address":"Sap : I-WB-BGNN-ENB-6005<br\/>Loopback : 172.23.255.182<br\/>Up-Time : 25 days, 18:57:31.70","type":"ESR","status":"1","hoto":"1"},{"lat":"22.4065","lng":"87.9519","name":"BGNOBGNOESR002","address":"Sap : I-WB-BGNO-ENB-6000<br\/>Loopback : 172.23.255.95<br\/>Up-Time : 51 days, 3:32:23.05","type":"ESR","status":"1","hoto":"1"},{"lat":"22.4536","lng":"87.9125","name":"BGNOBGNOESR001","address":"Sap : I-WB-BGNO-ENB-6001<br\/>Loopback : 172.23.252.138<br\/>Up-Time : 10 days, 22:23:46.51","type":"ESR","status":"1","hoto":"1"},{"lat":"22.4663","lng":"87.9093","name":"BGNOBGNOESR003","address":"Sap : I-WB-BGNO-ENB-6002<br\/>Loopback : 172.23.252.128<br\/>Up-Time : 43 days, 22:34:58.36","type":"ESR","status":"1","hoto":"1"},{"lat":"22.1481","lng":"87.7501","name":"PSKUPSKUESR004","address":"Sap : I-WB-BGWA-ENB-6002<br\/>Loopback : 172.23.255.210<br\/>Up-Time : 7 days, 23:51:00.57","type":"ESR","status":"1","hoto":"1"},{"lat":"21.9996","lng":"87.6712","name":"HRIAHRIAESR002","address":"Sap : I-WB-BGWO-ENB-6000<br\/>Loopback : 172.23.232.73<br\/>Up-Time : 26 days, 19:27:09.30","type":"ESR","status":"1","hoto":"1"},{"lat":"23.8319","lng":"87.4655","name":"BKRWBKRWESR001","address":"Sap : I-WB-BKRW-ENB-6000<br\/>Loopback : 172.23.67.8<br\/>Up-Time : 61 days, 2:29:27.09","type":"ESR","status":"1","hoto":"1"},{"lat":"26.591","lng":"88.59","name":"BLCBBLCBESR003","address":"Sap : I-WB-BLCB-ENB-6000<br\/>Loopback : 172.23.65.226<br\/>Up-Time : 35 days, 7:25:48.54","type":"ESR","status":"1","hoto":"1"},{"lat":"26.5849","lng":"88.5861","name":"BLCBBLCBESR002","address":"Sap : I-WB-BLCB-ENB-6001<br\/>Loopback : 172.23.71.181<br\/>Up-Time : 22 days, 8:30:32.16","type":"ESR","status":"1","hoto":"1"},{"lat":"26.5833","lng":"88.595","name":"BLCBBLCBESR001","address":"Sap : I-WB-BLCB-ENB-6002<br\/>Loopback : 172.23.66.161<br\/>Up-Time : 27 days, 15:11:27.11","type":"ESR","status":"1","hoto":"1"},{"lat":"23.9457","lng":"88.2539","name":"BLDGBLDGESR002","address":"Sap : I-WB-BLDG-ENB-6001<br\/>Loopback : 172.23.70.172<br\/> ","type":"ESR","status":"0","hoto":"1"},{"lat":"23.9332","lng":"88.2394","name":"BLDGBLDGPAR001","address":"Sap : I-WB-BLDG-ENB-6003<br\/>Loopback : 172.16.58.90<br\/>Up-Time : 66 days, 3:02:16.21","type":"PAR","status":"1","hoto":"1"},{"lat":"23.9968","lng":"88.2439","name":"BLDGBLDGESR008","address":"Sap : I-WB-BLDG-ENB-6004<br\/>Loopback : 172.23.70.167<br\/>Up-Time : 2 days, 15:44:07.16","type":"ESR","status":"1","hoto":"1"},{"lat":"26.688","lng":"89.1924","name":"MDHTMDHTESR007","address":"Sap : I-WB-BLDG-ENB-6005<br\/>Loopback : 172.23.70.168<br\/>Up-Time : 5 days, 10:34:15.39","type":"ESR","status":"1","hoto":"1"},{"lat":"24.0041","lng":"88.2865","name":"BLDGBLDGESR001","address":"Sap : I-WB-BLDG-ENB-6007<br\/>Loopback : 172.23.70.170<br\/>Up-Time : 15 days, 21:11:22.71","type":"ESR","status":"1","hoto":"1"},{"lat":"23.9669","lng":"88.2599","name":"BLDGBLDGESR004","address":"Sap : I-WB-BLDG-ENB-6008<br\/>Loopback : 172.23.70.169<br\/> ","type":"ESR","status":"0","hoto":"1"},{"lat":"23.1972","lng":"88.42","name":"BLRHBLRHESR004","address":"Sap : I-WB-BLRH-ENB-6000<br\/>Loopback : 172.23.255.36<br\/>Up-Time : 38 days, 12:48:25.75","type":"ESR","status":"1","hoto":"1"},{"lat":"23.1195","lng":"88.4561","name":"BLRHBLRHESR005","address":"Sap : I-WB-BLRH-ENB-6001<br\/>Loopback : 172.23.253.46<br\/> ","type":"ESR","status":"0","hoto":"1"},{"lat":"23.1016","lng":"88.4702","name":"BLRHBLRHESR002","address":"Sap : I-WB-BLRH-ENB-6002<br\/>Loopback : 172.23.253.37<br\/> ","type":"ESR","status":"0","hoto":"1"},{"lat":"23.1041","lng":"88.4483","name":"BLRHBLRHESR001","address":"Sap : I-WB-BLRH-ENB-9002<br\/>Loopback : 172.23.253.47<br\/> ","type":"ESR","status":"0","hoto":"1"},{"lat":"23.0434","lng":"88.822","name":"BNGNBNGNESR003","address":"Sap : I-WB-BNGN-ENB-0001<br\/>Loopback : 172.23.249.66<br\/>Up-Time : 38 days, 19:13:19.85","type":"ESR","status":"1","hoto":"1"},{"lat":"23.0498","lng":"88.827","name":"BNGNBSTLESR001","address":"Sap : I-WB-BNGN-ENB-6003<br\/>Loopback : 172.23.249.65<br\/>Up-Time : 60 days, 6:02:11.42","type":"ESR","status":"1","hoto":"1"},{"lat":"23.0751","lng":"88.7315","name":"BNGNBNGNESR001","address":"Sap : I-WB-BNGN-ENB-6007<br\/>Loopback : 172.23.255.42<br\/>Up-Time : 58 days, 4:03:38.68","type":"ESR","status":"1","hoto":"1"},{"lat":"23.1049","lng":"88.8173","name":"BNGNBNGNESR004","address":"Sap : I-WB-BNGN-ENB-6009<br\/>Loopback : 172.23.253.68<br\/>Up-Time : 1 day, 15:07:58.33","type":"ESR","status":"1","hoto":"1"},{"lat":"23.2723","lng":"87.1391","name":"BNKOBNKOESR001","address":"Sap : I-WB-BNKO-ENB-6000<br\/>Loopback : 172.23.94.216<br\/>Up-Time : 4 days, 6:17:34.36","type":"ESR","status":"1","hoto":"1"},{"lat":"23.2873","lng":"87.0861","name":"BNKOBNKOESR002","address":"Sap : I-WB-BNKO-ENB-9002<br\/>Loopback : 172.23.94.221<br\/>Up-Time : 48 days, 9:30:58.86","type":"ESR","status":"1","hoto":"1"},{"lat":"23.2589","lng":"87.0098","name":"BNKRBNKRESR001","address":"Sap : I-WB-BNKO-ENB-9003<br\/>Loopback : 172.23.88.199<br\/>Up-Time : 16 days, 17:27:37.98","type":"ESR","status":"1","hoto":"1"},{"lat":"23.2368","lng":"87.072","name":"BNKRDLTBESR001","address":"Sap : I-WB-BNKR-ENB-0004<br\/>Loopback : 172.23.87.193<br\/>Up-Time : 32 days, 19:13:03.73","type":"ESR","status":"1","hoto":"1"},{"lat":"23.2309","lng":"87.0889","name":"BNKOBNKOESR003","address":"Sap : I-WB-BNKR-ENB-0008<br\/>Loopback : 172.23.91.93<br\/>Up-Time : 58 days, 6:35:27.88","type":"ESR","status":"1","hoto":"1"},{"lat":"23.2376","lng":"87.0428","name":"BNKRSHPLESR002","address":"Sap : I-WB-BNKR-ENB-0011<br\/>Loopback : 172.23.94.212<br\/>Up-Time : 62 days, 3:35:47.21","type":"ESR","status":"1","hoto":"1"},{"lat":"23.227","lng":"87.0555","name":"BNKRBNKRESR002","address":"Sap : I-WB-BNKR-ENB-6000<br\/>Loopback : 172.23.95.105<br\/>Up-Time : 62 days, 3:35:28.55","type":"ESR","status":"1","hoto":"1"},{"lat":"23.2338","lng":"87.0656","name":"BNKRPTPRESR001","address":"Sap : I-WB-BNKR-ENB-6001<br\/>Loopback : 172.23.94.210<br\/>Up-Time : 51 days, 12:51:24.68","type":"ESR","status":"1","hoto":"1"},{"lat":"23.2431","lng":"87.0433","name":"BNKRKTDGESR001","address":"Sap : I-WB-BNKR-ENB-6002<br\/>Loopback : 172.23.94.209<br\/>Up-Time : 43 days, 21:56:33.26","type":"ESR","status":"1","hoto":"1"},{"lat":"23.2453","lng":"87.0692","name":"BNKRABDGESR001","address":"Sap : I-WB-BNKR-ENB-6004<br\/>Loopback : 172.23.88.25<br\/>Up-Time : 47 days, 2:28:56.42","type":"ESR","status":"1","hoto":"1"},{"lat":"23.2239","lng":"87.0827","name":"BNKRLBZRESR002","address":"Sap : I-WB-BNKR-ENB-6005<br\/>Loopback : 172.23.94.208<br\/>Up-Time : 7 days, 5:31:56.52","type":"ESR","status":"1","hoto":"1"},{"lat":"23.2301","lng":"87.0411","name":"BNKRSHPLESR001","address":"Sap : I-WB-BNKR-ENB-B001<br\/>Loopback : 172.23.94.211<br\/>Up-Time : 40 days, 0:50:06.77","type":"ESR","status":"1","hoto":"1"},{"lat":"23.239","lng":"87.0607","name":"BNKRSLDGESR001","address":"Sap : I-WB-BNKR-ENB-B002<br\/>Loopback : 172.23.95.175<br\/>Up-Time : 56 days, 11:50:44.78","type":"ESR","status":"1","hoto":"1"},{"lat":"23.2468","lng":"87.0384","name":"BNKRASNAESR001","address":"Sap : I-WB-BNKR-ENB-B004<br\/>Loopback : 172.23.88.26<br\/>Up-Time : 56 days, 9:37:07.11","type":"ESR","status":"1","hoto":"1"},{"lat":"23.2331","lng":"87.0514","name":"BNKRKTDGESR002","address":"Sap : I-WB-BNKR-ENB-B005<br\/>Loopback : 172.23.87.215<br\/>Up-Time : 28 days, 18:44:05.15","type":"ESR","status":"1","hoto":"1"},{"lat":"23.2417","lng":"87.0527","name":"BNKRPDKRESR001","address":"Sap : I-WB-BNKR-ENB-B006<br\/>Loopback : 172.23.95.38<br\/>Up-Time : 28 days, 17:24:10.92","type":"ESR","status":"1","hoto":"1"},{"lat":"23.2386","lng":"87.0662","name":"BNKRRTHLESR001","address":"Sap : I-WB-BNKR-ENB-G001<br\/>Loopback : 172.23.89.25<br\/>Up-Time : 9 days, 14:49:12.23","type":"ESR","status":"1","hoto":"1"},{"lat":"23.2227","lng":"87.0752","name":"BNKRKHDGESR001","address":"Sap : I-WB-BNKR-ENB-V001<br\/>Loopback : 172.23.88.147<br\/>Up-Time : 53 days, 14:28:41.95","type":"ESR","status":"1","hoto":"1"},{"lat":"23.676","lng":"87.6977","name":"BOURKBICESR001","address":"Sap : I-WB-BOUR-ENB-0002<br\/>Loopback : 172.23.69.34<br\/>Up-Time : 60 days, 3:32:17.09","type":"ESR","status":"1","hoto":"1"},{"lat":"23.6643","lng":"87.6842","name":"BOURRBDIPAR002","address":"Sap : I-WB-BOUR-ENB-0006<br\/>Loopback : 172.16.58.56<br\/>Up-Time : 3 days, 13:32:56.89","type":"PAR","status":"1","hoto":"1"},{"lat":"23.6595","lng":"87.707","name":"BOURKLKPESR002","address":"Sap : I-WB-BOUR-ENB-0007<br\/>Loopback : 172.23.70.238<br\/>Up-Time : 46 days, 1:35:59.02","type":"ESR","status":"1","hoto":"1"},{"lat":"23.6893","lng":"87.6862","name":"BOURSYBTESR001","address":"Sap : I-WB-BOUR-ENB-0014<br\/>Loopback : 172.23.65.134<br\/>Up-Time : 24 days, 11:52:10.13","type":"ESR","status":"1","hoto":"1"},{"lat":"23.66","lng":"87.6976","name":"BOURHTTLESR001","address":"Sap : I-WB-BOUR-ENB-0019<br\/>Loopback : 172.23.69.65<br\/>Up-Time : 27 days, 11:56:40.01","type":"ESR","status":"1","hoto":"1"},{"lat":"23.6719","lng":"87.6814","name":"BOURBUDGESR001","address":"Sap : I-WB-BOUR-ENB-6000<br\/>Loopback : 172.23.69.64<br\/>Up-Time : 60 days, 3:19:54.16","type":"ESR","status":"1","hoto":"1"},{"lat":"23.6961","lng":"87.6888","name":"BOURPRTKESR001","address":"Sap : I-WB-BOUR-ENB-6001<br\/>Loopback : 172.23.68.96<br\/>Up-Time : 5 days, 17:31:09.74","type":"ESR","status":"1","hoto":"1"},{"lat":"23.6695","lng":"87.6929","name":"BOURBLPRESR001","address":"Sap : I-WB-BOUR-ENB-6002<br\/>Loopback : 172.23.68.242<br\/>Up-Time : 46 days, 3:40:15.40","type":"ESR","status":"1","hoto":"1"},{"lat":"23.6659","lng":"87.706","name":"BOURKLKPESR001","address":"Sap : I-WB-BOUR-ENB-6003<br\/>Loopback : 172.23.68.97<br\/>Up-Time : 52 days, 23:57:31.41","type":"ESR","status":"1","hoto":"1"},{"lat":"23.6001","lng":"87.8011","name":"BOURBOURESR003","address":"Sap : I-WB-BOUR-ENB-6005<br\/>Loopback : 172.23.255.207<br\/>Up-Time : 20 days, 19:26:19.32","type":"ESR","status":"1","hoto":"1"},{"lat":"23.6631","lng":"87.7024","name":"BOURKLKPESR003","address":"Sap : I-WB-BOUR-ENB-B001<br\/>Loopback : 172.23.71.227<br\/>Up-Time : 40 days, 14:59:30.15","type":"ESR","status":"1","hoto":"1"},{"lat":"23.6683","lng":"87.6656","name":"BOURBOURESR001","address":"Sap : I-WB-BOUR-ENB-B002<br\/>Loopback : 172.23.69.61<br\/>Up-Time : 7 days, 17:55:40.59","type":"ESR","status":"1","hoto":"1"},{"lat":"23.6557","lng":"87.691","name":"BOURBLLUESR001","address":"Sap : I-WB-BOUR-ENB-V002<br\/>Loopback : 172.23.64.214<br\/>Up-Time : 32 days, 4:08:02.31","type":"ESR","status":"1","hoto":"1"},{"lat":"26.7094","lng":"89.1402","name":"BPRABPRAPAR001","address":"Sap : I-WB-BPRA-ENB-6001<br\/>Loopback : 172.16.58.128<br\/>Up-Time : 10 days, 21:23:35.33","type":"PAR","status":"1","hoto":"1"},{"lat":"23.7201","lng":"86.954","name":"BRBNBRBNESR016","address":"Sap : I-WB-BRBN-ENB-6000<br\/>Loopback : 172.23.68.110<br\/>Up-Time : 60 days, 3:37:57.40","type":"ESR","status":"1","hoto":"1"},{"lat":"23.6945","lng":"86.8278","name":"BRBNBRBNESR013","address":"Sap : I-WB-BRBN-ENB-6001<br\/>Loopback : 172.23.68.192<br\/>Up-Time : 8 days, 16:59:20.10","type":"ESR","status":"1","hoto":"1"},{"lat":"23.6886","lng":"86.8574","name":"BRBNBRBNESR004","address":"Sap : I-WB-BRBN-ENB-6008<br\/>Loopback : 172.23.68.191<br\/>Up-Time : 12:02:25.05","type":"ESR","status":"1","hoto":"1"},{"lat":"23.7411","lng":"86.8365","name":"BRBNBRBNESR010","address":"Sap : I-WB-BRBN-ENB-6010<br\/>Loopback : 172.23.68.198<br\/>Up-Time : 27 days, 17:47:40.88","type":"ESR","status":"1","hoto":"1"},{"lat":"23.75","lng":"87.0333","name":"BRBNBRBNESR003","address":"Sap : I-WB-BRBN-ENB-6011<br\/>Loopback : 172.23.69.196<br\/>Up-Time : 58 days, 5:24:34.82","type":"ESR","status":"1","hoto":"1"},{"lat":"23.7056","lng":"87.001","name":"BRBNBRBNESR015","address":"Sap : I-WB-BRBN-ENB-6013<br\/>Loopback : 172.23.66.65<br\/>Up-Time : 11 days, 17:59:33.88","type":"ESR","status":"1","hoto":"1"},{"lat":"23.8139","lng":"86.9783","name":"BRBNBRBNESR005","address":"Sap : I-WB-BRBN-ENB-6014<br\/>Loopback : 172.23.71.31<br\/>Up-Time : 46 days, 3:22:41.16","type":"ESR","status":"1","hoto":"1"},{"lat":"23.7028","lng":"86.9034","name":"BRBNBRBNESR001","address":"Sap : I-WB-BRBN-ENB-9001<br\/>Loopback : 172.23.68.77<br\/>Up-Time : 34 days, 16:06:37.52","type":"ESR","status":"1","hoto":"1"},{"lat":"23.6892","lng":"86.8753","name":"SLANSLANESR004","address":"Sap : I-WB-BRBN-ENB-9002<br\/>Loopback : 172.23.68.190<br\/>Up-Time : 47 days, 13:43:47.93","type":"ESR","status":"1","hoto":"1"},{"lat":"23.7231","lng":"86.8529","name":"BRBNBRBNPAR001","address":"Sap : I-WB-BRBN-ENB-9003<br\/>Loopback : 172.16.96.25<br\/>Up-Time : 58 days, 2:20:43.22","type":"PAR","status":"1","hoto":"1"},{"lat":"23.7474","lng":"86.8438","name":"SLANSLANESR003","address":"Sap : I-WB-BRBN-ENB-9004<br\/>Loopback : 172.23.68.197<br\/>Up-Time : 24 days, 17:42:31.25","type":"ESR","status":"1","hoto":"1"},{"lat":"23.7329","lng":"86.8548","name":"BRBNBRBNESR012","address":"Sap : I-WB-BRBN-ENB-9005<br\/>Loopback : 172.23.66.224<br\/>Up-Time : 61 days, 2:32:32.30","type":"ESR","status":"1","hoto":"1"},{"lat":"23.7428","lng":"86.8919","name":"BRBNBRBNESR011","address":"Sap : I-WB-BRBN-ENB-9024<br\/>Loopback : 172.23.70.35<br\/> ","type":"ESR","status":"0","hoto":"1"},{"lat":"23.7074","lng":"86.826","name":"BRBNBRBNESR017","address":"Sap : I-WB-BRBN-ENB-I001<br\/>Loopback : 172.23.68.193<br\/>Up-Time : 60 days, 1:35:59.65","type":"ESR","status":"1","hoto":"1"},{"lat":"23.0285","lng":"86.363","name":"BRBZBRBZESR001","address":"Sap : I-WB-BRBZ-ENB-6000<br\/>Loopback : 172.23.93.105<br\/>Up-Time : 46 days, 3:01:32.58","type":"ESR","status":"1","hoto":"1"},{"lat":"23.2344","lng":"87.846","name":"BDDMALMJESR001","address":"Sap : I-WB-BRDN-ENB-0001<br\/>Loopback : 172.23.253.198<br\/>Up-Time : 43 days, 14:14:47.53","type":"ESR","status":"1","hoto":"1"},{"lat":"23.2162","lng":"87.8924","name":"BRDNBDHMESR001","address":"Sap : I-WB-BRDN-ENB-6000<br\/>Loopback : 172.23.243.119<br\/>Up-Time : 27 days, 12:16:57.54","type":"ESR","status":"1","hoto":"1"},{"lat":"23.237","lng":"87.8498","name":"BRDNSKPRESR001","address":"Sap : I-WB-BRDN-ENB-6001<br\/>Loopback : 172.23.243.187<br\/>Up-Time : 61 days, 0:59:55.88","type":"ESR","status":"1","hoto":"1"},{"lat":"23.255","lng":"87.87","name":"BRDNDBJGESR001","address":"Sap : I-WB-BRDN-ENB-6002<br\/>Loopback : 172.23.243.229<br\/>Up-Time : 60 days, 3:10:46.82","type":"ESR","status":"1","hoto":"1"},{"lat":"23.2424","lng":"87.8617","name":"BRDNRNGJESR001","address":"Sap : I-WB-BRDN-ENB-6003<br\/>Loopback : 172.23.243.192<br\/>Up-Time : 61 days, 2:51:52.27","type":"ESR","status":"1","hoto":"1"},{"lat":"23.2627","lng":"87.848","name":"BRDNKRSNESR002","address":"Sap : I-WB-BRDN-ENB-6004<br\/>Loopback : 172.23.240.91<br\/>Up-Time : 56 days, 5:53:34.59","type":"ESR","status":"1","hoto":"1"},{"lat":"23.2309","lng":"87.8542","name":"BRDNBGPRESR001","address":"Sap : I-WB-BRDN-ENB-6006<br\/>Loopback : 172.23.243.191<br\/>Up-Time : 58 days, 15:54:07.99","type":"ESR","status":"1","hoto":"1"},{"lat":"23.2627","lng":"87.847","name":"BRDNKRSNESR001","address":"Sap : I-WB-BRDN-ENB-6007<br\/>Loopback : 172.23.243.231<br\/>Up-Time : 56 days, 5:58:54.11","type":"ESR","status":"1","hoto":"1"},{"lat":"23.2277","lng":"87.872","name":"BRDNIDKNESR001","address":"Sap : I-WB-BRDN-ENB-6008<br\/>Loopback : 172.23.243.242<br\/>Up-Time : 60 days, 3:27:00.90","type":"ESR","status":"1","hoto":"1"},{"lat":"23.2464","lng":"87.862","name":"BRDNTELBESR001","address":"Sap : I-WB-BRDN-ENB-6009<br\/>Loopback : 172.23.243.188<br\/>Up-Time : 58 days, 7:12:39.02","type":"ESR","status":"1","hoto":"1"},{"lat":"23.2382","lng":"87.8856","name":"BRDNLKNPESR001","address":"Sap : I-WB-BRDN-ENB-6011<br\/>Loopback : 172.23.243.239<br\/>Up-Time : 1 day, 14:06:53.37","type":"ESR","status":"1","hoto":"1"},{"lat":"23.2699","lng":"87.8207","name":"BRDNISBDESR001","address":"Sap : I-WB-BRDN-ENB-6014<br\/>Loopback : 172.23.243.232<br\/>Up-Time : 56 days, 5:51:40.73","type":"ESR","status":"1","hoto":"1"},{"lat":"23.3378","lng":"87.8024","name":"BRDNBRDNESR004","address":"Sap : I-WB-BRDN-ENB-6015<br\/>Loopback : 172.23.255.124<br\/>Up-Time : 56 days, 3:21:23.86","type":"ESR","status":"1","hoto":"1"},{"lat":"23.2143","lng":"87.9273","name":"BRDNNDURESR001","address":"Sap : I-WB-BRDN-ENB-6016<br\/>Loopback : 172.23.243.243<br\/>Up-Time : 38 days, 15:08:54.11","type":"ESR","status":"1","hoto":"1"},{"lat":"23.2374","lng":"87.818","name":"BRDNUDYPESR002","address":"Sap : I-WB-BRDN-ENB-6017<br\/>Loopback : 172.23.243.189<br\/>Up-Time : 14 days, 17:07:05.92","type":"ESR","status":"1","hoto":"1"},{"lat":"23.3403","lng":"87.9812","name":"BRDNBRDNESR003","address":"Sap : I-WB-BRDN-ENB-6018<br\/>Loopback : 172.23.255.143<br\/>Up-Time : 32 days, 17:43:10.74","type":"ESR","status":"1","hoto":"1"},{"lat":"23.3196","lng":"87.836","name":"BRDNBRDNESR002","address":"Sap : I-WB-BRDN-ENB-6019<br\/>Loopback : 172.23.255.66<br\/>Up-Time : 58 days, 4:03:06.98","type":"ESR","status":"1","hoto":"1"},{"lat":"23.2044","lng":"87.9657","name":"BRDOBRDOESR002","address":"Sap : I-WB-BRDO-ENB-6001<br\/>Loopback : 172.23.253.99<br\/>Up-Time : 58 days, 5:31:27.35","type":"ESR","status":"1","hoto":"1"},{"lat":"23.233","lng":"88.5563","name":"BRGRGMTPESR001","address":"Sap : I-WB-BRGR-ENB-6000<br\/>Loopback : 172.23.244.157<br\/>Up-Time : 56 days, 5:08:21.33","type":"ESR","status":"1","hoto":"1"},{"lat":"23.256","lng":"88.5445","name":"BRGRTHRPESR001","address":"Sap : I-WB-BRGR-ENB-6001<br\/>Loopback : 172.23.240.89<br\/>Up-Time : 43 days, 13:45:48.70","type":"ESR","status":"1","hoto":"1"},{"lat":"23.2418","lng":"88.5573","name":"BRGRHKPRESR001","address":"Sap : I-WB-BRGR-ENB-A001<br\/>Loopback : 172.23.240.87<br\/>Up-Time : 51 days, 14:08:43.98","type":"ESR","status":"1","hoto":"1"},{"lat":"23.2611","lng":"88.541","name":"TRHPTHRPESR001","address":"Sap : I-WB-BRGR-ENB-V001<br\/>Loopback : 172.23.251.172<br\/> ","type":"ESR","status":"0","hoto":"1"},{"lat":"23.2616","lng":"88.5334","name":"BRGRTHRPESR002","address":"Sap : I-WB-BRGR-ENB-W001<br\/>Loopback : 172.23.240.88<br\/>Up-Time : 43 days, 16:16:39.78","type":"ESR","status":"1","hoto":"1"},{"lat":"23.6191","lng":"88.5314","name":"BRNDBRNDESR001","address":"Sap : I-WB-BRND-ENB-6000<br\/>Loopback : 172.23.66.103<br\/>Up-Time : 9 days, 20:13:15.45","type":"ESR","status":"1","hoto":"1"},{"lat":"23.9266","lng":"87.939","name":"BRWNBRWNESR002","address":"Sap : I-WB-BRWN-ENB-6001<br\/>Loopback : 172.23.65.101<br\/>Up-Time : 62 days, 2:48:03.71","type":"ESR","status":"1","hoto":"1"},{"lat":"24.3688","lng":"88.2135","name":"BRWNBRWNESR006","address":"Sap : I-WB-BRWN-ENB-6002<br\/>Loopback : 172.23.65.102<br\/>Up-Time : 62 days, 2:39:10.89","type":"ESR","status":"1","hoto":"1"},{"lat":"23.8901","lng":"87.98","name":"BRWNBRWNESR005","address":"Sap : I-WB-BRWN-ENB-6004<br\/>Loopback : 172.23.65.135<br\/>Up-Time : 26 days, 17:25:40.86","type":"ESR","status":"1","hoto":"1"},{"lat":"23.8692","lng":"87.9442","name":"BRWNBRWNESR004","address":"Sap : I-WB-BRWN-ENB-6005<br\/>Loopback : 172.23.65.191<br\/>Up-Time : 39 days, 2:06:18.22","type":"ESR","status":"1","hoto":"1"},{"lat":"23.0636","lng":"87.3036","name":"BSPRBNPRESR002","address":"Sap : I-WB-BSPR-ENB-0005<br\/>Loopback : 172.23.83.174<br\/>Up-Time : 56 days, 21:51:20.56","type":"ESR","status":"1","hoto":"1"},{"lat":"23.0873","lng":"87.3128","name":"BSPRSYMPESR001","address":"Sap : I-WB-BSPR-ENB-0012<br\/>Loopback : 172.23.84.204<br\/>Up-Time : 58 days, 9:05:13.13","type":"ESR","status":"1","hoto":"1"},{"lat":"23.0552","lng":"87.3121","name":"BSPRKNGSESR001","address":"Sap : I-WB-BSPR-ENB-0013<br\/>Loopback : 172.23.84.202<br\/>Up-Time : 43 days, 22:09:14.59","type":"ESR","status":"1","hoto":"1"},{"lat":"23.0783","lng":"87.3084","name":"BSPRBLTLESR001","address":"Sap : I-WB-BSPR-ENB-6001<br\/>Loopback : 172.23.84.201<br\/>Up-Time : 61 days, 3:56:31.68","type":"ESR","status":"1","hoto":"1"},{"lat":"23.0833","lng":"87.3342","name":"BSPRCKDHESR001","address":"Sap : I-WB-BSPR-ENB-6002<br\/>Loopback : 172.23.84.205<br\/>Up-Time : 26 days, 18:57:58.48","type":"ESR","status":"1","hoto":"1"},{"lat":"23.0638","lng":"87.3232","name":"BSPRLBNDESR001","address":"Sap : I-WB-BSPR-ENB-6003<br\/>Loopback : 172.23.84.206<br\/>Up-Time : 9 days, 12:37:44.93","type":"ESR","status":"1","hoto":"1"},{"lat":"23.0756","lng":"87.3245","name":"BSPRPKNDESR001","address":"Sap : I-WB-BSPR-ENB-6004<br\/>Loopback : 172.23.84.200<br\/>Up-Time : 61 days, 3:55:44.06","type":"ESR","status":"1","hoto":"1"},{"lat":"23.0634","lng":"87.3102","name":"BSPRBNPRESR001","address":"Sap : I-WB-BSPR-ENB-6005<br\/>Loopback : 172.23.84.203<br\/>Up-Time : 61 days, 5:09:12.56","type":"ESR","status":"1","hoto":"1"},{"lat":"23.0685","lng":"87.3147","name":"BSPRBSHNESR001","address":"Sap : I-WB-BSPR-ENB-6007<br\/>Loopback : 172.23.84.207<br\/>Up-Time : 39 days, 2:10:48.92","type":"ESR","status":"1","hoto":"1"},{"lat":"23.1666","lng":"87.3333","name":"BSPRBSPRESR003","address":"Sap : I-WB-BSPR-ENB-6008<br\/>Loopback : 172.23.84.209<br\/>Up-Time : 26 days, 8:15:34.95","type":"ESR","status":"1","hoto":"1"},{"lat":"23.018","lng":"87.3494","name":"BSPRBSPRESR004","address":"Sap : I-WB-BSPR-ENB-6009<br\/>Loopback : 172.23.84.210<br\/>Up-Time : 12 days, 10:17:36.89","type":"ESR","status":"1","hoto":"1"},{"lat":"23.15","lng":"87.3166","name":"BSPRBSPRESR002","address":"Sap : I-WB-BSPR-ENB-6010<br\/>Loopback : 172.23.84.208<br\/>Up-Time : 58 days, 5:58:07.71","type":"ESR","status":"1","hoto":"1"},{"lat":"22.9928","lng":"87.3202","name":"BSPRBSPRESR007","address":"Sap : I-WB-BSPR-ENB-9004<br\/>Loopback : 172.23.88.225<br\/>Up-Time : 12 days, 4:47:42.15","type":"ESR","status":"1","hoto":"1"},{"lat":"22.9563","lng":"87.3215","name":"BSPRBSPRESR006","address":"Sap : I-WB-BSPR-ENB-9005<br\/>Loopback : 172.23.89.4<br\/>Up-Time : 49 days, 3:42:25.18","type":"ESR","status":"1","hoto":"1"},{"lat":"22.9657","lng":"87.3593","name":"BSPRBSPRESR008","address":"Sap : I-WB-BSPR-ENB-9006<br\/>Loopback : 172.23.92.110<br\/>Up-Time : 24 days, 15:53:23.75","type":"ESR","status":"1","hoto":"1"},{"lat":"23.0348","lng":"87.3188","name":"BSPRBSPRESR001","address":"Sap : I-WB-BSPR-ENB-9007<br\/>Loopback : 172.23.94.148<br\/>Up-Time : 61 days, 23:17:52.23","type":"ESR","status":"1","hoto":"1"},{"lat":"23.0799","lng":"87.3182","name":"BSPRKYNGESR002","address":"Sap : I-WB-BSPR-ENB-V001<br\/>Loopback : 172.23.83.175<br\/>Up-Time : 41 days, 5:44:22.93","type":"ESR","status":"1","hoto":"1"},{"lat":"23.0791","lng":"88.673","name":"BSPUBSPUESR001","address":"Sap : I-WB-BSPU-ENB-6000<br\/>Loopback : 172.23.254.154<br\/>Up-Time : 58 days, 5:30:36.92","type":"ESR","status":"1","hoto":"1"},{"lat":"22.68","lng":"88.8134","name":"BSROBSROESR002","address":"Sap : I-WB-BSRO-ENB-6001<br\/>Loopback : 172.23.250.55<br\/>Up-Time : 61 days, 23:54:54.06","type":"ESR","status":"1","hoto":"1"},{"lat":"22.6509","lng":"88.8688","name":"BSRTANTPPAR001","address":"Sap : I-WB-BSRT-ENB-0001<br\/>Loopback : 172.16.77.60<br\/>Up-Time : 70 days, 2:18:05.58","type":"PAR","status":"1","hoto":"1"},{"lat":"22.6561","lng":"88.8608","name":"BSRTHLDRESR001","address":"Sap : I-WB-BSRT-ENB-0002<br\/>Loopback : 172.23.243.216<br\/>Up-Time : 19 days, 10:30:37.59","type":"ESR","status":"1","hoto":"1"},{"lat":"22.659","lng":"88.8551","name":"BSRTKHLFESR001","address":"Sap : I-WB-BSRT-ENB-0003<br\/>Loopback : 172.23.243.215<br\/>Up-Time : 61 days, 4:22:47.31","type":"ESR","status":"1","hoto":"1"},{"lat":"22.6598","lng":"88.876","name":"BSRTITNDESR001","address":"Sap : I-WB-BSRT-ENB-0005<br\/>Loopback : 172.23.243.213<br\/>Up-Time : 16 days, 17:16:54.32","type":"ESR","status":"1","hoto":"1"},{"lat":"22.653","lng":"88.8467","name":"BSRTNERDESR001","address":"Sap : I-WB-BSRT-ENB-0006<br\/>Loopback : 172.23.240.186<br\/>Up-Time : 2 days, 15:05:22.02","type":"ESR","status":"1","hoto":"1"},{"lat":"22.6139","lng":"88.9064","name":"BSRTBSRTESR001","address":"Sap : I-WB-BSRT-ENB-6001<br\/>Loopback : 172.23.247.239<br\/>Up-Time : 61 days, 1:54:20.03","type":"ESR","status":"1","hoto":"1"},{"lat":"22.6572","lng":"88.8681","name":"BSRTSIPLESR001","address":"Sap : I-WB-BSRT-ENB-6002<br\/>Loopback : 172.23.243.214<br\/>Up-Time : 49 days, 18:17:49.42","type":"ESR","status":"1","hoto":"1"},{"lat":"22.6701","lng":"88.8523","name":"BSRTAMBRESR001","address":"Sap : I-WB-BSRT-ENB-6003<br\/>Loopback : 172.23.243.217<br\/>Up-Time : 41 days, 11:19:23.27","type":"ESR","status":"1","hoto":"1"},{"lat":"22.6504","lng":"88.8554","name":"BSRTGNSCESR001","address":"Sap : I-WB-BSRT-ENB-V001<br\/>Loopback : 172.23.251.87<br\/>Up-Time : 62 days, 3:00:16.88","type":"ESR","status":"1","hoto":"1"},{"lat":"22.6795","lng":"88.8346","name":"BSROBSROESR003","address":"Sap : I-WB-BSRT-ENB-V002<br\/>Loopback : 172.23.250.54<br\/>Up-Time : 49 days, 9:15:22.28","type":"ESR","status":"1","hoto":"1"},{"lat":"23.6115","lng":"88.381","name":"BTDHBTDHESR001","address":"Sap : I-WB-BTDH-ENB-6000<br\/>Loopback : 172.23.74.230<br\/>Up-Time : 46 days, 2:25:07.60","type":"ESR","status":"1","hoto":"1"},{"lat":"22.1986","lng":"88.4395","name":"BUAABUAAESR001","address":"Sap : I-WB-BUAA-ENB-6000<br\/>Loopback : 172.23.252.183<br\/>Up-Time : 11:19:56.74","type":"ESR","status":"1","hoto":"1"},{"lat":"22.4967","lng":"87.3682","name":"RJBNRJBNESR001","address":"Sap : I-WB-CDKN-ENB-6001<br\/>Loopback : 172.23.255.215<br\/>Up-Time : 42 days, 15:26:34.47","type":"ESR","status":"1","hoto":"1"},{"lat":"22.7541","lng":"87.5621","name":"CDKOCDKOESR001","address":"Sap : I-WB-CDKN-ENB-6002<br\/>Loopback : 172.23.253.172<br\/>Up-Time : 60 days, 6:06:46.57","type":"ESR","status":"1","hoto":"1"},{"lat":"23.3006","lng":"86.8492","name":"CHTNCHTNESR003","address":"Sap : I-WB-CHTN-ENB-6002<br\/>Loopback : 172.23.234.42<br\/>Up-Time : 25 days, 16:20:36.38","type":"ESR","status":"1","hoto":"1"},{"lat":"23.2883","lng":"86.7884","name":"CHTNCHTNESR002","address":"Sap : I-WB-CHTN-ENB-9007<br\/>Loopback : 172.23.92.65<br\/>Up-Time : 58 days, 5:10:02.40","type":"ESR","status":"1","hoto":"1"},{"lat":"23.0736","lng":"88.5291","name":"CKDAKYCLESR001","address":"Sap : I-WB-CKDA-ENB-0001<br\/>Loopback : 172.23.250.219<br\/>Up-Time : 38 days, 23:06:40.39","type":"ESR","status":"1","hoto":"1"},{"lat":"23.0736","lng":"88.537","name":"CKDALPURESR001","address":"Sap : I-WB-CKDA-ENB-0002<br\/>Loopback : 172.23.250.220<br\/>Up-Time : 3 days, 13:37:43.98","type":"ESR","status":"1","hoto":"1"},{"lat":"23.0645","lng":"88.5256","name":"CKDAPLPRPAR002","address":"Sap : I-WB-CKDA-ENB-0003<br\/>Loopback : 172.16.77.27<br\/>Up-Time : 68 days, 5:46:05.68","type":"PAR","status":"1","hoto":"1"},{"lat":"23.0645","lng":"88.5256","name":"CKDAPLPRPAR001","address":"Sap : I-WB-CKDA-ENB-0003<br\/>Loopback : 172.16.76.164<br\/>Up-Time : 68 days, 5:50:03.59","type":"PAR","status":"1","hoto":"1"},{"lat":"23.0646","lng":"88.5339","name":"CKDACHKDESR001","address":"Sap : I-WB-CKDA-ENB-0004<br\/>Loopback : 172.23.248.112<br\/>Up-Time : 52 days, 13:41:57.49","type":"ESR","status":"1","hoto":"1"},{"lat":"23.0836","lng":"88.544","name":"CKDACKDAESR006","address":"Sap : I-WB-CKDA-ENB-0005<br\/>Loopback : 172.23.246.16<br\/>Up-Time : 16 days, 9:24:19.91","type":"ESR","status":"1","hoto":"1"},{"lat":"23.0805","lng":"88.5243","name":"CKDADTBRESR001","address":"Sap : I-WB-CKDA-ENB-0006<br\/>Loopback : 172.23.250.221<br\/>Up-Time : 32 days, 16:28:44.47","type":"ESR","status":"1","hoto":"1"},{"lat":"23.0509","lng":"88.5114","name":"CKDAMNSPESR001","address":"Sap : I-WB-CKDA-ENB-0007<br\/>Loopback : 172.23.250.222<br\/>Up-Time : 16 days, 16:00:36.06","type":"ESR","status":"1","hoto":"1"},{"lat":"23.0729","lng":"88.5169","name":"CKDAKUNUESR001","address":"Sap : I-WB-CKDA-ENB-0008<br\/>Loopback : 172.23.248.113<br\/>Up-Time : 28 days, 12:26:52.79","type":"ESR","status":"1","hoto":"1"},{"lat":"23.0899","lng":"88.5286","name":"CKDAGNGIESR001","address":"Sap : I-WB-CKDA-ENB-0009<br\/>Loopback : 172.23.250.44<br\/>Up-Time : 41 days, 21:29:30.02","type":"ESR","status":"1","hoto":"1"},{"lat":"23.1014","lng":"88.5481","name":"CKDACKDAESR004","address":"Sap : I-WB-CKDA-ENB-6000<br\/>Loopback : 172.23.250.231<br\/> ","type":"ESR","status":"0","hoto":"1"},{"lat":"23.0798","lng":"88.5326","name":"CKDAPUGLESR001","address":"Sap : I-WB-CKDA-ENB-6001<br\/>Loopback : 172.23.252.41<br\/> ","type":"ESR","status":"0","hoto":"1"},{"lat":"23.0579","lng":"88.5169","name":"CKDANTJIESR001","address":"Sap : I-WB-CKDA-ENB-6002<br\/>Loopback : 172.23.248.109<br\/>Up-Time : 61 days, 23:51:58.57","type":"ESR","status":"1","hoto":"1"},{"lat":"23.0304","lng":"88.5948","name":"CKDACKDAESR002","address":"Sap : I-WB-CKDA-ENB-6005<br\/>Loopback : 172.23.253.128<br\/>Up-Time : 60 days, 4:46:56.16","type":"ESR","status":"1","hoto":"1"},{"lat":"23.0411","lng":"88.5112","name":"CKDASTGIESR001","address":"Sap : I-WB-CKDA-ENB-6007<br\/>Loopback : 172.23.248.114<br\/>Up-Time : 59 days, 14:56:41.72","type":"ESR","status":"1","hoto":"1"},{"lat":"23.0082","lng":"88.6288","name":"CKDACKDAESR001","address":"Sap : I-WB-CKDA-ENB-6008<br\/>Loopback : 172.23.253.129<br\/>Up-Time : 60 days, 4:47:36.72","type":"ESR","status":"1","hoto":"1"},{"lat":"23.0366","lng":"88.5356","name":"CKDACKDAESR003","address":"Sap : I-WB-CKDA-ENB-V001<br\/>Loopback : 172.23.249.225<br\/>Up-Time : 53 days, 15:49:37.49","type":"ESR","status":"1","hoto":"1"},{"lat":"22.3259","lng":"88.6044","name":"CNNGCNNGESR003","address":"Sap : I-WB-CNNG-ENB-6000<br\/>Loopback : 172.23.251.225<br\/>Up-Time : 5 days, 15:49:18.64","type":"ESR","status":"1","hoto":"1"},{"lat":"22.3145","lng":"88.6531","name":"CNNGCNNGPAR001","address":"Sap : I-WB-CNNG-ENB-6001<br\/>Loopback : 172.16.76.172<br\/>Up-Time : 9 days, 9:01:19.44","type":"PAR","status":"1","hoto":"1"},{"lat":"22.3477","lng":"88.6117","name":"CNNGCNNGESR001","address":"Sap : I-WB-CNNG-ENB-6005<br\/>Loopback : 172.23.251.226<br\/>Up-Time : 14 days, 15:02:53.68","type":"ESR","status":"1","hoto":"1"},{"lat":"22.3161","lng":"88.645","name":"CNNGCNNGESR004","address":"Sap : I-WB-CNNG-ENB-I001<br\/>Loopback : 172.23.250.91<br\/>Up-Time : 39 days, 10:43:06.67","type":"ESR","status":"1","hoto":"1"},{"lat":"22.4181","lng":"88.6659","name":"CNNOCNNOESR003","address":"Sap : I-WB-CNNO-ENB-6001<br\/>Loopback : 172.23.251.176<br\/>Up-Time : 28 days, 21:09:45.44","type":"ESR","status":"1","hoto":"1"},{"lat":"22.3965","lng":"88.7229","name":"CNNOCNNOESR004","address":"Sap : I-WB-CNNO-ENB-6003<br\/>Loopback : 172.23.254.80<br\/>Up-Time : 6 days, 14:43:40.53","type":"ESR","status":"1","hoto":"1"},{"lat":"21.7816","lng":"87.7529","name":"KNTINVDTESR001","address":"Sap : I-WB-CONT-ENB-0001<br\/>Loopback : 172.23.254.157<br\/>Up-Time : 2 days, 11:27:40.64","type":"ESR","status":"1","hoto":"1"},{"lat":"21.7795","lng":"87.7433","name":"KNTIDBSSESR001","address":"Sap : I-WB-CONT-ENB-0002<br\/>Loopback : 172.23.254.160<br\/>Up-Time : 15:05:57.04","type":"ESR","status":"1","hoto":"1"},{"lat":"21.7759","lng":"87.731","name":"KNTIKNTBESR001","address":"Sap : I-WB-CONT-ENB-0003<br\/>Loopback : 172.23.251.101<br\/> ","type":"ESR","status":"0","hoto":"1"},{"lat":"21.7749","lng":"87.7245","name":"KNTIGMGRESR001","address":"Sap : I-WB-CONT-ENB-0004<br\/>Loopback : 172.23.255.160<br\/>Up-Time : 26 days, 13:07:00.58","type":"ESR","status":"1","hoto":"1"},{"lat":"21.7838","lng":"87.7305","name":"KNTIBEPRESR001","address":"Sap : I-WB-CONT-ENB-0005<br\/>Loopback : 172.23.250.225<br\/> ","type":"ESR","status":"0","hoto":"1"},{"lat":"21.772","lng":"87.7413","name":"KNTIDHDGESR002","address":"Sap : I-WB-CONT-ENB-0006<br\/>Loopback : 172.23.247.116<br\/>Up-Time : 2 days, 12:30:09.18","type":"ESR","status":"1","hoto":"1"},{"lat":"21.7778","lng":"87.7543","name":"KNTISHBZESR001","address":"Sap : I-WB-CONT-ENB-0007<br\/>Loopback : 172.23.247.113<br\/>Up-Time : 2 days, 13:06:32.57","type":"ESR","status":"1","hoto":"1"},{"lat":"21.7703","lng":"87.7548","name":"KNTIBNPRPAR001","address":"Sap : I-WB-CONT-ENB-0008<br\/>Loopback : 172.16.76.166<br\/>Up-Time : 58 days, 4:50:57.83","type":"PAR","status":"1","hoto":"1"},{"lat":"26.3363","lng":"88.3593","name":"COPRCOPRESR005","address":"Sap : I-WB-COPR-ENB-6000<br\/>Loopback : 172.23.71.113<br\/>Up-Time : 45 days, 18:41:07.97","type":"ESR","status":"1","hoto":"1"},{"lat":"26.4129","lng":"88.2657","name":"COPRCOPRESR003","address":"Sap : I-WB-COPR-ENB-6001<br\/>Loopback : 172.23.71.55<br\/>Up-Time : 9 days, 14:37:44.75","type":"ESR","status":"1","hoto":"1"},{"lat":"26.409","lng":"88.4391","name":"COPRCOPRESR004","address":"Sap : I-WB-COPR-ENB-6002<br\/>Loopback : 172.23.71.114<br\/>Up-Time : 25 days, 16:22:02.29","type":"ESR","status":"1","hoto":"1"},{"lat":"26.3646","lng":"88.3112","name":"COPRCOPRESR002","address":"Sap : I-WB-COPR-ENB-6003<br\/>Loopback : 172.23.68.156<br\/>Up-Time : 46 days, 2:55:09.65","type":"ESR","status":"1","hoto":"1"},{"lat":"26.4384","lng":"88.2636","name":"COPRCOPRESR006","address":"Sap : I-WB-COPR-ENB-6004<br\/>Loopback : 172.23.71.27<br\/>Up-Time : 36 days, 4:46:15.16","type":"ESR","status":"1","hoto":"1"},{"lat":"22.8374","lng":"87.9724","name":"CPDGCPDGESR001","address":"Sap : I-WB-CPDG-ENB-6000<br\/>Loopback : 172.23.244.140<br\/>Up-Time : 40 days, 12:11:18.39","type":"ESR","status":"1","hoto":"1"},{"lat":"23.6302","lng":"88.5811","name":"CPRACPRAESR001","address":"Sap : I-WB-CPRA-ENB-6004<br\/>Loopback : 172.23.66.179<br\/>Up-Time : 2 days, 18:20:02.36","type":"ESR","status":"1","hoto":"1"},{"lat":"23.4775","lng":"88.5257","name":"CPRACPRAESR002","address":"Sap : I-WB-CPRA-ENB-I001<br\/>Loopback : 172.23.70.71<br\/>Up-Time : 45 days, 14:57:07.72","type":"ESR","status":"1","hoto":"1"},{"lat":"21.8531","lng":"87.5521","name":"EGRTEGRTESR002","address":"Sap : I-WB-CTRR-ENB-6000<br\/>Loopback : 172.23.254.75<br\/>Up-Time : 34 days, 23:33:35.35","type":"ESR","status":"1","hoto":"1"},{"lat":"23.6884","lng":"88.2999","name":"DBGMDBGMPAR001","address":"Sap : I-WB-DBGM-ENB-6000<br\/>Loopback : 172.16.58.149<br\/>Up-Time : 57 days, 23:30:25.02","type":"PAR","status":"1","hoto":"1"},{"lat":"23.7909","lng":"87.376","name":"DBJPDBJPESR005","address":"Sap : I-WB-DBJP-ENB-6000<br\/>Loopback : 172.23.67.9<br\/>Up-Time : 12 days, 15:41:05.95","type":"ESR","status":"1","hoto":"1"},{"lat":"23.7856","lng":"87.3764","name":"DBJPDBJPESR002","address":"Sap : I-WB-DBJP-ENB-6001<br\/>Loopback : 172.23.67.105<br\/>Up-Time : 61 days, 2:39:00.07","type":"ESR","status":"1","hoto":"1"},{"lat":"22.4722","lng":"87.6341","name":"DEBRDEBRESR007","address":"Sap : I-WB-DEBR-ENB-6023<br\/>Loopback : 172.23.253.176<br\/>Up-Time : ","type":"ESR","status":"1","hoto":"1"},{"lat":"22.3922","lng":"87.5612","name":"DEBRDEBRESR003","address":"Sap : I-WB-DEBR-ENB-6024<br\/>Loopback : 172.23.247.223<br\/>Up-Time : 31 days, 15:23:35.48","type":"ESR","status":"1","hoto":"1"},{"lat":"22.3564","lng":"87.6198","name":"DEBRDEBRESR001","address":"Sap : I-WB-DEBR-ENB-6026<br\/>Loopback : 172.23.251.234<br\/>Up-Time : 26 days, 18:34:01.65","type":"ESR","status":"1","hoto":"1"},{"lat":"22.3598","lng":"87.5817","name":"DEBRDEBRESR005","address":"Sap : I-WB-DEBR-ENB-9005<br\/>Loopback : 172.23.251.233<br\/>Up-Time : 1 day, 13:37:19.16","type":"ESR","status":"1","hoto":"1"},{"lat":"22.3629","lng":"87.5153","name":"DEBRDEBRESR004","address":"Sap : I-WB-DEBR-ENB-9006<br\/>Loopback : 172.23.251.173<br\/>Up-Time : 13 days, 12:28:09.57","type":"ESR","status":"1","hoto":"1"},{"lat":"22.4045","lng":"87.6298","name":"DEBRDEBRESR002","address":"Sap : I-WB-DEBR-ENB-9008<br\/>Loopback : 172.23.253.174<br\/>Up-Time : ","type":"ESR","status":"1","hoto":"1"},{"lat":"23.1851","lng":"88.7699","name":"BGDABGDAESR003","address":"Sap : I-WB-DGNG-ENB-6243<br\/>Loopback : 172.23.254.41<br\/>Up-Time : 20 days, 18:20:22.49","type":"ESR","status":"1","hoto":"1"},{"lat":"22.762","lng":"88.6602","name":"DGNGDGNGESR004","address":"Sap : I-WB-DGNG-ENB-6244<br\/>Loopback : 172.23.254.43<br\/>Up-Time : 25 days, 16:15:08.25","type":"ESR","status":"1","hoto":"1"},{"lat":"23.5022","lng":"87.3477","name":"DGPRASYMAAR002","address":"Sap : i-wb-dgpr-ag2-0001<br\/>Loopback : 49.44.4.84<br\/>Up-Time : 71 days, 2:03:46.20","type":"AAR","status":"1","hoto":"0"},{"lat":"23.5022","lng":"87.3477","name":"DGPRASYMPAR002","address":"Sap : I-WB-DGPR-AG2-0001<br\/>Loopback : 172.16.58.84<br\/>Up-Time : 66 days, 3:02:23.17","type":"PAR","status":"1","hoto":"1"},{"lat":"23.4983","lng":"87.2931","name":"DGPRDPLCESR001","address":"Sap : I-WB-DGPR-ENB-0002<br\/>Loopback : 172.23.254.250<br\/> ","type":"ESR","status":"0","hoto":"1"},{"lat":"23.4983","lng":"87.2931","name":"DGPRDPLCPAR001","address":"Sap : I-WB-DGPR-ENB-0002<br\/>Loopback : 172.16.77.205<br\/>Up-Time : 21 days, 15:52:13.98","type":"PAR","status":"1","hoto":"1"},{"lat":"23.529","lng":"87.2987","name":"DGPRIDUTESR001","address":"Sap : I-WB-DGPR-ENB-0008<br\/>Loopback : 172.23.253.72<br\/>Up-Time : 28 days, 11:18:14.67","type":"ESR","status":"1","hoto":"1"},{"lat":"23.5108","lng":"87.2958","name":"DGPRDRGRESR001","address":"Sap : I-WB-DGPR-ENB-0011<br\/>Loopback : 172.23.255.44<br\/>Up-Time : 58 days, 4:04:56.68","type":"ESR","status":"1","hoto":"1"},{"lat":"23.4971","lng":"87.3236","name":"DGPRPSDHPAR001","address":"Sap : I-WB-DGPR-ENB-0015<br\/>Loopback : 172.16.77.123<br\/>Up-Time : 49 days, 20:03:14.25","type":"PAR","status":"1","hoto":"1"},{"lat":"23.4726","lng":"87.3322","name":"DGPRSKMRESR002","address":"Sap : I-WB-DGPR-ENB-0021<br\/>Loopback : 172.23.252.198<br\/>Up-Time : 44 days, 13:02:51.67","type":"ESR","status":"1","hoto":"1"},{"lat":"23.4866","lng":"87.3331","name":"DGPRHDNTESR002","address":"Sap : I-WB-DGPR-ENB-0022<br\/>Loopback : 172.23.252.194<br\/>Up-Time : 2 days, 16:18:42.96","type":"ESR","status":"1","hoto":"1"},{"lat":"23.5294","lng":"87.3269","name":"DGPRASTNESR001","address":"Sap : I-WB-DGPR-ENB-0025<br\/>Loopback : 172.23.252.96<br\/>Up-Time : 61 days, 4:17:41.57","type":"ESR","status":"1","hoto":"1"},{"lat":"23.5184","lng":"87.3443","name":"DGPRANDPPAR001","address":"Sap : I-WB-DGPR-ENB-0028<br\/>Loopback : 172.16.76.236<br\/>Up-Time : 49 days, 9:28:21.03","type":"PAR","status":"1","hoto":"1"},{"lat":"23.5311","lng":"87.3348","name":"DGPRASTNESR002","address":"Sap : I-WB-DGPR-ENB-0029<br\/>Loopback : 172.23.252.97<br\/>Up-Time : 50 days, 9:08:52.13","type":"ESR","status":"1","hoto":"1"},{"lat":"23.5603","lng":"87.2747","name":"DGPRNVDTESR001","address":"Sap : I-WB-DGPR-ENB-0030<br\/>Loopback : 172.23.254.90<br\/>Up-Time : 56 days, 1:54:09.87","type":"ESR","status":"1","hoto":"1"},{"lat":"23.4823","lng":"87.3464","name":"DGPRHDNTESR001","address":"Sap : I-WB-DGPR-ENB-0033<br\/>Loopback : 172.23.252.192<br\/>Up-Time : 61 days, 2:53:14.01","type":"ESR","status":"1","hoto":"1"},{"lat":"23.5141","lng":"87.348","name":"DGPRANDPESR001","address":"Sap : I-WB-DGPR-ENB-0035<br\/>Loopback : 172.23.254.9<br\/>Up-Time : 13 days, 14:25:48.26","type":"ESR","status":"1","hoto":"1"},{"lat":"23.4979","lng":"87.3573","name":"DGPRHDNTESR003","address":"Sap : I-WB-DGPR-ENB-0039<br\/>Loopback : 172.23.254.165<br\/>Up-Time : 58 days, 5:38:22.41","type":"ESR","status":"1","hoto":"1"},{"lat":"23.518","lng":"87.3643","name":"DGPRARHKESR001","address":"Sap : I-WB-DGPR-ENB-0043<br\/>Loopback : 172.23.253.60<br\/>Up-Time : 56 days, 3:00:07.83","type":"ESR","status":"1","hoto":"1"},{"lat":"23.5457","lng":"87.2818","name":"DGPRSDPYPAR001","address":"Sap : I-WB-DGPR-ENB-0046<br\/>Loopback : 172.16.77.133<br\/>Up-Time : ","type":"PAR","status":"1","hoto":"1"},{"lat":"23.5556","lng":"87.2644","name":"DGPRNIMNESR001","address":"Sap : I-WB-DGPR-ENB-0047<br\/>Loopback : 172.23.254.34<br\/>Up-Time : 56 days, 3:34:41.16","type":"ESR","status":"1","hoto":"1"},{"lat":"23.5567","lng":"87.2792","name":"DGPRSRYSESR002","address":"Sap : I-WB-DGPR-ENB-0049<br\/>Loopback : 172.23.252.199<br\/>Up-Time : 49 days, 12:26:13.87","type":"ESR","status":"1","hoto":"1"},{"lat":"23.5531","lng":"87.2834","name":"DGPRSDPLESR003","address":"Sap : I-WB-DGPR-ENB-0053<br\/>Loopback : 172.23.254.251<br\/>Up-Time : 58 days, 5:31:31.42","type":"ESR","status":"1","hoto":"1"},{"lat":"23.4927","lng":"87.3342","name":"DGPRGDNGESR002","address":"Sap : I-WB-DGPR-ENB-0058<br\/>Loopback : 172.23.254.252<br\/>Up-Time : 12 days, 13:27:26.39","type":"ESR","status":"1","hoto":"1"},{"lat":"23.5355","lng":"87.3013","name":"DGPRMAMCESR003","address":"Sap : I-WB-DGPR-ENB-0080<br\/>Loopback : 172.23.255.102<br\/>Up-Time : 12 days, 15:40:19.45","type":"ESR","status":"1","hoto":"1"},{"lat":"23.5081","lng":"87.3575","name":"DGPRARHKESR003","address":"Sap : I-WB-DGPR-ENB-0089<br\/>Loopback : 172.23.255.111<br\/>Up-Time : 48 days, 16:33:40.78","type":"ESR","status":"1","hoto":"1"},{"lat":"23.4983","lng":"87.3397","name":"DGPRHDNTPAR001","address":"Sap : I-WB-DGPR-ENB-0090<br\/>Loopback : 172.16.77.122<br\/>Up-Time : 49 days, 17:40:35.14","type":"PAR","status":"1","hoto":"1"},{"lat":"23.5584","lng":"87.2699","name":"DGPRBNCYESR002","address":"Sap : I-WB-DGPR-ENB-0091<br\/>Loopback : 172.23.253.71<br\/>Up-Time : 46 days, 14:03:20.64","type":"ESR","status":"1","hoto":"1"},{"lat":"23.5619","lng":"87.2712","name":"DGPRBNCYESR001","address":"Sap : I-WB-DGPR-ENB-0102<br\/>Loopback : 172.23.253.241<br\/>Up-Time : 2 days, 14:58:00.92","type":"ESR","status":"1","hoto":"1"},{"lat":"23.5789","lng":"87.2604","name":"DGPRDNBGESR001","address":"Sap : I-WB-DGPR-ENB-0113<br\/>Loopback : 172.23.254.36<br\/>Up-Time : 56 days, 3:20:35.70","type":"ESR","status":"1","hoto":"1"},{"lat":"23.5327","lng":"87.3132","name":"DGPRMAMCESR004","address":"Sap : I-WB-DGPR-ENB-0117<br\/>Loopback : 172.23.255.103<br\/>Up-Time : 17 days, 15:40:45.98","type":"ESR","status":"1","hoto":"1"},{"lat":"23.51","lng":"87.3348","name":"DGPRMCPRESR001","address":"Sap : I-WB-DGPR-ENB-6247<br\/>Loopback : 172.23.255.77<br\/>Up-Time : 40 days, 13:42:27.58","type":"ESR","status":"1","hoto":"1"},{"lat":"23.5345","lng":"87.3505","name":"DGPRNTWPESR001","address":"Sap : I-WB-DGPR-ENB-6249<br\/>Loopback : 172.23.252.95<br\/>Up-Time : 16 days, 17:46:04.36","type":"ESR","status":"1","hoto":"1"},{"lat":"23.4867","lng":"87.3203","name":"DGPRSKMRESR001","address":"Sap : I-WB-DGPR-ENB-6250<br\/>Loopback : 172.23.252.201<br\/>Up-Time : 56 days, 5:05:33.64","type":"ESR","status":"1","hoto":"1"},{"lat":"23.5469","lng":"87.2767","name":"DGPRSDPYESR001","address":"Sap : I-WB-DGPR-ENB-6251<br\/>Loopback : 172.23.252.193<br\/>Up-Time : 54 days, 16:50:11.59","type":"ESR","status":"1","hoto":"1"},{"lat":"23.5636","lng":"87.2539","name":"DGPRDSPSESR001","address":"Sap : I-WB-DGPR-ENB-6252<br\/>Loopback : 172.23.254.35<br\/>Up-Time : 56 days, 3:07:26.34","type":"ESR","status":"1","hoto":"1"},{"lat":"23.5041","lng":"87.3225","name":"DGPRPSDHESR002","address":"Sap : I-WB-DGPR-ENB-6253<br\/>Loopback : 172.23.255.78<br\/>Up-Time : 51 days, 3:26:36.61","type":"ESR","status":"1","hoto":"1"},{"lat":"23.5525","lng":"87.2869","name":"DGPRSDPLESR001","address":"Sap : I-WB-DGPR-ENB-6254<br\/>Loopback : 172.23.232.15<br\/>Up-Time : 18 days, 13:00:48.44","type":"ESR","status":"1","hoto":"1"},{"lat":"23.5742","lng":"87.2326","name":"DGPRBNGNESR001","address":"Sap : I-WB-DGPR-ENB-6257<br\/>Loopback : 172.23.244.123<br\/>Up-Time : 24 days, 13:35:38.01","type":"ESR","status":"1","hoto":"1"},{"lat":"23.5662","lng":"87.274","name":"DGPRBCHTESR001","address":"Sap : I-WB-DGPR-ENB-6258<br\/>Loopback : 172.23.255.130<br\/>Up-Time : 46 days, 2:51:44.64","type":"ESR","status":"1","hoto":"1"},{"lat":"23.563","lng":"87.2808","name":"DGPRSRYSESR003","address":"Sap : I-WB-DGPR-ENB-6259<br\/>Loopback : 172.23.255.34<br\/>Up-Time : 43 days, 22:31:53.30","type":"ESR","status":"1","hoto":"1"},{"lat":"23.5562","lng":"87.3014","name":"DGPRKLCZESR001","address":"Sap : I-WB-DGPR-ENB-6262<br\/>Loopback : 172.23.252.200<br\/>Up-Time : 60 days, 6:09:01.90","type":"ESR","status":"1","hoto":"1"},{"lat":"23.4911","lng":"87.3225","name":"DGPRHDNTESR004","address":"Sap : I-WB-DGPR-ENB-6263<br\/>Loopback : 172.23.252.197<br\/>Up-Time : 30 days, 14:31:09.79","type":"ESR","status":"1","hoto":"1"},{"lat":"23.5676","lng":"87.3017","name":"DGPRDGBZESR001","address":"Sap : I-WB-DGPR-ENB-6264<br\/>Loopback : 172.23.253.112<br\/>Up-Time : 56 days, 3:19:57.20","type":"ESR","status":"1","hoto":"1"},{"lat":"23.5715","lng":"87.3263","name":"DGPRDGBZESR002","address":"Sap : I-WB-DGPR-ENB-6266<br\/>Loopback : 172.23.255.153<br\/>Up-Time : 39 days, 2:29:58.03","type":"ESR","status":"1","hoto":"1"},{"lat":"23.5407","lng":"87.3356","name":"DGPRFULJESR001","address":"Sap : I-WB-DGPR-ENB-6267<br\/>Loopback : 172.23.252.98<br\/>Up-Time : 6 days, 15:38:51.80","type":"ESR","status":"1","hoto":"1"},{"lat":"23.5001","lng":"87.3114","name":"DGPRPSDHESR001","address":"Sap : I-WB-DGPR-ENB-6268<br\/>Loopback : 172.23.252.93<br\/>Up-Time : 45 days, 14:53:21.59","type":"ESR","status":"1","hoto":"1"},{"lat":"23.5437","lng":"87.3091","name":"DGPRSAILESR001","address":"Sap : I-WB-DGPR-ENB-6273<br\/>Loopback : 172.23.253.145<br\/>Up-Time : 41 days, 21:26:36.73","type":"ESR","status":"1","hoto":"1"},{"lat":"23.5865","lng":"87.2715","name":"DGPRKURIESR001","address":"Sap : I-WB-DGPR-ENB-6274<br\/>Loopback : 172.23.254.37<br\/>Up-Time : 56 days, 2:01:32.34","type":"ESR","status":"1","hoto":"1"},{"lat":"23.497","lng":"87.3291","name":"DGPRGDNGESR001","address":"Sap : I-WB-DGPR-ENB-B001<br\/>Loopback : 172.23.252.216<br\/> ","type":"ESR","status":"0","hoto":"1"},{"lat":"23.5328","lng":"87.3091","name":"DGPRMAMCESR002","address":"Sap : I-WB-DGPR-ENB-B002<br\/>Loopback : 172.23.253.64<br\/>Up-Time : 4 days, 16:49:34.91","type":"ESR","status":"1","hoto":"1"},{"lat":"23.5567","lng":"87.2882","name":"DGPRADWSESR001","address":"Sap : I-WB-DGPR-ENB-B003<br\/>Loopback : 172.23.254.5<br\/> ","type":"ESR","status":"0","hoto":"1"},{"lat":"23.5674","lng":"87.2916","name":"DGPRDGAZESR001","address":"Sap : I-WB-DGPR-ENB-B004<br\/>Loopback : 172.23.255.140<br\/>Up-Time : 44 days, 9:44:09.30","type":"ESR","status":"1","hoto":"1"},{"lat":"23.5872","lng":"87.2837","name":"DGPRDGAZESR002","address":"Sap : I-WB-DGPR-ENB-B006<br\/>Loopback : 172.23.254.247<br\/>Up-Time : 7 days, 14:05:24.59","type":"ESR","status":"1","hoto":"1"},{"lat":"23.5702","lng":"87.3193","name":"DGPRBKMCESR001","address":"Sap : I-WB-DGPR-ENB-B007<br\/>Loopback : 172.23.255.80<br\/>Up-Time : 3 days, 0:04:03.50","type":"ESR","status":"1","hoto":"1"},{"lat":"23.5594","lng":"87.3039","name":"DGPRKLCZESR004","address":"Sap : I-WB-DGPR-ENB-B008<br\/>Loopback : 172.23.255.141<br\/>Up-Time : 51 days, 3:42:34.27","type":"ESR","status":"1","hoto":"1"},{"lat":"23.5338","lng":"87.3279","name":"DGPRMAMCESR001","address":"Sap : I-WB-DGPR-ENB-B009<br\/>Loopback : 172.23.252.214<br\/>Up-Time : 20 days, 13:19:51.75","type":"ESR","status":"1","hoto":"1"},{"lat":"23.5823","lng":"87.2895","name":"DGPRDGAZESR003","address":"Sap : I-WB-DGPR-ENB-B010<br\/>Loopback : 172.23.255.139<br\/>Up-Time : 7 days, 14:05:04.01","type":"ESR","status":"1","hoto":"1"},{"lat":"23.5651","lng":"87.2847","name":"DGPRDGAZESR004","address":"Sap : I-WB-DGPR-ENB-B013<br\/>Loopback : 172.23.254.4<br\/>Up-Time : 15:57:16.40","type":"ESR","status":"1","hoto":"1"},{"lat":"23.5027","lng":"87.308","name":"DGPRPSDHESR003","address":"Sap : I-WB-DGPR-ENB-B014<br\/>Loopback : 172.23.252.158<br\/>Up-Time : 39 days, 2:15:03.31","type":"ESR","status":"1","hoto":"1"},{"lat":"23.5435","lng":"87.305","name":"DGPRSAILESR003","address":"Sap : I-WB-DGPR-ENB-B016<br\/>Loopback : 172.23.255.132<br\/>Up-Time : 2:49:28.98","type":"ESR","status":"1","hoto":"1"},{"lat":"23.5565","lng":"87.2751","name":"DGPRSRYSESR004","address":"Sap : I-WB-DGPR-ENB-G001<br\/>Loopback : 172.23.254.85<br\/>Up-Time : 28 days, 18:17:38.39","type":"ESR","status":"1","hoto":"1"},{"lat":"23.5749","lng":"87.2742","name":"DGPRRSIAESR001","address":"Sap : I-WB-DGPR-ENB-G002<br\/>Loopback : 172.23.253.242<br\/>Up-Time : 42 days, 12:33:29.76","type":"ESR","status":"1","hoto":"1"},{"lat":"23.486","lng":"87.302","name":"DGPRADBIESR001","address":"Sap : I-WB-DGPR-ENB-I001<br\/>Loopback : 172.23.252.185<br\/>Up-Time : 6 days, 10:20:53.80","type":"ESR","status":"1","hoto":"1"},{"lat":"23.5674","lng":"87.2916","name":"DGPRDGAZESR005","address":"Sap : I-WB-DGPR-ENB-I002<br\/>Loopback : 172.23.254.142<br\/>Up-Time : 40 days, 15:41:14.52","type":"ESR","status":"1","hoto":"1"},{"lat":"23.5251","lng":"87.3593","name":"DGPRTIKLESR002","address":"Sap : I-WB-DGPR-ENB-S001<br\/>Loopback : 172.23.252.94<br\/>Up-Time : 56 days, 2:03:26.06","type":"ESR","status":"1","hoto":"1"},{"lat":"23.5129","lng":"87.3514","name":"DGPRBDNGESR003","address":"Sap : I-WB-DGPR-ENB-V001<br\/>Loopback : 172.23.252.218<br\/>Up-Time : 27 days, 15:18:29.93","type":"ESR","status":"1","hoto":"1"},{"lat":"23.5522","lng":"87.3169","name":"DGPRSEPCESR001","address":"Sap : I-WB-DGPR-ENB-V002<br\/>Loopback : 172.23.254.117<br\/>Up-Time : 38 days, 12:32:19.15","type":"ESR","status":"1","hoto":"1"},{"lat":"23.508","lng":"87.3664","name":"DGPRARHKESR002","address":"Sap : I-WB-DGPR-ENB-V004<br\/>Loopback : 172.23.253.59<br\/>Up-Time : 41 days, 21:31:00.51","type":"ESR","status":"1","hoto":"1"},{"lat":"23.5515","lng":"87.2694","name":"DGPRNIMNESR002","address":"Sap : I-WB-DGPR-ENB-V005<br\/>Loopback : 172.23.254.28<br\/> ","type":"ESR","status":"0","hoto":"1"},{"lat":"23.5708","lng":"87.305","name":"DGPRDGBZESR003","address":"Sap : I-WB-DGPR-ENB-V006<br\/>Loopback : 172.23.255.154<br\/>Up-Time : 46 days, 3:15:41.85","type":"ESR","status":"1","hoto":"1"},{"lat":"23.5535","lng":"87.3372","name":"DGPRKLCZESR003","address":"Sap : I-WB-DGPR-ENB-W001<br\/>Loopback : 172.23.253.146<br\/>Up-Time : 49 days, 11:12:42.24","type":"ESR","status":"1","hoto":"1"},{"lat":"23.493","lng":"87.3423","name":"DGPRHDNTESR005","address":"Sap : I-WB-DGPR-ENB-W002<br\/>Loopback : 172.23.252.191<br\/>Up-Time : 30 days, 14:51:08.58","type":"ESR","status":"1","hoto":"1"},{"lat":"24.681","lng":"87.9564","name":"SRGJCJPTESR001","address":"Sap : I-WB-DHLN-ENB-0001<br\/>Loopback : 172.23.68.5<br\/>Up-Time : 51 days, 15:14:16.54","type":"ESR","status":"1","hoto":"1"},{"lat":"24.6766","lng":"87.9517","name":"SRGJBDHNESR001","address":"Sap : I-WB-DHLN-ENB-0003<br\/>Loopback : 172.23.68.8<br\/>Up-Time : 60 days, 1:34:54.75","type":"ESR","status":"1","hoto":"1"},{"lat":"24.6773","lng":"87.9579","name":"DHLNBDHNESR001","address":"Sap : I-WB-DHLN-ENB-0004<br\/>Loopback : 172.23.67.167<br\/>Up-Time : 22:19:34.48","type":"ESR","status":"1","hoto":"1"},{"lat":"24.6885","lng":"87.9504","name":"SRGJJNCLESR002","address":"Sap : I-WB-DHLN-ENB-0005<br\/>Loopback : 172.23.68.30<br\/>Up-Time : 15 days, 13:11:30.77","type":"ESR","status":"1","hoto":"1"},{"lat":"24.6917","lng":"87.9453","name":"SRGJMHDBESR001","address":"Sap : I-WB-DHLN-ENB-0006<br\/>Loopback : 172.23.68.1<br\/>Up-Time : 41 days, 21:18:40.54","type":"ESR","status":"1","hoto":"1"},{"lat":"24.6848","lng":"87.9434","name":"SRGJDULNESR001","address":"Sap : I-WB-DHLN-ENB-0007<br\/>Loopback : 172.23.68.2<br\/>Up-Time : 60 days, 5:54:10.87","type":"ESR","status":"1","hoto":"1"},{"lat":"24.6918","lng":"87.9415","name":"SRGJMHDBESR002","address":"Sap : I-WB-DHLN-ENB-0008<br\/>Loopback : 172.23.68.3<br\/> ","type":"ESR","status":"0","hoto":"1"},{"lat":"24.696","lng":"87.9423","name":"SRGJGZNRESR001","address":"Sap : I-WB-DHLN-ENB-0009<br\/>Loopback : 172.23.68.9<br\/>Up-Time : 25 days, 21:10:39.49","type":"ESR","status":"1","hoto":"1"},{"lat":"24.6937","lng":"87.9382","name":"SRGJMHSPESR001","address":"Sap : I-WB-DHLN-ENB-0010<br\/>Loopback : 172.23.68.10<br\/>Up-Time : 25 days, 21:11:23.62","type":"ESR","status":"1","hoto":"1"},{"lat":"24.7001","lng":"87.9374","name":"PRRPPRRPESR001","address":"Sap : I-WB-DHLN-ENB-0011<br\/>Loopback : 172.23.68.11<br\/>Up-Time : 4 days, 12:32:43.35","type":"ESR","status":"1","hoto":"1"},{"lat":"24.7097","lng":"87.9368","name":"FRKKFRKKESR001","address":"Sap : I-WB-DHLN-ENB-0012<br\/>Loopback : 172.23.68.12<br\/>Up-Time : 9 days, 2:22:44.54","type":"ESR","status":"1","hoto":"1"},{"lat":"24.6881","lng":"87.9372","name":"SRGJMHDBESR003","address":"Sap : I-WB-DHLN-ENB-0013<br\/>Loopback : 172.23.68.4<br\/>Up-Time : 4 days, 14:19:22.16","type":"ESR","status":"1","hoto":"1"},{"lat":"24.6716","lng":"87.9397","name":"SRGJAPNRESR001","address":"Sap : I-WB-DHLN-ENB-0014<br\/>Loopback : 172.23.68.13<br\/>Up-Time : 36 days, 14:16:31.40","type":"ESR","status":"1","hoto":"1"},{"lat":"24.682","lng":"87.9379","name":"MHDBMHDBESR001","address":"Sap : I-WB-DHLN-ENB-0015<br\/>Loopback : 172.23.68.7<br\/>Up-Time : 56 days, 15:47:23.92","type":"ESR","status":"1","hoto":"1"},{"lat":"24.6803","lng":"87.9455","name":"SRGJAPNRESR002","address":"Sap : I-WB-DHLN-ENB-0016<br\/>Loopback : 172.23.68.6<br\/>Up-Time : 43 days, 11:53:51.37","type":"ESR","status":"1","hoto":"1"},{"lat":"24.6729","lng":"87.9476","name":"SRGJJNCLESR003","address":"Sap : I-WB-DHLN-ENB-0017<br\/>Loopback : 172.23.68.31<br\/>Up-Time : 29 days, 13:36:33.74","type":"ESR","status":"1","hoto":"1"},{"lat":"24.673","lng":"87.9575","name":"DHLNNRTGESR001","address":"Sap : I-WB-DHLN-ENB-0018<br\/>Loopback : 172.23.67.168<br\/>Up-Time : 14 days, 5:59:59.23","type":"ESR","status":"1","hoto":"1"},{"lat":"24.6696","lng":"87.9621","name":"SRGJJNCLESR004","address":"Sap : I-WB-DHLN-ENB-0019<br\/>Loopback : 172.23.68.32<br\/>Up-Time : 15 days, 8:08:08.58","type":"ESR","status":"1","hoto":"1"},{"lat":"24.6647","lng":"87.9402","name":"DHLNVLKRPAR001","address":"Sap : I-WB-DHLN-ENB-0021<br\/>Loopback : 172.16.58.15<br\/>Up-Time : ","type":"PAR","status":"1","hoto":"1"},{"lat":"24.642","lng":"87.9857","name":"SRGJJNCLESR005","address":"Sap : I-WB-DHLN-ENB-6412<br\/>Loopback : 172.23.68.33<br\/>Up-Time : 9 days, 13:11:37.82","type":"ESR","status":"1","hoto":"1"},{"lat":"24.6635","lng":"87.9428","name":"DHLNAPNRESR001","address":"Sap : I-WB-DHLN-ENB-6413<br\/>Loopback : 172.23.65.126<br\/>Up-Time : 51 days, 3:23:35.37","type":"ESR","status":"1","hoto":"1"},{"lat":"24.6593","lng":"87.96","name":"SRGJJNCLESR006","address":"Sap : I-WB-DHLN-ENB-6414<br\/>Loopback : 172.23.68.34<br\/>Up-Time : 8 days, 12:03:28.46","type":"ESR","status":"1","hoto":"1"},{"lat":"24.6499","lng":"87.9734","name":"SRGJJNCLESR009","address":"Sap : I-WB-DHLN-ENB-6415<br\/>Loopback : 172.23.68.37<br\/>Up-Time : 41 days, 21:21:22.51","type":"ESR","status":"1","hoto":"1"},{"lat":"24.6852","lng":"87.9503","name":"SRGJJNCLESR001","address":"Sap : I-WB-DHLN-ENB-V001<br\/>Loopback : 172.23.68.29<br\/>Up-Time : 25 days, 17:45:27.31","type":"ESR","status":"1","hoto":"1"},{"lat":"22.1987","lng":"88.1847","name":"DHRBNTWNESR001","address":"Sap : I-WB-DHRB-ENB-6472<br\/>Loopback : 172.23.246.7<br\/>Up-Time : 61 days, 22:24:48.77","type":"ESR","status":"1","hoto":"1"},{"lat":"22.1903","lng":"88.1904","name":"DHRBARMRESR001","address":"Sap : I-WB-DHRB-ENB-6473<br\/>Loopback : 172.23.246.6<br\/>Up-Time : 62 days, 4:10:39.20","type":"ESR","status":"1","hoto":"1"},{"lat":"22.2247","lng":"88.236","name":"DHRBDHRBESR001","address":"Sap : I-WB-DHRB-ENB-6474<br\/>Loopback : 172.23.255.222<br\/>Up-Time : 12 days, 17:11:21.63","type":"ESR","status":"1","hoto":"1"},{"lat":"22.2108","lng":"88.1212","name":"DHRODHROESR006","address":"Sap : I-WB-DHRO-ENB-6492<br\/>Loopback : 172.23.255.2<br\/>Up-Time : 25 days, 18:18:38.75","type":"ESR","status":"1","hoto":"1"},{"lat":"22.2433","lng":"88.1871","name":"DHRODHROESR001","address":"Sap : I-WB-DHRO-ENB-6493<br\/>Loopback : 172.23.232.74<br\/>Up-Time : 2 days, 9:51:46.86","type":"ESR","status":"1","hoto":"1"},{"lat":"22.2158","lng":"88.0791","name":"DHRODHROESR002","address":"Sap : I-WB-DHRO-ENB-6495<br\/>Loopback : 172.23.255.249<br\/>Up-Time : 33 days, 20:37:44.27","type":"ESR","status":"1","hoto":"1"},{"lat":"22.696","lng":"88.6868","name":"DLIADLIAPAR001","address":"Sap : I-WB-DLIA-ENB-9001<br\/>Loopback : 172.16.77.62<br\/>Up-Time : 43 days, 22:36:42.62","type":"PAR","status":"1","hoto":"1"},{"lat":"22.696","lng":"88.6868","name":"DLIADLIAPAR002","address":"Sap : I-WB-DLIA-ENB-9001<br\/>Loopback : 172.16.77.63<br\/>Up-Time : 43 days, 22:36:39.22","type":"PAR","status":"1","hoto":"1"},{"lat":"25.8848","lng":"87.8281","name":"DLKLDLKLESR001","address":"Sap : I-WB-DLKL-ENB-7021<br\/>Loopback : 172.23.75.167<br\/>Up-Time : 15 days, 11:09:44.11","type":"ESR","status":"1","hoto":"1"},{"lat":"25.877","lng":"87.8396","name":"DLKLDLKLPAR002","address":"Sap : I-WB-DLKL-ENB-7022<br\/>Loopback : 172.16.58.117<br\/>Up-Time : 35 days, 9:07:36.09","type":"PAR","status":"1","hoto":"1"},{"lat":"25.8744","lng":"87.8644","name":"DLKLDLKLESR002","address":"Sap : I-WB-DLKL-ENB-7023<br\/>Loopback : 172.23.75.168<br\/>Up-Time : 4 days, 10:10:33.82","type":"ESR","status":"1","hoto":"1"},{"lat":"26.2005","lng":"89.4801","name":"DNHTDNHTESR004","address":"Sap : I-WB-DNHT-ENB-6000<br\/>Loopback : 172.23.70.75<br\/>Up-Time : 46 days, 2:47:14.42","type":"ESR","status":"1","hoto":"1"},{"lat":"26.1336","lng":"89.4506","name":"DNHTDNHTESR005","address":"Sap : I-WB-DNHT-ENB-6001<br\/>Loopback : 172.23.71.221<br\/>Up-Time : 35 days, 11:27:04.49","type":"ESR","status":"1","hoto":"1"},{"lat":"26.141","lng":"89.3651","name":"DNHTDNHTESR003","address":"Sap : I-WB-DNHT-ENB-6008<br\/>Loopback : 172.23.71.192<br\/>Up-Time : 25 days, 17:40:13.36","type":"ESR","status":"1","hoto":"1"},{"lat":"22.9686","lng":"88.0319","name":"DNKLDNKLESR003","address":"Sap : I-WB-DNKL-ENB-6002<br\/>Loopback : 172.23.255.161<br\/>Up-Time : 12 days, 11:21:09.81","type":"ESR","status":"1","hoto":"1"},{"lat":"23.031","lng":"88.1114","name":"DNKLDNKLESR002","address":"Sap : I-WB-DNKL-ENB-6006<br\/>Loopback : 172.23.255.163<br\/>Up-Time : 7 days, 14:24:50.91","type":"ESR","status":"1","hoto":"1"},